{
    "nct_id": "NCT05640999",
    "official_title": "A Phase II Study of Tailored Adjuvant Therapy in POLE-Mutated and p53-Wildtype/NSMP Early Stage Endormetrial Cancer (RAINBO BLUE & TAPER)",
    "brief_title": "Adjuvant Therapy in POLE-Mutated and p53-Wildtype/NSMP Early Stage Endometrial Cancer RAINBO BLUE & TAPER",
    "cancer_type_display": "A study testing tailored, de-escalated adjuvant therapy for patients with specific molecular profiles of early-stage endometrial cancer (POLE-mutated or p53-wildtype).",
    "cancer_tags": [
      "Endometrial Cancer"
    ],
    "link_to_trial": "https://clinicaltrials.gov/study/NCT05640999",
    "phase": "Phase 2",
    "recruitment_status": "RECRUITING",
    "last_update_date": "2025-10-16",
    "enrollment": 393,
    "min_age": 18,
    "max_age": null,
    "sex": "FEMALE",
    "is_metastatic_allowed": false,
    "performance_status_scale": "ECOG",
    "performance_status_values": [
      0,
      1,
      2
    ],
    "min_prior_lines": null,
    "max_prior_lines": null,
    "prior_treatments_required": [
      "Hysterectomy and bilateral salpingo-oophorectomy"
    ],
    "prior_treatments_excluded": [
      "Prior Neoadjuvant chemotherapy for current endometrial cancer diagnosis",
      "Prior pelvic radiation"
    ],
    "principal_investigator": "Kathy Han",
    "site_name": "Alaska Womens Cancer Care",
    "contact_email": null,
    "contact_phone": "907-212-6871",
    "locations": [
      {
        "facility": "Alaska Womens Cancer Care",
        "status": "RECRUITING",
        "city": "Anchorage",
        "state": "Alaska",
        "zip": "99508",
        "country": "United States",
        "contacts": [
          {
            "name": "Melissa Hardesty",
            "role": "CONTACT",
            "phone": "907-212-6871"
          }
        ],
        "geoPoint": {
          "lat": 61.21806,
          "lon": -149.90028
        }
      },
      {
        "facility": "University of Arizona Cancer Center",
        "status": "RECRUITING",
        "city": "Tucson",
        "state": "Arizona",
        "zip": "85719",
        "country": "United States",
        "contacts": [
          {
            "name": "Marina Miller",
            "role": "CONTACT"
          }
        ],
        "geoPoint": {
          "lat": 32.22174,
          "lon": -110.92648
        }
      },
      {
        "facility": "Cedars-Sinai Medical Center",
        "status": "RECRUITING",
        "city": "Los Angeles",
        "state": "California",
        "zip": "90048",
        "country": "United States",
        "contacts": [
          {
            "name": "Andrew Li",
            "role": "CONTACT",
            "phone": "310-423-5246"
          }
        ],
        "geoPoint": {
          "lat": 34.05223,
          "lon": -118.24368
        }
      },
      {
        "facility": "Huntington Memorial Hospital",
        "status": "RECRUITING",
        "city": "Pasadena",
        "state": "California",
        "zip": "91105",
        "country": "United States",
        "contacts": [
          {
            "name": "Andrew Li",
            "role": "CONTACT",
            "phone": "310-423-5246"
          }
        ],
        "geoPoint": {
          "lat": 34.14778,
          "lon": -118.14452
        }
      },
      {
        "facility": "Sutter Medical Center Sacramento",
        "status": "RECRUITING",
        "city": "Sacramento",
        "state": "California",
        "zip": "95816",
        "country": "United States",
        "contacts": [
          {
            "name": "Anna Likhacheva",
            "role": "CONTACT"
          }
        ],
        "geoPoint": {
          "lat": 38.58157,
          "lon": -121.4944
        }
      },
      {
        "facility": "UCHealth University of Colorado Hospital",
        "status": "RECRUITING",
        "city": "Aurora",
        "state": "Colorado",
        "zip": "80045",
        "country": "United States",
        "contacts": [
          {
            "name": "Bradley Corr",
            "role": "CONTACT"
          }
        ],
        "geoPoint": {
          "lat": 39.72943,
          "lon": -104.83192
        }
      },
      {
        "facility": "Sarasota Memorial Hospital - Venice",
        "status": "RECRUITING",
        "city": "N. Venice",
        "state": "Florida",
        "zip": "34275",
        "country": "United States",
        "contacts": [
          {
            "name": "Beverly Long",
            "role": "CONTACT",
            "phone": "941-917-2225"
          }
        ]
      },
      {
        "facility": "Florida Cancer Specialists - Sarasota Downtown",
        "status": "RECRUITING",
        "city": "Sarasota",
        "state": "Florida",
        "zip": "34236",
        "country": "United States",
        "contacts": [
          {
            "name": "Beverly Long",
            "role": "CONTACT",
            "phone": "941-917-2225"
          }
        ],
        "geoPoint": {
          "lat": 27.33643,
          "lon": -82.53065
        }
      },
      {
        "facility": "First Physicians Group-Sarasota",
        "status": "RECRUITING",
        "city": "Sarasota",
        "state": "Florida",
        "zip": "34239",
        "country": "United States",
        "contacts": [
          {
            "name": "Beverly Long",
            "role": "CONTACT",
            "phone": "941-917-2225"
          }
        ],
        "geoPoint": {
          "lat": 27.33643,
          "lon": -82.53065
        }
      },
      {
        "facility": "Sarasota Memorial Hospital",
        "status": "RECRUITING",
        "city": "Sarasota",
        "state": "Florida",
        "zip": "34239",
        "country": "United States",
        "contacts": [
          {
            "name": "Beverly Long",
            "role": "CONTACT",
            "phone": "941-917-2225"
          }
        ],
        "geoPoint": {
          "lat": 27.33643,
          "lon": -82.53065
        }
      },
      {
        "facility": "Sarasota Memorial Health Care Centre",
        "status": "RECRUITING",
        "city": "Sarasota",
        "state": "Florida",
        "zip": "34243",
        "country": "United States",
        "contacts": [
          {
            "name": "Beverly Long",
            "role": "CONTACT",
            "phone": "941-917-2225"
          }
        ],
        "geoPoint": {
          "lat": 27.33643,
          "lon": -82.53065
        }
      },
      {
        "facility": "Florida Cancer Specialists - Venice Pinebrook",
        "status": "RECRUITING",
        "city": "Venice",
        "state": "Florida",
        "zip": "34275",
        "country": "United States",
        "contacts": [
          {
            "name": "Beverly Long",
            "role": "CONTACT",
            "phone": "941-917-2225"
          }
        ],
        "geoPoint": {
          "lat": 27.09978,
          "lon": -82.45426
        }
      },
      {
        "facility": "Grady Health System",
        "status": "RECRUITING",
        "city": "Atlanta",
        "state": "Georgia",
        "zip": "30303",
        "country": "United States",
        "contacts": [
          {
            "name": "Jill Remick",
            "role": "CONTACT",
            "phone": "404-778-1900"
          }
        ],
        "geoPoint": {
          "lat": 33.749,
          "lon": -84.38798
        }
      },
      {
        "facility": "Emory University Hospital Midtown",
        "status": "RECRUITING",
        "city": "Atlanta",
        "state": "Georgia",
        "zip": "30308",
        "country": "United States",
        "contacts": [
          {
            "name": "Jill Remick",
            "role": "CONTACT",
            "phone": "404-778-1900"
          }
        ],
        "geoPoint": {
          "lat": 33.749,
          "lon": -84.38798
        }
      },
      {
        "facility": "Piedmont Hospital",
        "status": "RECRUITING",
        "city": "Atlanta",
        "state": "Georgia",
        "zip": "30309",
        "country": "United States",
        "contacts": [
          {
            "name": "Leda Gattoc",
            "role": "CONTACT"
          }
        ],
        "geoPoint": {
          "lat": 33.749,
          "lon": -84.38798
        }
      },
      {
        "facility": "Emory University Hospital Winship Cancer Institute",
        "status": "RECRUITING",
        "city": "Atlanta",
        "state": "Georgia",
        "zip": "30322",
        "country": "United States",
        "contacts": [
          {
            "name": "Jill Remick",
            "role": "CONTACT",
            "phone": "404-778-1900"
          }
        ],
        "geoPoint": {
          "lat": 33.749,
          "lon": -84.38798
        }
      },
      {
        "facility": "Emory Saint Josephs Hospital",
        "status": "RECRUITING",
        "city": "Atlanta",
        "state": "Georgia",
        "zip": "30342",
        "country": "United States",
        "contacts": [
          {
            "name": "Jill Remick",
            "role": "CONTACT",
            "phone": "404-778-1900"
          }
        ],
        "geoPoint": {
          "lat": 33.749,
          "lon": -84.38798
        }
      },
      {
        "facility": "Emory Decatur Hospital",
        "status": "RECRUITING",
        "city": "Decatur",
        "state": "Georgia",
        "zip": "30033",
        "country": "United States",
        "contacts": [
          {
            "name": "Jill Remick",
            "role": "CONTACT",
            "phone": "404-778-1900"
          }
        ],
        "geoPoint": {
          "lat": 33.77483,
          "lon": -84.29631
        }
      },
      {
        "facility": "Northwestern University",
        "status": "RECRUITING",
        "city": "Chicago",
        "state": "Illinois",
        "zip": "60611",
        "country": "United States",
        "contacts": [
          {
            "name": "Dario Roque",
            "role": "CONTACT",
            "phone": "312-695-0990"
          }
        ],
        "geoPoint": {
          "lat": 41.85003,
          "lon": -87.65005
        }
      },
      {
        "facility": "Northwestern Medicine Cancer Center Warrenville",
        "status": "RECRUITING",
        "city": "Warrenville",
        "state": "Illinois",
        "zip": "60555",
        "country": "United States",
        "contacts": [
          {
            "name": "Dario Roque",
            "role": "CONTACT",
            "phone": "312-695-0990"
          }
        ],
        "geoPoint": {
          "lat": 41.81781,
          "lon": -88.1734
        }
      },
      {
        "facility": "Ascension Saint Vincent Indianapolis Hospital",
        "status": "NOT_YET_RECRUITING",
        "city": "Indianapolis",
        "state": "Indiana",
        "zip": "46260",
        "country": "United States",
        "contacts": [
          {
            "name": "Megan Buechel",
            "role": "CONTACT",
            "phone": "317-415-6740"
          }
        ],
        "geoPoint": {
          "lat": 39.76838,
          "lon": -86.15804
        }
      },
      {
        "facility": "University Medical Center New Orleans",
        "status": "RECRUITING",
        "city": "New Orleans",
        "state": "Louisiana",
        "zip": "70112",
        "country": "United States",
        "contacts": [
          {
            "name": "Tara Castellano",
            "role": "CONTACT",
            "phone": "504-210-3539"
          }
        ],
        "geoPoint": {
          "lat": 29.95465,
          "lon": -90.07507
        }
      },
      {
        "facility": "Baystate Medical Center",
        "status": "RECRUITING",
        "city": "Springfield",
        "state": "Massachusetts",
        "zip": "01199",
        "country": "United States",
        "contacts": [
          {
            "name": "Tashanna Myers",
            "role": "CONTACT",
            "phone": "413-974-3565"
          }
        ],
        "geoPoint": {
          "lat": 42.10148,
          "lon": -72.58981
        }
      },
      {
        "facility": "UMass Memorial Medical Centre",
        "status": "RECRUITING",
        "city": "Worcester",
        "state": "Massachusetts",
        "zip": "01605",
        "country": "United States",
        "contacts": [
          {
            "name": "Susan Zweizig",
            "role": "CONTACT",
            "phone": "508-856-6265"
          }
        ],
        "geoPoint": {
          "lat": 42.26259,
          "lon": -71.80229
        }
      },
      {
        "facility": "Washington University School of Medicine",
        "status": "RECRUITING",
        "city": "St Louis",
        "state": "Missouri",
        "zip": "63110",
        "country": "United States",
        "contacts": [
          {
            "name": "Premal Thaker",
            "role": "CONTACT",
            "phone": "314-747-3604"
          }
        ],
        "geoPoint": {
          "lat": 38.62727,
          "lon": -90.19789
        }
      },
      {
        "facility": "Womens Cancer Center of Nevada",
        "status": "RECRUITING",
        "city": "Las Vegas",
        "state": "Nevada",
        "zip": "89106",
        "country": "United States",
        "contacts": [
          {
            "name": "Nicola Spirtos",
            "role": "CONTACT",
            "phone": "702-851-4672"
          }
        ],
        "geoPoint": {
          "lat": 36.17497,
          "lon": -115.13722
        }
      },
      {
        "facility": "Sidney Kimmel Cancer Center Washington Township",
        "status": "RECRUITING",
        "city": "Sewell",
        "state": "New Jersey",
        "zip": "08080",
        "country": "United States",
        "contacts": [
          {
            "name": "Mitchell Edelson",
            "role": "CONTACT",
            "phone": "215-481-4000"
          }
        ],
        "geoPoint": {
          "lat": 39.7665,
          "lon": -75.14434
        }
      },
      {
        "facility": "Mount Sinai Chelsea",
        "status": "RECRUITING",
        "city": "New York",
        "state": "New York",
        "zip": "10011",
        "country": "United States",
        "contacts": [
          {
            "name": "Caitlin Carr",
            "role": "CONTACT",
            "phone": "212-824-7309"
          }
        ],
        "geoPoint": {
          "lat": 40.71427,
          "lon": -74.00597
        }
      },
      {
        "facility": "Mount Sinai Hospital",
        "status": "RECRUITING",
        "city": "New York",
        "state": "New York",
        "zip": "10029",
        "country": "United States",
        "contacts": [
          {
            "name": "Caitlin Carr",
            "role": "CONTACT",
            "phone": "212-824-7309"
          }
        ],
        "geoPoint": {
          "lat": 40.71427,
          "lon": -74.00597
        }
      },
      {
        "facility": "Upstate Cancer Center Radiation Oncology at Oswego",
        "status": "RECRUITING",
        "city": "Oswego",
        "state": "New York",
        "zip": "13126",
        "country": "United States",
        "contacts": [
          {
            "name": "Mary Cunningham",
            "role": "CONTACT",
            "phone": "315-634-4112"
          }
        ],
        "geoPoint": {
          "lat": 43.45535,
          "lon": -76.5105
        }
      },
      {
        "facility": "State University of New York",
        "status": "RECRUITING",
        "city": "Syracuse",
        "state": "New York",
        "zip": "13210",
        "country": "United States",
        "contacts": [
          {
            "name": "Mary Cunningham",
            "role": "CONTACT",
            "phone": "315-634-4112"
          }
        ],
        "geoPoint": {
          "lat": 43.04812,
          "lon": -76.14742
        }
      },
      {
        "facility": "Upstate Cancer Center at Hill Radiation Oncology",
        "status": "RECRUITING",
        "city": "Syracuse",
        "state": "New York",
        "zip": "13210",
        "country": "United States",
        "contacts": [
          {
            "name": "Mary Cunningham",
            "role": "CONTACT",
            "phone": "315-634-4112"
          }
        ],
        "geoPoint": {
          "lat": 43.04812,
          "lon": -76.14742
        }
      },
      {
        "facility": "Upstate Cancer Center at Verona",
        "status": "RECRUITING",
        "city": "Verona",
        "state": "New York",
        "zip": "13478",
        "country": "United States",
        "contacts": [
          {
            "name": "Mary Cunningham",
            "role": "CONTACT",
            "phone": "315-634-4112"
          }
        ],
        "geoPoint": {
          "lat": 43.13812,
          "lon": -75.57073
        }
      },
      {
        "facility": "UNC Lineberger Comprehensive Cancer Center",
        "status": "RECRUITING",
        "city": "Chapel Hill",
        "state": "North Carolina",
        "zip": "27599",
        "country": "United States",
        "contacts": [
          {
            "name": "Olivia Lara",
            "role": "CONTACT",
            "phone": "877-668-0683"
          }
        ],
        "geoPoint": {
          "lat": 35.9132,
          "lon": -79.05584
        }
      },
      {
        "facility": "Duke University Medical Center",
        "status": "RECRUITING",
        "city": "Durham",
        "state": "North Carolina",
        "zip": "27710",
        "country": "United States",
        "contacts": [
          {
            "name": "Angeles Secord",
            "role": "CONTACT"
          }
        ],
        "geoPoint": {
          "lat": 35.99403,
          "lon": -78.89862
        }
      },
      {
        "facility": "Duke Womens Cancer Care Raleigh",
        "status": "RECRUITING",
        "city": "Raleigh",
        "state": "North Carolina",
        "zip": "27607",
        "country": "United States",
        "contacts": [
          {
            "name": "Angeles Secord",
            "role": "CONTACT"
          }
        ],
        "geoPoint": {
          "lat": 35.7721,
          "lon": -78.63861
        }
      },
      {
        "facility": "Case Western Reserve University",
        "status": "RECRUITING",
        "city": "Cleveland",
        "state": "Ohio",
        "zip": "44106",
        "country": "United States",
        "contacts": [
          {
            "name": "Sarah Lynam",
            "role": "CONTACT",
            "phone": "216-844-3954"
          }
        ],
        "geoPoint": {
          "lat": 41.4995,
          "lon": -81.69541
        }
      },
      {
        "facility": "Ohio State University Comprehensive",
        "status": "RECRUITING",
        "city": "Columbus",
        "state": "Ohio",
        "zip": "43210",
        "country": "United States",
        "contacts": [
          {
            "name": "Casey Cosgrove",
            "role": "CONTACT"
          }
        ],
        "geoPoint": {
          "lat": 39.96118,
          "lon": -82.99879
        }
      },
      {
        "facility": "University of Oklahoma Health Sciences Center",
        "status": "RECRUITING",
        "city": "Oklahoma City",
        "state": "Oklahoma",
        "zip": "73104",
        "country": "United States",
        "contacts": [
          {
            "name": "Christina Washington",
            "role": "CONTACT",
            "phone": "405-271-8777"
          }
        ],
        "geoPoint": {
          "lat": 35.46756,
          "lon": -97.51643
        }
      },
      {
        "facility": "Providence Portland Medical Centre",
        "status": "RECRUITING",
        "city": "Portland",
        "state": "Oregon",
        "zip": "97213",
        "country": "United States",
        "contacts": [
          {
            "name": "Alison Conlin",
            "role": "CONTACT",
            "phone": "503-215-6259"
          }
        ],
        "geoPoint": {
          "lat": 45.52345,
          "lon": -122.67621
        }
      },
      {
        "facility": "Penn State Milton S Hershey Medical Center",
        "status": "RECRUITING",
        "city": "Hershey",
        "state": "Pennsylvania",
        "zip": "17033",
        "country": "United States",
        "contacts": [
          {
            "name": "Shaina Bruce",
            "role": "CONTACT",
            "phone": "717-531-3779"
          }
        ],
        "geoPoint": {
          "lat": 40.28592,
          "lon": -76.65025
        }
      },
      {
        "facility": "Thomas Jefferson University",
        "status": "RECRUITING",
        "city": "Philadelphia",
        "state": "Pennsylvania",
        "zip": "19107",
        "country": "United States",
        "contacts": [
          {
            "name": "Mitchell Edelson",
            "role": "CONTACT",
            "phone": "215-481-4000"
          }
        ],
        "geoPoint": {
          "lat": 39.95238,
          "lon": -75.16362
        }
      },
      {
        "facility": "Asplundh Cancer Pavilion",
        "status": "RECRUITING",
        "city": "Willow Grove",
        "state": "Pennsylvania",
        "zip": "19090",
        "country": "United States",
        "contacts": [
          {
            "name": "Mitchell Edelson",
            "role": "CONTACT",
            "phone": "215-481-4000"
          }
        ],
        "geoPoint": {
          "lat": 40.144,
          "lon": -75.11573
        }
      },
      {
        "facility": "Women and Infants Hospital",
        "status": "RECRUITING",
        "city": "Providence",
        "state": "Rhode Island",
        "zip": "02905",
        "country": "United States",
        "contacts": [
          {
            "name": "Matthew Oliver",
            "role": "CONTACT",
            "phone": "401-274-1122",
            "phoneExt": "48181"
          }
        ],
        "geoPoint": {
          "lat": 41.82399,
          "lon": -71.41283
        }
      },
      {
        "facility": "M.D. Anderson Cancer Center",
        "status": "RECRUITING",
        "city": "Houston",
        "state": "Texas",
        "zip": "77030",
        "country": "United States",
        "contacts": [
          {
            "name": "Ann Klopp",
            "role": "CONTACT",
            "phone": "713-563-2444"
          }
        ],
        "geoPoint": {
          "lat": 29.76328,
          "lon": -95.36327
        }
      },
      {
        "facility": "Farmington Health Centre",
        "status": "RECRUITING",
        "city": "Farmington",
        "state": "Utah",
        "zip": "84025",
        "country": "United States",
        "contacts": [
          {
            "name": "Cristina DeCesaris",
            "role": "CONTACT"
          }
        ],
        "geoPoint": {
          "lat": 40.9805,
          "lon": -111.88744
        }
      },
      {
        "facility": "University of Utah Sugarhouse Health Centre",
        "status": "RECRUITING",
        "city": "Salt Lake City",
        "state": "Utah",
        "zip": "84106",
        "country": "United States",
        "contacts": [
          {
            "name": "Cristina DeCesaris",
            "role": "CONTACT"
          }
        ],
        "geoPoint": {
          "lat": 40.76078,
          "lon": -111.89105
        }
      },
      {
        "facility": "Huntsman Cancer Institute University of Utah",
        "status": "RECRUITING",
        "city": "Salt Lake City",
        "state": "Utah",
        "zip": "84112",
        "country": "United States",
        "contacts": [
          {
            "name": "Cristina DeCesaris",
            "role": "CONTACT"
          }
        ],
        "geoPoint": {
          "lat": 40.76078,
          "lon": -111.89105
        }
      },
      {
        "facility": "University of Virginia Cancer Center",
        "status": "RECRUITING",
        "city": "Charlottesville",
        "state": "Virginia",
        "zip": "22908",
        "country": "United States",
        "contacts": [
          {
            "name": "Kara Romano",
            "role": "CONTACT",
            "phone": "434-924-5191"
          }
        ],
        "geoPoint": {
          "lat": 38.02931,
          "lon": -78.47668
        }
      },
      {
        "facility": "Virginia Commonwealth University",
        "status": "RECRUITING",
        "city": "Richmond",
        "state": "Virginia",
        "zip": "23298",
        "country": "United States",
        "contacts": [
          {
            "name": "Emma Fields",
            "role": "CONTACT"
          }
        ],
        "geoPoint": {
          "lat": 37.55376,
          "lon": -77.46026
        }
      },
      {
        "facility": "Swedish Medical Center First Hill",
        "status": "RECRUITING",
        "city": "Seattle",
        "state": "Washington",
        "zip": "98122",
        "country": "United States",
        "contacts": [
          {
            "name": "Charles Drescher",
            "role": "CONTACT",
            "phone": "206-991-2000"
          }
        ],
        "geoPoint": {
          "lat": 47.60621,
          "lon": -122.33207
        }
      },
      {
        "facility": "Saint Vincent Hospital Cancer Center Green Bay",
        "status": "RECRUITING",
        "city": "Green Bay",
        "state": "Wisconsin",
        "zip": "54301",
        "country": "United States",
        "contacts": [
          {
            "name": "Matthew Ryan",
            "role": "CONTACT",
            "phone": "920-884-3135"
          }
        ],
        "geoPoint": {
          "lat": 44.51916,
          "lon": -88.01983
        }
      },
      {
        "facility": "Medical College of Wisconsin",
        "status": "RECRUITING",
        "city": "Milwaukee",
        "state": "Wisconsin",
        "zip": "53226",
        "country": "United States",
        "contacts": [
          {
            "name": "William Bradley",
            "role": "CONTACT",
            "phone": "414-805-6600"
          }
        ],
        "geoPoint": {
          "lat": 43.0389,
          "lon": -87.90647
        }
      },
      {
        "facility": "South Western Sydney Local Health District",
        "status": "RECRUITING",
        "city": "Liverpool",
        "state": "New South Wales",
        "zip": "2170",
        "country": "Australia",
        "contacts": [
          {
            "name": "Viet Do",
            "role": "CONTACT"
          }
        ],
        "geoPoint": {
          "lat": -33.91938,
          "lon": 150.92588
        }
      },
      {
        "facility": "Calvary Mater Newcastle Hospital",
        "status": "RECRUITING",
        "city": "Waratah",
        "state": "New South Wales",
        "zip": "2298",
        "country": "Australia",
        "contacts": [
          {
            "name": "Geetha Govindarajulu",
            "role": "CONTACT"
          }
        ],
        "geoPoint": {
          "lat": -32.90667,
          "lon": 151.72647
        }
      },
      {
        "facility": "Westmead Hospital",
        "status": "RECRUITING",
        "city": "Westmead",
        "state": "New South Wales",
        "zip": "2145",
        "country": "Australia",
        "contacts": [
          {
            "name": "Alison Brand",
            "role": "CONTACT"
          }
        ],
        "geoPoint": {
          "lat": -33.80383,
          "lon": 150.98768
        }
      },
      {
        "facility": "Mater Research Institute South Brisbane",
        "status": "RECRUITING",
        "city": "South Brisbane",
        "state": "Queensland",
        "zip": "4101",
        "country": "Australia",
        "contacts": [
          {
            "name": "Nimithri Cabraal",
            "role": "CONTACT"
          }
        ],
        "geoPoint": {
          "lat": -27.48034,
          "lon": 153.02049
        }
      },
      {
        "facility": "Monash Medical Centre",
        "status": "RECRUITING",
        "city": "Clayton",
        "state": "Victoria",
        "zip": "3168",
        "country": "Australia",
        "contacts": [
          {
            "name": "Shih-Ern Yao",
            "role": "CONTACT",
            "phone": "39 594-6666"
          }
        ],
        "geoPoint": {
          "lat": -37.91667,
          "lon": 145.11667
        }
      },
      {
        "facility": "Frankston Hospital",
        "status": "RECRUITING",
        "city": "Frankston",
        "state": "Victoria",
        "zip": "3199",
        "country": "Australia",
        "contacts": [
          {
            "name": "Yoland Antill",
            "role": "CONTACT"
          }
        ],
        "geoPoint": {
          "lat": -38.14458,
          "lon": 145.12291
        }
      },
      {
        "facility": "The Royal Women's Hospital",
        "status": "RECRUITING",
        "city": "Parkville",
        "state": "Victoria",
        "zip": "3053",
        "country": "Australia",
        "contacts": [
          {
            "name": "Orla McNally",
            "role": "CONTACT",
            "phone": "613 834-5356",
            "phoneExt": "2"
          }
        ],
        "geoPoint": {
          "lat": -37.78333,
          "lon": 144.95
        }
      },
      {
        "facility": "Canberra Hospital",
        "status": "RECRUITING",
        "city": "Garran",
        "zip": "ACT 2605",
        "country": "Australia",
        "contacts": [
          {
            "name": "Andrew Douglas Lee",
            "role": "CONTACT"
          }
        ],
        "geoPoint": {
          "lat": -35.34206,
          "lon": 149.10846
        }
      },
      {
        "facility": "Royal Brisbane and Womens Hospital",
        "status": "RECRUITING",
        "city": "Herston",
        "zip": "4029",
        "country": "Australia",
        "contacts": [
          {
            "name": "Andrea Garrett",
            "role": "CONTACT",
            "phone": "73 646-8111"
          }
        ],
        "geoPoint": {
          "lat": -27.44453,
          "lon": 153.01852
        }
      },
      {
        "facility": "Arthur J.E. Child Comprehensive Cancer Centre",
        "status": "RECRUITING",
        "city": "Calgary",
        "state": "Alberta",
        "zip": "T2N 5G2",
        "country": "Canada",
        "contacts": [
          {
            "name": "Tien Phan",
            "role": "CONTACT",
            "phone": "403 521-3926"
          }
        ],
        "geoPoint": {
          "lat": 51.05011,
          "lon": -114.08529
        }
      },
      {
        "facility": "Cross Cancer Institute",
        "status": "RECRUITING",
        "city": "Edmonton",
        "state": "Alberta",
        "zip": "T6G 1Z2",
        "country": "Canada",
        "contacts": [
          {
            "name": "Fleur Huang",
            "role": "CONTACT",
            "phone": "780 432-8516"
          }
        ],
        "geoPoint": {
          "lat": 53.55014,
          "lon": -113.46871
        }
      },
      {
        "facility": "BCCA - Kelowna",
        "status": "RECRUITING",
        "city": "Kelowna",
        "state": "British Columbia",
        "zip": "V1Y 5L3",
        "country": "Canada",
        "contacts": [
          {
            "name": "Hamid Raziee",
            "role": "CONTACT"
          }
        ],
        "geoPoint": {
          "lat": 49.88307,
          "lon": -119.48568
        }
      },
      {
        "facility": "BCCA - Prince George",
        "status": "RECRUITING",
        "city": "Prince George",
        "state": "British Columbia",
        "zip": "V2M 7E9",
        "country": "Canada",
        "contacts": [
          {
            "name": "Allison Ye",
            "role": "CONTACT",
            "phone": "250 645-7300"
          }
        ],
        "geoPoint": {
          "lat": 53.9166,
          "lon": -122.75301
        }
      },
      {
        "facility": "BCCA - Vancouver",
        "status": "RECRUITING",
        "city": "Vancouver",
        "state": "British Columbia",
        "zip": "V5Z 4E6",
        "country": "Canada",
        "contacts": [
          {
            "name": "Jessica McAlpine",
            "role": "CONTACT",
            "phone": "604 877-6000",
            "phoneExt": "2395"
          }
        ],
        "geoPoint": {
          "lat": 49.24966,
          "lon": -123.11934
        }
      },
      {
        "facility": "BCCA - Victoria",
        "status": "RECRUITING",
        "city": "Victoria",
        "state": "British Columbia",
        "zip": "V8R 6V5",
        "country": "Canada",
        "contacts": [
          {
            "name": "Caroline Holloway",
            "role": "CONTACT",
            "phone": "250 519-5609"
          }
        ],
        "geoPoint": {
          "lat": 48.4359,
          "lon": -123.35155
        }
      },
      {
        "facility": "London Health Sciences Centre Research Inc.",
        "status": "RECRUITING",
        "city": "London",
        "state": "Ontario",
        "zip": "N6A 5W9",
        "country": "Canada",
        "contacts": [
          {
            "name": "Lucas Mendez",
            "role": "CONTACT",
            "phone": "519 685-8600",
            "phoneExt": "53169"
          }
        ],
        "geoPoint": {
          "lat": 42.98339,
          "lon": -81.23304
        }
      },
      {
        "facility": "Trillium Health Partners - Credit Valley Hospital",
        "status": "RECRUITING",
        "city": "Mississauga",
        "state": "Ontario",
        "zip": "L5M 2N1",
        "country": "Canada",
        "contacts": [
          {
            "name": "Katherine Pulman",
            "role": "CONTACT",
            "phone": "905 813-1100",
            "phoneExt": "1841"
          }
        ],
        "geoPoint": {
          "lat": 43.5789,
          "lon": -79.6583
        }
      },
      {
        "facility": "Odette Cancer Centre",
        "status": "RECRUITING",
        "city": "Toronto",
        "state": "Ontario",
        "zip": "M4N 3M5",
        "country": "Canada",
        "contacts": [
          {
            "name": "Helen MacKay",
            "role": "CONTACT",
            "phone": "416 480-5145"
          }
        ],
        "geoPoint": {
          "lat": 43.70643,
          "lon": -79.39864
        }
      },
      {
        "facility": "University Health Network",
        "status": "RECRUITING",
        "city": "Toronto",
        "state": "Ontario",
        "zip": "M5G 2M9",
        "country": "Canada",
        "contacts": [
          {
            "name": "Kathy Han",
            "role": "CONTACT",
            "phone": "416 946-4501",
            "phoneExt": "2919"
          }
        ],
        "geoPoint": {
          "lat": 43.70643,
          "lon": -79.39864
        }
      },
      {
        "facility": "CHUM-Centre Hospitalier de l'Universite de Montreal",
        "status": "RECRUITING",
        "city": "Montreal",
        "state": "Quebec",
        "zip": "H2X 3E4",
        "country": "Canada",
        "contacts": [
          {
            "name": "Maroie Barkati",
            "role": "CONTACT",
            "phone": "514 890-8254"
          }
        ],
        "geoPoint": {
          "lat": 45.50884,
          "lon": -73.58781
        }
      },
      {
        "facility": "The Jewish General Hospital",
        "status": "RECRUITING",
        "city": "Montreal",
        "state": "Quebec",
        "zip": "H3T 1E2",
        "country": "Canada",
        "contacts": [
          {
            "name": "Susie K.S. Lau",
            "role": "CONTACT",
            "phone": "514 340-8222",
            "phoneExt": "3114"
          }
        ],
        "geoPoint": {
          "lat": 45.50884,
          "lon": -73.58781
        }
      },
      {
        "facility": "CIUSSS de l'Estrie - Centre hospitalier",
        "status": "RECRUITING",
        "city": "Sherbrooke",
        "state": "Quebec",
        "zip": "J1H 5N4",
        "country": "Canada",
        "contacts": [
          {
            "name": "Mathieu Viau",
            "role": "CONTACT"
          }
        ],
        "geoPoint": {
          "lat": 45.40008,
          "lon": -71.89908
        }
      },
      {
        "facility": "Institut Gustave-Roussy",
        "status": "RECRUITING",
        "city": "Villejuif",
        "state": "FR",
        "zip": "94805",
        "country": "France",
        "contacts": [
          {
            "name": "Alexandra Leary",
            "role": "CONTACT",
            "phone": "33 142-1142",
            "phoneExt": "11"
          }
        ],
        "geoPoint": {
          "lat": 48.7939,
          "lon": 2.35992
        }
      },
      {
        "facility": "Institut Universitaire du Cancer de Toulouse - IUCT",
        "status": "NOT_YET_RECRUITING",
        "city": "Toulouse",
        "state": "Occitanie",
        "zip": "31100",
        "country": "France",
        "contacts": [
          {
            "name": "Laurence Gladieff",
            "role": "CONTACT"
          }
        ],
        "geoPoint": {
          "lat": 43.60426,
          "lon": 1.44367
        }
      },
      {
        "facility": "ASST Spedali Civili Brescia",
        "status": "RECRUITING",
        "city": "Brescia",
        "zip": "25123",
        "country": "Italy",
        "contacts": [
          {
            "name": "Germana Tognon",
            "role": "CONTACT"
          }
        ],
        "geoPoint": {
          "lat": 45.53558,
          "lon": 10.21472
        }
      },
      {
        "facility": "European Institute of Oncology",
        "status": "RECRUITING",
        "city": "Milan",
        "zip": "20141",
        "country": "Italy",
        "contacts": [
          {
            "name": "Ilaria Betella",
            "role": "CONTACT",
            "phone": "39 025-7489"
          }
        ],
        "geoPoint": {
          "lat": 45.46427,
          "lon": 9.18951
        }
      },
      {
        "facility": "Radiotherapiegroep",
        "status": "RECRUITING",
        "city": "Arnhem",
        "state": "Gelderland",
        "zip": "6815AD",
        "country": "Netherlands",
        "contacts": [
          {
            "name": "Dorien Haverkort",
            "role": "CONTACT",
            "phone": "318 877-9000"
          }
        ],
        "geoPoint": {
          "lat": 51.98,
          "lon": 5.91111
        }
      },
      {
        "facility": "Maastro clinic (Maastricht UMC)",
        "status": "RECRUITING",
        "city": "Maastricht",
        "state": "Limburg",
        "zip": "6229ET",
        "country": "Netherlands",
        "contacts": [
          {
            "name": "Nienke Kuijsters",
            "role": "CONTACT",
            "phone": "31 088-4456",
            "phoneExt": "0"
          }
        ],
        "geoPoint": {
          "lat": 50.84833,
          "lon": 5.68889
        }
      },
      {
        "facility": "Catharina ziekenhuis",
        "status": "RECRUITING",
        "city": "Eindhoven",
        "state": "North Brabant",
        "zip": "5623 EJ",
        "country": "Netherlands",
        "contacts": [
          {
            "name": "Bastiaan Wortman",
            "role": "CONTACT",
            "phone": "40 239-9111"
          }
        ],
        "geoPoint": {
          "lat": 51.44083,
          "lon": 5.47778
        }
      },
      {
        "facility": "MC Haaglanden",
        "status": "RECRUITING",
        "city": "The Hague",
        "state": "South Holland",
        "zip": "432",
        "country": "Netherlands",
        "contacts": [
          {
            "name": "Mandy Kiderlen",
            "role": "CONTACT",
            "phone": "3 889-7979"
          }
        ],
        "geoPoint": {
          "lat": 52.07667,
          "lon": 4.29861
        }
      },
      {
        "facility": "Erasmus Medical Center (EMC)",
        "status": "RECRUITING",
        "city": "Rotterdam",
        "state": "The Netherlands",
        "country": "Netherlands",
        "contacts": [
          {
            "name": "Henrieke Westerveld",
            "role": "CONTACT"
          }
        ],
        "geoPoint": {
          "lat": 51.9225,
          "lon": 4.47917
        }
      },
      {
        "facility": "Leiden University Medical Center (LUMC)",
        "status": "RECRUITING",
        "city": "Leiden",
        "zip": "2333ZA",
        "country": "Netherlands",
        "contacts": [
          {
            "name": "Stephanie De Boer",
            "role": "CONTACT"
          }
        ],
        "geoPoint": {
          "lat": 52.15833,
          "lon": 4.49306
        }
      },
      {
        "facility": "Auckland City Hospital",
        "status": "RECRUITING",
        "city": "Auckland",
        "zip": "1023",
        "country": "New Zealand",
        "contacts": [
          {
            "name": "Ruth Angell",
            "role": "CONTACT"
          }
        ],
        "geoPoint": {
          "lat": -36.84853,
          "lon": 174.76349
        }
      },
      {
        "facility": "Christchurch Hospital",
        "status": "RECRUITING",
        "city": "Christchurch",
        "zip": "8140",
        "country": "New Zealand",
        "contacts": [
          {
            "name": "Bryony Simcock",
            "role": "CONTACT"
          }
        ],
        "geoPoint": {
          "lat": -43.53333,
          "lon": 172.63333
        }
      }
    ],
    "key_inclusion_summary": [
      "Must have had surgery consisting of hysterectomy and bilateral salpingo-oophorectomy with no macroscopic residual disease.",
      "Histologically confirmed Stage I to III endometrial carcinoma (including endometrioid, serous, clear cell, etc.).",
      "ECOG performance status of 0, 1, or 2.",
      "Age must be â‰¥ 18 years."
    ],
    "key_exclusion_summary": [
      "Prior neoadjuvant chemotherapy for current endometrial cancer diagnosis.",
      "Prior pelvic radiation.",
      "Clinical evidence of distant metastasis.",
      "Documented positive surgical margin.",
      "History of other malignancies, with some exceptions."
    ]
  }