{"protocolSection":{"identificationModule":{"nctId":"NCT05451004","orgStudyIdInfo":{"id":"CCTG-HN11"},"secondaryIdInfos":[{"id":"CCTG-HN11","type":"OTHER","domain":"NCI/CTEP"},{"id":"NCI-2022-04496","type":"OTHER","domain":"NCI CTRP"}],"organization":{"fullName":"Canadian Cancer Trials Group","class":"NETWORK"},"briefTitle":"SPECT-CT Guided ELEctive Contralateral Neck Treatment for Patients With Lateralized Oropharyngeal Cancer","officialTitle":"SPECT-CT Guided ELEctive Contralateral Neck Treatment for Patients With Lateralized Oropharyngeal Cancer. A Phase III Randomized Controlled Trial","acronym":"SELECT"},"statusModule":{"statusVerifiedDate":"2025-05","overallStatus":"RECRUITING","expandedAccessInfo":{"hasExpandedAccess":false},"startDateStruct":{"date":"2023-02-10","type":"ACTUAL"},"primaryCompletionDateStruct":{"date":"2030-08-30","type":"ESTIMATED"},"completionDateStruct":{"date":"2031-08-30","type":"ESTIMATED"},"studyFirstSubmitDate":"2022-06-30","studyFirstSubmitQcDate":"2022-07-05","studyFirstPostDateStruct":{"date":"2022-07-11","type":"ACTUAL"},"lastUpdateSubmitDate":"2025-09-08","lastUpdatePostDateStruct":{"date":"2025-09-10","type":"ESTIMATED"}},"sponsorCollaboratorsModule":{"responsibleParty":{"type":"SPONSOR"},"leadSponsor":{"name":"Canadian Cancer Trials Group","class":"NETWORK"},"collaborators":[{"name":"Alliance for Clinical Trials in Oncology","class":"OTHER"},{"name":"Eastern Cooperative Oncology Group","class":"NETWORK"},{"name":"NRG Oncology","class":"OTHER"},{"name":"SWOG Cancer Research Network","class":"NETWORK"}]},"oversightModule":{"oversightHasDmc":true,"isFdaRegulatedDrug":false,"isFdaRegulatedDevice":true},"descriptionModule":{"briefSummary":"This study is being done to answer the following question:\n\nIs the chance of cancer spreading or returning the same if radiotherapy to the neck is guided, by using a special imaging study called lymph node mapping (lymphatic mapping) Single Photon Emission Computed Tomography (SPECT-CT), compared to the usual treatment when radiotherapy is given to both sides of the neck?","detailedDescription":"This study is being conducted in order to find out if this approach is as good as the usual approach in controlling the cancer and has fewer side effects and better quality of life. The usual approach for patients who are not in a study is treatment which includes radiotherapy to the tumour and to both sides of the neck to decrease the risk of spread or recurrence of the cancer"},"conditionsModule":{"conditions":["Oropharyngeal Cancer"]},"designModule":{"studyType":"INTERVENTIONAL","phases":["PHASE3"],"designInfo":{"allocation":"RANDOMIZED","interventionModel":"PARALLEL","primaryPurpose":"TREATMENT","maskingInfo":{"masking":"NONE"}},"enrollmentInfo":{"count":510,"type":"ESTIMATED"}},"armsInterventionsModule":{"armGroups":[{"label":"Lympathic Mapping with SPECT-CT guided Radiotherapy","type":"EXPERIMENTAL","interventionNames":["Other: Lymphatic Mapping with SPECT-CT"]},{"label":"Bilateral Neck Radiotherapy","type":"ACTIVE_COMPARATOR","interventionNames":["Radiation: Ipsilateral and Contralateral Neck"]}],"interventions":[{"type":"OTHER","name":"Lymphatic Mapping with SPECT-CT","description":"Radiation: Ipsilateral Neck Radiotherapy and SPECT-CT Guided Contralateral Neck Radiotherapy","armGroupLabels":["Lympathic Mapping with SPECT-CT guided Radiotherapy"]},{"type":"RADIATION","name":"Ipsilateral and Contralateral Neck","description":"Radiotherapy","armGroupLabels":["Bilateral Neck Radiotherapy"]}]},"outcomesModule":{"primaryOutcomes":[{"measure":"Disease-free Survival","timeFrame":"8 years"}],"secondaryOutcomes":[{"measure":"Quality of Life using M.D. Anderson Dysphagia Inventory (MDADI)","description":"Possible range of scores between 0 and 100 (higher scores indicating better swallowing and lower score indicating poor swallowing).","timeFrame":"8 years"},{"measure":"Xerostomia-related Quality of Life using Xerostomia Questionnaire (XQ)","description":"Clinically meaningful worsening of xerostomia (10 units on XQ) from baseline to 12 months post RT","timeFrame":"8 years"},{"measure":"Isolated contralateral neck failure (iCNF)","timeFrame":"8 years"},{"measure":"Overall Survival (OS)","timeFrame":"8 years"},{"measure":"Logo-regional Failure (LRF)","timeFrame":"8 years"},{"measure":"Distant Metastases (DM)","timeFrame":"8 years"},{"measure":"Incidence and Severity of Radiation-related Toxicities","timeFrame":"8 years"},{"measure":"Patient-Reported Toxicities using PRO CTCAE","timeFrame":"8 years"},{"measure":"Gastrostomy Tube Usage","timeFrame":"8 years"},{"measure":"Resource Utilization","timeFrame":"8 years"},{"measure":"Lost Productivity","description":"Healthcare system and societal resources will be quantified over the course of the trial to generate utilization information by patient in each study arm. We will generate an average cost per study subject by treatment arm for an overall mean cost per study arm","timeFrame":"8 years"},{"measure":"Financial Toxicity [Financial Index of Toxicity (FIT)]","timeFrame":"8 years"},{"measure":"Health Utilities using EQ-5D","timeFrame":"8 years"}]},"eligibilityModule":{"eligibilityCriteria":"Inclusion Criteria:\n\n* Patients with pathologically proven diagnosis of lateralized OPC (tonsil, tongue base, soft palate, or pharyngeal wall) not involving or crossing midline.\n* HPV positive or negative (by p16 immunohistochemistry).\n* Clinical stage T1-3 M0 (UICC/AJCC TNM 8th Edition). Nodal involvement may include no nodes or single or multiple ipsilateral lymph nodes (largest â‰¤6cm in maximum diameter)\n* Radiological investigations within 8 weeks of registration:\n\n  * CT or MRI of the neck (with head imaging as indicated);\n  * PET-CT scan\n  * Chest CT scan\n* Planned definitive RT or CRT with bilateral neck RT (patients planned for unilateral neck RT are excluded).\n* Intent to deliver concurrent chemotherapy or not must be known at the time of randomization. As this is a pragmatic trial, even patients who are not candidates for systemic therapy will be eligible for participation.\n* Eastern Cooperative Oncology Group (ECOG) performance status of 0, 1, or 2.\n* Willing to complete the quality of life and/or health utility questionnaire, if sufficiently fluent in available language(s).\n* Informed consent prior to registration\n* Accessible for treatment and follow-up.\n* Commencement of definitive RT within 28 days (+ 14 days) of randomization.\n* Injection procedure for lymphatic mapping may be performed in the nuclear medicine, ambulatory clinic, or operating room setting\n* Women/men of childbearing potential must have agreed to use a highly effective contraceptive method\n* Patients with a prior or concurrent malignancy whose natural history or treatment does not have the potential to interfere with the safety or efficacy assessment of the investigational regimen are eligible for this trial.\n* Patient must consent to provision of, and investigator(s) must confirm location and commitment to obtain a representation of formalin fixed paraffin block of non-cytology tumour tissue in order that the specific correlative marker assays\n\nExclusion Criteria:\n\n* T1-T2 cancers isolated to the tonsil fossa (i.e. without any soft palate, tongue base, posterior pharyngeal wall or posterior tonsil pillar involvement) with no involved lymph nodes or with a single ipsilateral node \\< 3 cm without extranodal extension.\n* Tonsil or tongue base primary cancer who have previously undergone diagnostic palatine or lingual tonsillectomy with either complete excision or with no clinically apparent residual disease\n* Previous head and neck cancer or multiple synchronous primary head and neck cancers\n* Previous induction or neo-adjuvant chemotherapy.\n* Previous radiation therapy to the head and neck or comprehensive neck dissection of at least 3 levels on either side (due to potential for disrupted lymphatic channels and drainage pathways). Patients who have had excisional biopsies of involved lymph nodes are eligible\n* Radiotracer allergy\n* Severe, active co-morbidity including any of the following:\n\n  * Chronic Obstructive Pulmonary Disease or other pulmonary illness requiring hospitalization within 30 days of registration\n  * Unstable angina and/or congestive heart failure requiring hospitalization within the 30 days of registration\n  * Acute myocardial infarction within 30 days of study registration\n  * Diseases precluding RT (e.g. scleroderma)","healthyVolunteers":false,"sex":"ALL","minimumAge":"18 Years","stdAges":["ADULT","OLDER_ADULT"]},"contactsLocationsModule":{"centralContacts":[{"name":"Wendy Parulekar","role":"CONTACT","phone":"613-533-6430","email":"wparulekar@ctg.queensu.ca"}],"overallOfficials":[{"name":"John R de Almeida","affiliation":"University Health Network, Princess Margaret Hospital, Toronto ON Canada","role":"STUDY_CHAIR"},{"name":"Ali Hosni","affiliation":"University Health Network, Princess Margaret Hospital, Toronto ON Canada","role":"STUDY_CHAIR"}],"locations":[{"facility":"City of Hope Corona","status":"RECRUITING","city":"Corona","state":"California","zip":"92882","country":"United States","contacts":[{"name":"Site Public Contact","role":"CONTACT","phone":"626-256-4673","email":"becomingapatient@coh.org"},{"name":"Krupal B. Patel","role":"PRINCIPAL_INVESTIGATOR"}],"geoPoint":{"lat":33.87529,"lon":-117.56644}},{"facility":"City of Hope Comprehensive Cancer Center","status":"RECRUITING","city":"Duarte","state":"California","zip":"91010","country":"United States","contacts":[{"name":"Site Public Contact","role":"CONTACT","phone":"800-826-4673","email":"becomingapatient@coh.org"},{"name":"Krupal B. Patel","role":"PRINCIPAL_INVESTIGATOR"}],"geoPoint":{"lat":34.13945,"lon":-117.97729}},{"facility":"UM Sylvester Comprehensive Cancer Center at Coral Gables","status":"RECRUITING","city":"Coral Gables","state":"Florida","zip":"33146","country":"United States","contacts":[{"name":"Site Public Contact","role":"CONTACT","phone":"305-243-2647"},{"name":"Gregory J. Kubicek","role":"PRINCIPAL_INVESTIGATOR"}],"geoPoint":{"lat":25.72149,"lon":-80.26838}},{"facility":"Baptist MD Anderson Cancer Center","status":"RECRUITING","city":"Jacksonville","state":"Florida","zip":"32207","country":"United States","contacts":[{"name":"Site Public Contact","role":"CONTACT","phone":"904-202-7468"},{"name":"Omar M. Mahmoud","role":"PRINCIPAL_INVESTIGATOR"}],"geoPoint":{"lat":30.33218,"lon":-81.65565}},{"facility":"University of Miami Miller School of Medicine-Sylvester Cancer Center","status":"RECRUITING","city":"Miami","state":"Florida","zip":"33136","country":"United States","contacts":[{"name":"Site Public Contact","role":"CONTACT","phone":"305-243-2647"},{"name":"Gregory J. Kubicek","role":"PRINCIPAL_INVESTIGATOR"}],"geoPoint":{"lat":25.77427,"lon":-80.19366}},{"facility":"Moffitt Cancer Center-International Plaza","status":"RECRUITING","city":"Tampa","state":"Florida","zip":"33607","country":"United States","contacts":[{"name":"Site Public Contact","role":"CONTACT","phone":"800-679-0775","email":"ClinicalTrials@moffitt.org"},{"name":"Deepa Danan","role":"PRINCIPAL_INVESTIGATOR"}],"geoPoint":{"lat":27.94752,"lon":-82.45843}},{"facility":"Moffitt Cancer Center - McKinley Campus","status":"RECRUITING","city":"Tampa","state":"Florida","zip":"33612","country":"United States","contacts":[{"name":"Site Public Contact","role":"CONTACT","phone":"800-679-0775","email":"ClinicalTrials@moffitt.org"},{"name":"Deepa Danan","role":"PRINCIPAL_INVESTIGATOR"}],"geoPoint":{"lat":27.94752,"lon":-82.45843}},{"facility":"Moffitt Cancer Center","status":"RECRUITING","city":"Tampa","state":"Florida","zip":"33612","country":"United States","contacts":[{"name":"Site Public Contact","role":"CONTACT","phone":"800-679-0775","email":"ClinicalTrials@moffitt.org"},{"name":"Deepa Danan","role":"PRINCIPAL_INVESTIGATOR"}],"geoPoint":{"lat":27.94752,"lon":-82.45843}},{"facility":"Emory University Hospital Midtown","status":"RECRUITING","city":"Atlanta","state":"Georgia","zip":"30308","country":"United States","contacts":[{"name":"Site Public Contact","role":"CONTACT","phone":"888-946-7447"},{"name":"James E. Bates","role":"PRINCIPAL_INVESTIGATOR"}],"geoPoint":{"lat":33.749,"lon":-84.38798}},{"facility":"Northwestern University","status":"ACTIVE_NOT_RECRUITING","city":"Chicago","state":"Illinois","zip":"60611","country":"United States","geoPoint":{"lat":41.85003,"lon":-87.65005}},{"facility":"Northwestern Medicine Cancer Center Warrenville","status":"ACTIVE_NOT_RECRUITING","city":"Warrenville","state":"Illinois","zip":"60555","country":"United States","geoPoint":{"lat":41.81781,"lon":-88.1734}},{"facility":"The James Graham Brown Cancer Center at University of Louisville","status":"SUSPENDED","city":"Louisville","state":"Kentucky","zip":"40202","country":"United States","geoPoint":{"lat":38.25424,"lon":-85.75941}},{"facility":"University of Michigan Comprehensive Cancer Center","status":"RECRUITING","city":"Ann Arbor","state":"Michigan","zip":"48109","country":"United States","contacts":[{"name":"Site Public Contact","role":"CONTACT","email":"slusserb@med.umich.edu"},{"name":"David W. Forner","role":"PRINCIPAL_INVESTIGATOR"}],"geoPoint":{"lat":42.27756,"lon":-83.74088}},{"facility":"University of Michigan - Brighton Center for Specialty Care","status":"RECRUITING","city":"Brighton","state":"Michigan","zip":"48116","country":"United States","contacts":[{"name":"Site Public Contact","role":"CONTACT","phone":"800-865-1125"},{"name":"David W. Forner","role":"PRINCIPAL_INVESTIGATOR"}],"geoPoint":{"lat":42.52948,"lon":-83.78022}},{"facility":"Henry Ford Hospital","status":"RECRUITING","city":"Detroit","state":"Michigan","zip":"48202","country":"United States","contacts":[{"name":"Site Public Contact","role":"CONTACT","phone":"313-916-3721","email":"CTOResearch@hfhs.org"},{"name":"Samantha H. Tam","role":"PRINCIPAL_INVESTIGATOR"}],"geoPoint":{"lat":42.33143,"lon":-83.04575}},{"facility":"MU Health - University Hospital/Ellis Fischel Cancer Center","status":"RECRUITING","city":"Columbia","state":"Missouri","zip":"65212","country":"United States","contacts":[{"name":"Site Public Contact","role":"CONTACT","phone":"573-882-7440"},{"name":"Patrick Tassone","role":"PRINCIPAL_INVESTIGATOR"}],"geoPoint":{"lat":38.95171,"lon":-92.33407}},{"facility":"UNC Lineberger Comprehensive Cancer Center","status":"RECRUITING","city":"Chapel Hill","state":"North Carolina","zip":"27599","country":"United States","contacts":[{"name":"Site Public Contact","role":"CONTACT","phone":"877-668-0683","email":"cancerclinicaltrials@med.unc.edu"},{"name":"Xuguang Chen","role":"PRINCIPAL_INVESTIGATOR"}],"geoPoint":{"lat":35.9132,"lon":-79.05584}},{"facility":"Providence Portland Medical Center","status":"RECRUITING","city":"Portland","state":"Oregon","zip":"97213","country":"United States","contacts":[{"name":"Site Public Contact","role":"CONTACT","phone":"503-215-2614","email":"CanRsrchStudies@providence.org"},{"name":"Charles W. Drescher","role":"PRINCIPAL_INVESTIGATOR"}],"geoPoint":{"lat":45.52345,"lon":-122.67621}},{"facility":"MD Anderson in The Woodlands","status":"RECRUITING","city":"Conroe","state":"Texas","zip":"77384","country":"United States","contacts":[{"name":"Site Public Contact","role":"CONTACT","phone":"866-632-6789","email":"askmdanderson@mdanderson.org"},{"name":"Anna Lee","role":"PRINCIPAL_INVESTIGATOR"}],"geoPoint":{"lat":30.31188,"lon":-95.45605}},{"facility":"M D Anderson Cancer Center","status":"RECRUITING","city":"Houston","state":"Texas","zip":"77030","country":"United States","contacts":[{"name":"Site Public Contact","role":"CONTACT","phone":"877-632-6789","email":"askmdanderson@mdanderson.org"},{"name":"Anna Lee","role":"PRINCIPAL_INVESTIGATOR"}],"geoPoint":{"lat":29.76328,"lon":-95.36327}},{"facility":"MD Anderson West Houston","status":"RECRUITING","city":"Houston","state":"Texas","zip":"77079","country":"United States","contacts":[{"name":"Site Public Contact","role":"CONTACT","phone":"877-632-6789","email":"askmdanderson@mdanderson.org"},{"name":"Anna Lee","role":"PRINCIPAL_INVESTIGATOR"}],"geoPoint":{"lat":29.76328,"lon":-95.36327}},{"facility":"MD Anderson League City","status":"RECRUITING","city":"League City","state":"Texas","zip":"77573","country":"United States","contacts":[{"name":"Site Public Contact","role":"CONTACT","phone":"877-632-6789","email":"askmdanderson@mdanderson.org"},{"name":"Anna Lee","role":"PRINCIPAL_INVESTIGATOR"}],"geoPoint":{"lat":29.50745,"lon":-95.09493}},{"facility":"MD Anderson in Sugar Land","status":"RECRUITING","city":"Sugar Land","state":"Texas","zip":"77478","country":"United States","contacts":[{"name":"Site Public Contact","role":"CONTACT","phone":"877-632-6789","email":"askmdanderson@mdanderson.org"},{"name":"Anna Lee","role":"PRINCIPAL_INVESTIGATOR"}],"geoPoint":{"lat":29.61968,"lon":-95.63495}},{"facility":"BCCA-Vancouver Cancer Centre","status":"RECRUITING","city":"Vancouver","state":"British Columbia","zip":"V5Z 4E6","country":"Canada","contacts":[{"name":"Site Public Contact","role":"CONTACT","phone":"888-939-3333"},{"name":"Eric Tran","role":"PRINCIPAL_INVESTIGATOR"}],"geoPoint":{"lat":49.24966,"lon":-123.11934}},{"facility":"Health Sciences North","status":"RECRUITING","city":"Greater Sudbury","state":"Ontario","zip":"P3E 5J1","country":"Canada","contacts":[{"name":"Site Public Contact","role":"CONTACT","phone":"706-522-6237","phoneExt":"2401","email":"japaquette@hrsrh.on.ca"},{"name":"Mirko Manojlovic Kolarski","role":"PRINCIPAL_INVESTIGATOR"}],"geoPoint":{"lat":46.49,"lon":-80.99001}},{"facility":"Odette Cancer Centre- Sunnybrook Health Sciences Centre","status":"SUSPENDED","city":"Toronto","state":"Ontario","zip":"M4N 3M5","country":"Canada","geoPoint":{"lat":43.70643,"lon":-79.39864}},{"facility":"University Health Network-Princess Margaret Hospital","status":"RECRUITING","city":"Toronto","state":"Ontario","zip":"M5G 2M9","country":"Canada","contacts":[{"name":"Site Public Contact","role":"CONTACT","phone":"416-946-4501","email":"clinical.trials@uhn.on.ca"},{"name":"Ali Hosni","role":"PRINCIPAL_INVESTIGATOR"}],"geoPoint":{"lat":43.70643,"lon":-79.39864}},{"facility":"CHUM - Centre Hospitalier de l'Universite de Montreal","status":"RECRUITING","city":"Montreal","state":"Quebec","zip":"H2X 3E4","country":"Canada","contacts":[{"name":"Site Public Contact","role":"CONTACT","phone":"514-890-8000","phoneExt":"12725","email":"info.cr.chum@ssss.gouv.qc.ca"},{"name":"Apostolos Christopoulos","role":"PRINCIPAL_INVESTIGATOR"}],"geoPoint":{"lat":45.50884,"lon":-73.58781}},{"facility":"Jewish General Hospital","status":"RECRUITING","city":"Montreal","state":"Quebec","zip":"H3T 1E2","country":"Canada","contacts":[{"name":"Site Public Contact","role":"CONTACT","phone":"514-340-8222","phoneExt":"8248"},{"name":"Khalil Sultanem","role":"PRINCIPAL_INVESTIGATOR"}],"geoPoint":{"lat":45.50884,"lon":-73.58781}},{"facility":"Centre Hospitalier Universitaire de Sherbrooke-Fleurimont","status":"RECRUITING","city":"Sherbrooke","state":"Quebec","zip":"J1H 5N4","country":"Canada","contacts":[{"name":"Site Public Contact","role":"CONTACT","phone":"819-820-6480","email":"crcinformation.chus@ssss.gouv.qc.ca"},{"name":"Isabelle Gauthier","role":"PRINCIPAL_INVESTIGATOR"}],"geoPoint":{"lat":45.40008,"lon":-71.89908}}]},"ipdSharingStatementModule":{"ipdSharing":"NO","description":"Based on CCTG Policy"}},"derivedSection":{"miscInfoModule":{"versionHolder":"2025-10-31"},"conditionBrowseModule":{"meshes":[{"id":"D009959","term":"Oropharyngeal Neoplasms"}],"ancestors":[{"id":"D010610","term":"Pharyngeal Neoplasms"},{"id":"D010039","term":"Otorhinolaryngologic Neoplasms"},{"id":"D006258","term":"Head and Neck Neoplasms"},{"id":"D009371","term":"Neoplasms by Site"},{"id":"D009369","term":"Neoplasms"},{"id":"D010608","term":"Pharyngeal Diseases"},{"id":"D009057","term":"Stomatognathic Diseases"},{"id":"D010038","term":"Otorhinolaryngologic Diseases"}]}},"hasResults":false}