{
    "nct_id": "NCT03801876",
    "official_title": "Phase III Randomized Trial of Proton Beam Therapy (PBT) Versus Intensity Modulated Photon Radiotherapy (IMRT) for the Treatment of Esophageal Cancer",
    "brief_title": "Comparing Proton Therapy to Photon Radiation Therapy for Esophageal Cancer",
    "cancer_type_display": "A study for patients with stage I-IVA esophageal or gastroesophageal junction adenocarcinoma or squamous cell carcinoma.",
    "cancer_tags": [
      "Clinical Stage I Esophageal Adenocarcinoma AJCC v8",
      "Clinical Stage I Esophageal Squamous Cell Carcinoma AJCC v8",
      "Clinical Stage I Gastroesophageal Junction Adenocarcinoma AJCC v8",
      "Clinical Stage II Esophageal Adenocarcinoma AJCC v8",
      "Clinical Stage II Esophageal Squamous Cell Carcinoma AJCC v8",
      "Clinical Stage II Gastroesophageal Junction Adenocarcinoma AJCC v8",
      "Clinical Stage IIA Esophageal Adenocarcinoma AJCC v8",
      "Clinical Stage IIA Gastroesophageal Junction Adenocarcinoma AJCC v8",
      "Clinical Stage IIB Esophageal Adenocarcinoma AJCC v8",
      "Clinical Stage IIB Gastroesophageal Junction Adenocarcinoma AJCC v8",
      "Clinical Stage III Esophageal Adenocarcinoma AJCC v8",
      "Clinical Stage III Esophageal Squamous Cell Carcinoma AJCC v8",
      "Clinical Stage III Gastroesophageal Junction Adenocarcinoma AJCC v8",
      "Clinical Stage IVA Esophageal Adenocarcinoma AJCC v8",
      "Clinical Stage IVA Esophageal Squamous Cell Carcinoma AJCC v8",
      "Clinical Stage IVA Gastroesophageal Junction Adenocarcinoma AJCC v8",
      "Pathologic Stage I Esophageal Adenocarcinoma AJCC v8",
      "Pathologic Stage I Esophageal Squamous Cell Carcinoma AJCC v8",
      "Pathologic Stage I Gastroesophageal Junction Adenocarcinoma AJCC v8",
      "Pathologic Stage IA Esophageal Adenocarcinoma AJCC v8",
      "Pathologic Stage IA Esophageal Squamous Cell Carcinoma AJCC v8",
      "Pathologic Stage IA Gastroesophageal Junction Adenocarcinoma AJCC v8",
      "Pathologic Stage IB Esophageal Adenocarcinoma AJCC v8",
      "Pathologic Stage IB Esophageal Squamous Cell Carcinoma AJCC v8",
      "Pathologic Stage IB Gastroesophageal Junction Adenocarcinoma AJCC v8",
      "Pathologic Stage IC Esophageal Adenocarcinoma AJCC v8",
      "Pathologic Stage IC Gastroesophageal Junction Adenocarcinoma AJCC v8",
      "Pathologic Stage II Esophageal Adenocarcinoma AJCC v8",
      "Pathologic Stage II Esophageal Squamous Cell Carcinoma AJCC v8",
      "Pathologic Stage II Gastroesophageal Junction Adenocarcinoma AJCC v8",
      "Pathologic Stage IIA Esophageal Adenocarcinoma AJCC v8",
      "Pathologic Stage IIA Esophageal Squamous Cell Carcinoma AJCC v8",
      "Pathologic Stage IIA Gastroesophageal Junction Adenocarcinoma AJCC v8",
      "Pathologic Stage IIB Esophageal Adenocarcinoma AJCC v8",
      "Pathologic Stage IIB Esophageal Squamous Cell Carcinoma AJCC v8",
      "Pathologic Stage IIB Gastroesophageal Junction Adenocarcinoma AJCC v8",
      "Pathologic Stage III Esophageal Adenocarcinoma AJCC v8",
      "Pathologic Stage III Esophageal Squamous Cell Carcinoma AJCC v8",
      "Pathologic Stage III Gastroesophageal Junction Adenocarcinoma AJCC v8",
      "Pathologic Stage IIIA Esophageal Adenocarcinoma AJCC v8",
      "Pathologic Stage IIIA Esophageal Squamous Cell Carcinoma AJCC v8",
      "Pathologic Stage IIIA Gastroesophageal Junction Adenocarcinoma AJCC v8",
      "Pathologic Stage IIIB Esophageal Adenocarcinoma AJCC v8",
      "Pathologic Stage IIIB Esophageal Squamous Cell Carcinoma AJCC v8",
      "Pathologic Stage IIIB Gastroesophageal Junction Adenocarcinoma AJCC v8",
      "Pathologic Stage IVA Esophageal Adenocarcinoma AJCC v8",
      "Pathologic Stage IVA Esophageal Squamous Cell Carcinoma AJCC v8",
      "Pathologic Stage IVA Gastroesophageal Junction Adenocarcinoma AJCC v8",
      "Postneoadjuvant Therapy Stage I Esophageal Adenocarcinoma AJCC v8",
      "Postneoadjuvant Therapy Stage I Esophageal Squamous Cell Carcinoma AJCC v8",
      "Postneoadjuvant Therapy Stage I Gastroesophageal Junction Adenocarcinoma AJCC v8",
      "Postneoadjuvant Therapy Stage II Esophageal Adenocarcinoma AJCC v8",
      "Postneoadjuvant Therapy Stage II Esophageal Squamous Cell Carcinoma AJCC v8",
      "Postneoadjuvant Therapy Stage II Gastroesophageal Junction Adenocarcinoma AJCC v8",
      "Postneoadjuvant Therapy Stage III Esophageal Adenocarcinoma AJCC v8",
      "Postneoadjuvant Therapy Stage III Esophageal Squamous Cell Carcinoma AJCC v8",
      "Postneoadjuvant Therapy Stage III Gastroesophageal Junction Adenocarcinoma AJCC v8",
      "Postneoadjuvant Therapy Stage IIIA Esophageal Adenocarcinoma AJCC v8",
      "Postneoadjuvant Therapy Stage IIIA Esophageal Squamous Cell Carcinoma AJCC v8",
      "Postneoadjuvant Therapy Stage IIIA Gastroesophageal Junction Adenocarcinoma AJCC v8",
      "Postneoadjuvant Therapy Stage IIIB Esophageal Adenocarcinoma AJCC v8",
      "Postneoadjuvant Therapy Stage IIIB Esophageal Squamous Cell Carcinoma AJCC v8",
      "Postneoadjuvant Therapy Stage IIIB Gastroesophageal Junction Adenocarcinoma AJCC v8",
      "Postneoadjuvant Therapy Stage IVA Esophageal Adenocarcinoma AJCC v8",
      "Postneoadjuvant Therapy Stage IVA Esophageal Squamous Cell Carcinoma AJCC v8",
      "Postneoadjuvant Therapy Stage IVA Gastroesophageal Junction Adenocarcinoma AJCC v8",
      "Thoracic Esophagus Squamous Cell Carcinoma"
    ],
    "link_to_trial": "https://clinicaltrials.gov/study/NCT03801876",
    "phase": "Phase 3",
    "recruitment_status": "RECRUITING",
    "last_update_date": "2025-01-22",
    "enrollment": 300,
    "min_age": 18,
    "max_age": null,
    "sex": "ALL",
    "is_metastatic_allowed": false,
    "performance_status_scale": "Zubrod",
    "performance_status_values": [
      0,
      1,
      2
    ],
    "min_prior_lines": null,
    "max_prior_lines": null,
    "prior_treatments_required": null,
    "prior_treatments_excluded": [
      "Prior thoracic radiotherapy that would result in overlap of radiation therapy fields"
    ],
    "principal_investigator": "Steven Lin",
    "site_name": "Mayo Clinic Hospital in Arizona",
    "contact_email": null,
    "contact_phone": "855-776-0015",
    "locations": [
      {
        "facility": "Mayo Clinic Hospital in Arizona",
        "status": "RECRUITING",
        "city": "Phoenix",
        "state": "Arizona",
        "zip": "85054",
        "country": "United States",
        "contacts": [
          {
            "name": "Site Public Contact",
            "role": "CONTACT",
            "phone": "855-776-0015"
          },
          {
            "name": "Christopher L. Hallemeier",
            "role": "PRINCIPAL_INVESTIGATOR"
          }
        ],
        "geoPoint": {
          "lat": 33.44838,
          "lon": -112.07404
        }
      },
      {
        "facility": "Mayo Clinic in Arizona",
        "status": "ACTIVE_NOT_RECRUITING",
        "city": "Scottsdale",
        "state": "Arizona",
        "zip": "85259",
        "country": "United States",
        "geoPoint": {
          "lat": 33.50921,
          "lon": -111.89903
        }
      },
      {
        "facility": "University of Arkansas for Medical Sciences",
        "status": "RECRUITING",
        "city": "Little Rock",
        "state": "Arkansas",
        "zip": "72205",
        "country": "United States",
        "contacts": [
          {
            "name": "Site Public Contact",
            "role": "CONTACT",
            "phone": "501-686-8274"
          },
          {
            "name": "Adam R. Wolfe",
            "role": "PRINCIPAL_INVESTIGATOR"
          }
        ],
        "geoPoint": {
          "lat": 34.74648,
          "lon": -92.28959
        }
      },
      {
        "facility": "UM Sylvester Comprehensive Cancer Center at Coral Gables",
        "status": "RECRUITING",
        "city": "Coral Gables",
        "state": "Florida",
        "zip": "33146",
        "country": "United States",
        "contacts": [
          {
            "name": "Site Public Contact",
            "role": "CONTACT",
            "phone": "305-243-2647"
          },
          {
            "name": "William Jin",
            "role": "PRINCIPAL_INVESTIGATOR"
          }
        ],
        "geoPoint": {
          "lat": 25.72149,
          "lon": -80.26838
        }
      },
      {
        "facility": "UM Sylvester Comprehensive Cancer Center at Deerfield Beach",
        "status": "RECRUITING",
        "city": "Deerfield Beach",
        "state": "Florida",
        "zip": "33442",
        "country": "United States",
        "contacts": [
          {
            "name": "Site Public Contact",
            "role": "CONTACT",
            "phone": "305-243-2647"
          },
          {
            "name": "William Jin",
            "role": "PRINCIPAL_INVESTIGATOR"
          }
        ],
        "geoPoint": {
          "lat": 26.31841,
          "lon": -80.09977
        }
      },
      {
        "facility": "University of Miami Miller School of Medicine-Sylvester Cancer Center",
        "status": "RECRUITING",
        "city": "Miami",
        "state": "Florida",
        "zip": "33136",
        "country": "United States",
        "contacts": [
          {
            "name": "Site Public Contact",
            "role": "CONTACT",
            "phone": "305-243-2647"
          },
          {
            "name": "William Jin",
            "role": "PRINCIPAL_INVESTIGATOR"
          }
        ],
        "geoPoint": {
          "lat": 25.77427,
          "lon": -80.19366
        }
      },
      {
        "facility": "Miami Cancer Institute",
        "status": "RECRUITING",
        "city": "Miami",
        "state": "Florida",
        "zip": "33176",
        "country": "United States",
        "contacts": [
          {
            "name": "Site Public Contact",
            "role": "CONTACT",
            "phone": "786-596-2000"
          },
          {
            "name": "Michael D. Chuong",
            "role": "PRINCIPAL_INVESTIGATOR"
          }
        ],
        "geoPoint": {
          "lat": 25.77427,
          "lon": -80.19366
        }
      },
      {
        "facility": "Orlando Health Cancer Institute",
        "status": "ACTIVE_NOT_RECRUITING",
        "city": "Orlando",
        "state": "Florida",
        "zip": "32806",
        "country": "United States",
        "geoPoint": {
          "lat": 28.53834,
          "lon": -81.37924
        }
      },
      {
        "facility": "Emory Proton Therapy Center",
        "status": "ACTIVE_NOT_RECRUITING",
        "city": "Atlanta",
        "state": "Georgia",
        "zip": "30308",
        "country": "United States",
        "geoPoint": {
          "lat": 33.749,
          "lon": -84.38798
        }
      },
      {
        "facility": "Emory University Hospital Midtown",
        "status": "ACTIVE_NOT_RECRUITING",
        "city": "Atlanta",
        "state": "Georgia",
        "zip": "30308",
        "country": "United States",
        "geoPoint": {
          "lat": 33.749,
          "lon": -84.38798
        }
      },
      {
        "facility": "Emory University Hospital/Winship Cancer Institute",
        "status": "ACTIVE_NOT_RECRUITING",
        "city": "Atlanta",
        "state": "Georgia",
        "zip": "30322",
        "country": "United States",
        "geoPoint": {
          "lat": 33.749,
          "lon": -84.38798
        }
      },
      {
        "facility": "Emory Saint Joseph's Hospital",
        "status": "ACTIVE_NOT_RECRUITING",
        "city": "Atlanta",
        "state": "Georgia",
        "zip": "30342",
        "country": "United States",
        "geoPoint": {
          "lat": 33.749,
          "lon": -84.38798
        }
      },
      {
        "facility": "Alton Memorial Hospital",
        "status": "RECRUITING",
        "city": "Alton",
        "state": "Illinois",
        "zip": "62002",
        "country": "United States",
        "contacts": [
          {
            "name": "Site Public Contact",
            "role": "CONTACT",
            "phone": "618-463-7323"
          },
          {
            "name": "Gregory R. Vlacich",
            "role": "PRINCIPAL_INVESTIGATOR"
          }
        ],
        "geoPoint": {
          "lat": 38.8906,
          "lon": -90.18428
        }
      },
      {
        "facility": "Northwestern Medicine Cancer Center Kishwaukee",
        "status": "RECRUITING",
        "city": "DeKalb",
        "state": "Illinois",
        "zip": "60115",
        "country": "United States",
        "contacts": [
          {
            "name": "Site Public Contact",
            "role": "CONTACT",
            "phone": "630-352-5360",
            "email": "Donald.Smith3@nm.org"
          },
          {
            "name": "Stephen A. Mihalcik",
            "role": "PRINCIPAL_INVESTIGATOR"
          }
        ],
        "geoPoint": {
          "lat": 41.92947,
          "lon": -88.75036
        }
      },
      {
        "facility": "Northwestern Medicine Cancer Center Delnor",
        "status": "RECRUITING",
        "city": "Geneva",
        "state": "Illinois",
        "zip": "60134",
        "country": "United States",
        "contacts": [
          {
            "name": "Site Public Contact",
            "role": "CONTACT",
            "phone": "630-352-5360",
            "email": "Donald.Smith3@nm.org"
          },
          {
            "name": "Stephen A. Mihalcik",
            "role": "PRINCIPAL_INVESTIGATOR"
          }
        ],
        "geoPoint": {
          "lat": 41.88753,
          "lon": -88.30535
        }
      },
      {
        "facility": "Memorial Hospital East",
        "status": "RECRUITING",
        "city": "Shiloh",
        "state": "Illinois",
        "zip": "62269",
        "country": "United States",
        "contacts": [
          {
            "name": "Site Public Contact",
            "role": "CONTACT",
            "phone": "314-747-9912",
            "email": "dschwab@wustl.edu"
          },
          {
            "name": "Gregory R. Vlacich",
            "role": "PRINCIPAL_INVESTIGATOR"
          }
        ],
        "geoPoint": {
          "lat": 38.56144,
          "lon": -89.89732
        }
      },
      {
        "facility": "Northwestern Medicine Cancer Center Warrenville",
        "status": "RECRUITING",
        "city": "Warrenville",
        "state": "Illinois",
        "zip": "60555",
        "country": "United States",
        "contacts": [
          {
            "name": "Site Public Contact",
            "role": "CONTACT",
            "phone": "630-352-5360",
            "email": "Donald.Smith3@nm.org"
          },
          {
            "name": "Stephen A. Mihalcik",
            "role": "PRINCIPAL_INVESTIGATOR"
          }
        ],
        "geoPoint": {
          "lat": 41.81781,
          "lon": -88.1734
        }
      },
      {
        "facility": "Maryland Proton Treatment Center",
        "status": "RECRUITING",
        "city": "Baltimore",
        "state": "Maryland",
        "zip": "21201",
        "country": "United States",
        "contacts": [
          {
            "name": "Site Public Contact",
            "role": "CONTACT",
            "phone": "410-369-5226",
            "email": "info@mdproton.com"
          },
          {
            "name": "Jason K. Molitoris",
            "role": "PRINCIPAL_INVESTIGATOR"
          }
        ],
        "geoPoint": {
          "lat": 39.29038,
          "lon": -76.61219
        }
      },
      {
        "facility": "University of Maryland/Greenebaum Cancer Center",
        "status": "RECRUITING",
        "city": "Baltimore",
        "state": "Maryland",
        "zip": "21201",
        "country": "United States",
        "contacts": [
          {
            "name": "Site Public Contact",
            "role": "CONTACT",
            "phone": "800-888-8823"
          },
          {
            "name": "Jason K. Molitoris",
            "role": "PRINCIPAL_INVESTIGATOR"
          }
        ],
        "geoPoint": {
          "lat": 39.29038,
          "lon": -76.61219
        }
      },
      {
        "facility": "UM Upper Chesapeake Medical Center",
        "status": "RECRUITING",
        "city": "Bel Air",
        "state": "Maryland",
        "zip": "21014",
        "country": "United States",
        "contacts": [
          {
            "name": "Site Public Contact",
            "role": "CONTACT",
            "phone": "443-643-3010"
          },
          {
            "name": "Jack J. Hong",
            "role": "PRINCIPAL_INVESTIGATOR"
          }
        ],
        "geoPoint": {
          "lat": 39.53594,
          "lon": -76.34829
        }
      },
      {
        "facility": "Massachusetts General Hospital Cancer Center",
        "status": "RECRUITING",
        "city": "Boston",
        "state": "Massachusetts",
        "zip": "02114",
        "country": "United States",
        "contacts": [
          {
            "name": "Site Public Contact",
            "role": "CONTACT",
            "phone": "877-726-5130"
          },
          {
            "name": "Florence K. Keane",
            "role": "PRINCIPAL_INVESTIGATOR"
          }
        ],
        "geoPoint": {
          "lat": 42.35843,
          "lon": -71.05977
        }
      },
      {
        "facility": "McLaren Cancer Institute-Bay City",
        "status": "RECRUITING",
        "city": "Bay City",
        "state": "Michigan",
        "zip": "48706",
        "country": "United States",
        "contacts": [
          {
            "name": "Site Public Contact",
            "role": "CONTACT",
            "phone": "313-576-9790",
            "email": "ctoadmin@karmanos.org"
          },
          {
            "name": "Christian C. Hyde",
            "role": "PRINCIPAL_INVESTIGATOR"
          }
        ],
        "geoPoint": {
          "lat": 43.59447,
          "lon": -83.88886
        }
      },
      {
        "facility": "Corewell Health Dearborn Hospital",
        "status": "RECRUITING",
        "city": "Dearborn",
        "state": "Michigan",
        "zip": "48124",
        "country": "United States",
        "contacts": [
          {
            "name": "Site Public Contact",
            "role": "CONTACT",
            "phone": "248-551-7695"
          },
          {
            "name": "John M. Robertson",
            "role": "PRINCIPAL_INVESTIGATOR"
          }
        ],
        "geoPoint": {
          "lat": 42.32226,
          "lon": -83.17631
        }
      },
      {
        "facility": "Wayne State University/Karmanos Cancer Institute",
        "status": "RECRUITING",
        "city": "Detroit",
        "state": "Michigan",
        "zip": "48201",
        "country": "United States",
        "contacts": [
          {
            "name": "Site Public Contact",
            "role": "CONTACT",
            "phone": "313-576-9790",
            "email": "ctoadmin@karmanos.org"
          },
          {
            "name": "Christian C. Hyde",
            "role": "PRINCIPAL_INVESTIGATOR"
          }
        ],
        "geoPoint": {
          "lat": 42.33143,
          "lon": -83.04575
        }
      },
      {
        "facility": "Weisberg Cancer Treatment Center",
        "status": "RECRUITING",
        "city": "Farmington Hills",
        "state": "Michigan",
        "zip": "48334",
        "country": "United States",
        "contacts": [
          {
            "name": "Site Public Contact",
            "role": "CONTACT",
            "phone": "313-576-9790",
            "email": "ctoadmin@karmanos.org"
          },
          {
            "name": "Christian C. Hyde",
            "role": "PRINCIPAL_INVESTIGATOR"
          }
        ],
        "geoPoint": {
          "lat": 42.48531,
          "lon": -83.37716
        }
      },
      {
        "facility": "McLaren Cancer Institute-Flint",
        "status": "RECRUITING",
        "city": "Flint",
        "state": "Michigan",
        "zip": "48532",
        "country": "United States",
        "contacts": [
          {
            "name": "Site Public Contact",
            "role": "CONTACT",
            "phone": "313-576-9790",
            "email": "ctoadmin@karmanos.org"
          },
          {
            "name": "Christian C. Hyde",
            "role": "PRINCIPAL_INVESTIGATOR"
          }
        ],
        "geoPoint": {
          "lat": 43.01253,
          "lon": -83.68746
        }
      },
      {
        "facility": "Karmanos Cancer Institute at McLaren Greater Lansing",
        "status": "RECRUITING",
        "city": "Lansing",
        "state": "Michigan",
        "zip": "48910",
        "country": "United States",
        "contacts": [
          {
            "name": "Site Public Contact",
            "role": "CONTACT",
            "phone": "313-576-9790",
            "email": "ctoadmin@karmanos.org"
          },
          {
            "name": "Christian C. Hyde",
            "role": "PRINCIPAL_INVESTIGATOR"
          }
        ],
        "geoPoint": {
          "lat": 42.73253,
          "lon": -84.55553
        }
      },
      {
        "facility": "McLaren Cancer Institute-Lapeer Region",
        "status": "RECRUITING",
        "city": "Lapeer",
        "state": "Michigan",
        "zip": "48446",
        "country": "United States",
        "contacts": [
          {
            "name": "Site Public Contact",
            "role": "CONTACT",
            "phone": "313-576-9790",
            "email": "ctoadmin@karmanos.org"
          },
          {
            "name": "Christian C. Hyde",
            "role": "PRINCIPAL_INVESTIGATOR"
          }
        ],
        "geoPoint": {
          "lat": 43.05142,
          "lon": -83.31883
        }
      },
      {
        "facility": "McLaren Cancer Institute-Owosso",
        "status": "RECRUITING",
        "city": "Owosso",
        "state": "Michigan",
        "zip": "48867",
        "country": "United States",
        "contacts": [
          {
            "name": "Site Public Contact",
            "role": "CONTACT",
            "phone": "313-576-9790",
            "email": "ctoadmin@karmanos.org"
          },
          {
            "name": "Christian C. Hyde",
            "role": "PRINCIPAL_INVESTIGATOR"
          }
        ],
        "geoPoint": {
          "lat": 42.9978,
          "lon": -84.17664
        }
      },
      {
        "facility": "Corewell Health William Beaumont University Hospital",
        "status": "RECRUITING",
        "city": "Royal Oak",
        "state": "Michigan",
        "zip": "48073",
        "country": "United States",
        "contacts": [
          {
            "name": "Site Public Contact",
            "role": "CONTACT",
            "phone": "248-551-7695"
          },
          {
            "name": "John M. Robertson",
            "role": "PRINCIPAL_INVESTIGATOR"
          }
        ],
        "geoPoint": {
          "lat": 42.48948,
          "lon": -83.14465
        }
      },
      {
        "facility": "Corewell Health Beaumont Troy Hospital",
        "status": "RECRUITING",
        "city": "Troy",
        "state": "Michigan",
        "zip": "48085",
        "country": "United States",
        "contacts": [
          {
            "name": "Site Public Contact",
            "role": "CONTACT",
            "phone": "248-551-7695"
          },
          {
            "name": "John M. Robertson",
            "role": "PRINCIPAL_INVESTIGATOR"
          }
        ],
        "geoPoint": {
          "lat": 42.60559,
          "lon": -83.14993
        }
      },
      {
        "facility": "Mayo Clinic Health System in Albert Lea",
        "status": "COMPLETED",
        "city": "Albert Lea",
        "state": "Minnesota",
        "zip": "56007",
        "country": "United States",
        "geoPoint": {
          "lat": 43.64801,
          "lon": -93.36827
        }
      },
      {
        "facility": "Mercy Hospital",
        "status": "RECRUITING",
        "city": "Coon Rapids",
        "state": "Minnesota",
        "zip": "55433",
        "country": "United States",
        "contacts": [
          {
            "name": "Site Public Contact",
            "role": "CONTACT",
            "phone": "952-993-1517",
            "email": "mmcorc@healthpartners.com"
          },
          {
            "name": "Charles Shideman",
            "role": "PRINCIPAL_INVESTIGATOR"
          }
        ],
        "geoPoint": {
          "lat": 45.11997,
          "lon": -93.28773
        }
      },
      {
        "facility": "Unity Hospital",
        "status": "ACTIVE_NOT_RECRUITING",
        "city": "Fridley",
        "state": "Minnesota",
        "zip": "55432",
        "country": "United States",
        "geoPoint": {
          "lat": 45.08608,
          "lon": -93.26328
        }
      },
      {
        "facility": "Mayo Clinic Health Systems-Mankato",
        "status": "COMPLETED",
        "city": "Mankato",
        "state": "Minnesota",
        "zip": "56001",
        "country": "United States",
        "geoPoint": {
          "lat": 44.15906,
          "lon": -94.00915
        }
      },
      {
        "facility": "Minnesota Oncology Hematology PA-Maplewood",
        "status": "RECRUITING",
        "city": "Maplewood",
        "state": "Minnesota",
        "zip": "55109",
        "country": "United States",
        "contacts": [
          {
            "name": "Site Public Contact",
            "role": "CONTACT",
            "phone": "952-993-1517",
            "email": "mmcorc@healthpartners.com"
          },
          {
            "name": "Charles Shideman",
            "role": "PRINCIPAL_INVESTIGATOR"
          }
        ],
        "geoPoint": {
          "lat": 44.95302,
          "lon": -92.99522
        }
      },
      {
        "facility": "Hennepin County Medical Center",
        "status": "RECRUITING",
        "city": "Minneapolis",
        "state": "Minnesota",
        "zip": "55415",
        "country": "United States",
        "contacts": [
          {
            "name": "Site Public Contact",
            "role": "CONTACT",
            "phone": "952-993-1517",
            "email": "mmcorc@healthpartners.com"
          },
          {
            "name": "Charles Shideman",
            "role": "PRINCIPAL_INVESTIGATOR"
          }
        ],
        "geoPoint": {
          "lat": 44.97997,
          "lon": -93.26384
        }
      },
      {
        "facility": "Mayo Clinic Radiation Therapy-Northfield",
        "status": "RECRUITING",
        "city": "Northfield",
        "state": "Minnesota",
        "zip": "55057",
        "country": "United States",
        "contacts": [
          {
            "name": "Site Public Contact",
            "role": "CONTACT",
            "phone": "855-776-0015"
          },
          {
            "name": "Christopher L. Hallemeier",
            "role": "PRINCIPAL_INVESTIGATOR"
          }
        ],
        "geoPoint": {
          "lat": 44.4583,
          "lon": -93.1616
        }
      },
      {
        "facility": "Mayo Clinic in Rochester",
        "status": "ACTIVE_NOT_RECRUITING",
        "city": "Rochester",
        "state": "Minnesota",
        "zip": "55905",
        "country": "United States",
        "geoPoint": {
          "lat": 44.02163,
          "lon": -92.4699
        }
      },
      {
        "facility": "Ridgeview Medical Center",
        "status": "RECRUITING",
        "city": "Waconia",
        "state": "Minnesota",
        "zip": "55387",
        "country": "United States",
        "contacts": [
          {
            "name": "Site Public Contact",
            "role": "CONTACT",
            "phone": "952-993-1517",
            "email": "mmcorc@healthpartners.com"
          },
          {
            "name": "Charles Shideman",
            "role": "PRINCIPAL_INVESTIGATOR"
          }
        ],
        "geoPoint": {
          "lat": 44.8508,
          "lon": -93.78691
        }
      },
      {
        "facility": "Siteman Cancer Center at Saint Peters Hospital",
        "status": "RECRUITING",
        "city": "City of Saint Peters",
        "state": "Missouri",
        "zip": "63376",
        "country": "United States",
        "contacts": [
          {
            "name": "Site Public Contact",
            "role": "CONTACT",
            "phone": "800-600-3606",
            "email": "info@siteman.wustl.edu"
          },
          {
            "name": "Gregory R. Vlacich",
            "role": "PRINCIPAL_INVESTIGATOR"
          }
        ],
        "geoPoint": {
          "lat": 38.80033,
          "lon": -90.62651
        }
      },
      {
        "facility": "Siteman Cancer Center at West County Hospital",
        "status": "RECRUITING",
        "city": "Creve Coeur",
        "state": "Missouri",
        "zip": "63141",
        "country": "United States",
        "contacts": [
          {
            "name": "Site Public Contact",
            "role": "CONTACT",
            "phone": "800-600-3606",
            "email": "info@siteman.wustl.edu"
          },
          {
            "name": "Gregory R. Vlacich",
            "role": "PRINCIPAL_INVESTIGATOR"
          }
        ],
        "geoPoint": {
          "lat": 38.66089,
          "lon": -90.42262
        }
      },
      {
        "facility": "Mercy Hospital Springfield",
        "status": "RECRUITING",
        "city": "Springfield",
        "state": "Missouri",
        "zip": "65804",
        "country": "United States",
        "contacts": [
          {
            "name": "Site Public Contact",
            "role": "CONTACT",
            "phone": "417-269-4520"
          },
          {
            "name": "Jay W. Carlson",
            "role": "PRINCIPAL_INVESTIGATOR"
          }
        ],
        "geoPoint": {
          "lat": 37.21533,
          "lon": -93.29824
        }
      },
      {
        "facility": "Washington University School of Medicine",
        "status": "RECRUITING",
        "city": "St Louis",
        "state": "Missouri",
        "zip": "63110",
        "country": "United States",
        "contacts": [
          {
            "name": "Site Public Contact",
            "role": "CONTACT",
            "phone": "800-600-3606",
            "email": "info@siteman.wustl.edu"
          },
          {
            "name": "Gregory R. Vlacich",
            "role": "PRINCIPAL_INVESTIGATOR"
          }
        ],
        "geoPoint": {
          "lat": 38.62727,
          "lon": -90.19789
        }
      },
      {
        "facility": "Siteman Cancer Center-South County",
        "status": "RECRUITING",
        "city": "St Louis",
        "state": "Missouri",
        "zip": "63129",
        "country": "United States",
        "contacts": [
          {
            "name": "Site Public Contact",
            "role": "CONTACT",
            "phone": "800-600-3606",
            "email": "info@siteman.wustl.edu"
          },
          {
            "name": "Gregory R. Vlacich",
            "role": "PRINCIPAL_INVESTIGATOR"
          }
        ],
        "geoPoint": {
          "lat": 38.62727,
          "lon": -90.19789
        }
      },
      {
        "facility": "Siteman Cancer Center at Christian Hospital",
        "status": "RECRUITING",
        "city": "St Louis",
        "state": "Missouri",
        "zip": "63136",
        "country": "United States",
        "contacts": [
          {
            "name": "Site Public Contact",
            "role": "CONTACT",
            "phone": "800-600-3606",
            "email": "info@siteman.wustl.edu"
          },
          {
            "name": "Gregory R. Vlacich",
            "role": "PRINCIPAL_INVESTIGATOR"
          }
        ],
        "geoPoint": {
          "lat": 38.62727,
          "lon": -90.19789
        }
      },
      {
        "facility": "Mercy Hospital Saint Louis",
        "status": "RECRUITING",
        "city": "St Louis",
        "state": "Missouri",
        "zip": "63141",
        "country": "United States",
        "contacts": [
          {
            "name": "Site Public Contact",
            "role": "CONTACT",
            "phone": "314-251-7066"
          },
          {
            "name": "Jay W. Carlson",
            "role": "PRINCIPAL_INVESTIGATOR"
          }
        ],
        "geoPoint": {
          "lat": 38.62727,
          "lon": -90.19789
        }
      },
      {
        "facility": "Memorial Sloan Kettering Basking Ridge",
        "status": "RECRUITING",
        "city": "Basking Ridge",
        "state": "New Jersey",
        "zip": "07920",
        "country": "United States",
        "contacts": [
          {
            "name": "Site Public Contact",
            "role": "CONTACT",
            "phone": "212-639-7592"
          },
          {
            "name": "Abraham J. Wu",
            "role": "PRINCIPAL_INVESTIGATOR"
          }
        ],
        "geoPoint": {
          "lat": 40.70621,
          "lon": -74.54932
        }
      },
      {
        "facility": "Memorial Sloan Kettering Monmouth",
        "status": "RECRUITING",
        "city": "Middletown",
        "state": "New Jersey",
        "zip": "07748",
        "country": "United States",
        "contacts": [
          {
            "name": "Site Public Contact",
            "role": "CONTACT",
            "phone": "212-639-7592"
          },
          {
            "name": "Abraham J. Wu",
            "role": "PRINCIPAL_INVESTIGATOR"
          }
        ],
        "geoPoint": {
          "lat": 40.39428,
          "lon": -74.11709
        }
      },
      {
        "facility": "Memorial Sloan Kettering Bergen",
        "status": "RECRUITING",
        "city": "Montvale",
        "state": "New Jersey",
        "zip": "07645",
        "country": "United States",
        "contacts": [
          {
            "name": "Site Public Contact",
            "role": "CONTACT",
            "phone": "212-639-7592"
          },
          {
            "name": "Abraham J. Wu",
            "role": "PRINCIPAL_INVESTIGATOR"
          }
        ],
        "geoPoint": {
          "lat": 41.04676,
          "lon": -74.02292
        }
      },
      {
        "facility": "Memorial Sloan Kettering Commack",
        "status": "RECRUITING",
        "city": "Commack",
        "state": "New York",
        "zip": "11725",
        "country": "United States",
        "contacts": [
          {
            "name": "Site Public Contact",
            "role": "CONTACT",
            "phone": "212-639-7592"
          },
          {
            "name": "Abraham J. Wu",
            "role": "PRINCIPAL_INVESTIGATOR"
          }
        ],
        "geoPoint": {
          "lat": 40.84288,
          "lon": -73.29289
        }
      },
      {
        "facility": "Memorial Sloan Kettering Westchester",
        "status": "RECRUITING",
        "city": "Harrison",
        "state": "New York",
        "zip": "10604",
        "country": "United States",
        "contacts": [
          {
            "name": "Site Public Contact",
            "role": "CONTACT",
            "phone": "212-639-7592"
          },
          {
            "name": "Abraham J. Wu",
            "role": "PRINCIPAL_INVESTIGATOR"
          }
        ],
        "geoPoint": {
          "lat": 40.96899,
          "lon": -73.71263
        }
      },
      {
        "facility": "New York Proton Center",
        "status": "RECRUITING",
        "city": "New York",
        "state": "New York",
        "zip": "10035",
        "country": "United States",
        "contacts": [
          {
            "name": "Site Public Contact",
            "role": "CONTACT",
            "phone": "646-968-9031",
            "email": "ichoi@nyproton.com"
          },
          {
            "name": "Jehee I. Choi",
            "role": "PRINCIPAL_INVESTIGATOR"
          }
        ],
        "geoPoint": {
          "lat": 40.71427,
          "lon": -74.00597
        }
      },
      {
        "facility": "Memorial Sloan Kettering Cancer Center",
        "status": "RECRUITING",
        "city": "New York",
        "state": "New York",
        "zip": "10065",
        "country": "United States",
        "contacts": [
          {
            "name": "Site Public Contact",
            "role": "CONTACT",
            "phone": "212-639-7592"
          },
          {
            "name": "Abraham J. Wu",
            "role": "PRINCIPAL_INVESTIGATOR"
          }
        ],
        "geoPoint": {
          "lat": 40.71427,
          "lon": -74.00597
        }
      },
      {
        "facility": "Memorial Sloan Kettering Nassau",
        "status": "RECRUITING",
        "city": "Uniondale",
        "state": "New York",
        "zip": "11553",
        "country": "United States",
        "contacts": [
          {
            "name": "Site Public Contact",
            "role": "CONTACT",
            "phone": "212-639-7592"
          },
          {
            "name": "Abraham J. Wu",
            "role": "PRINCIPAL_INVESTIGATOR"
          }
        ],
        "geoPoint": {
          "lat": 40.70038,
          "lon": -73.59291
        }
      },
      {
        "facility": "UH Seidman Cancer Center at UH Avon Health Center",
        "status": "RECRUITING",
        "city": "Avon",
        "state": "Ohio",
        "zip": "44011",
        "country": "United States",
        "contacts": [
          {
            "name": "Site Public Contact",
            "role": "CONTACT",
            "phone": "800-641-2422"
          },
          {
            "name": "Lauren E. Henke",
            "role": "PRINCIPAL_INVESTIGATOR"
          }
        ],
        "geoPoint": {
          "lat": 41.45171,
          "lon": -82.03542
        }
      },
      {
        "facility": "UHHS-Chagrin Highlands Medical Center",
        "status": "RECRUITING",
        "city": "Beachwood",
        "state": "Ohio",
        "zip": "44122",
        "country": "United States",
        "contacts": [
          {
            "name": "Site Public Contact",
            "role": "CONTACT",
            "phone": "800-641-2422",
            "email": "CTUReferral@UHhospitals.org"
          },
          {
            "name": "Lauren E. Henke",
            "role": "PRINCIPAL_INVESTIGATOR"
          }
        ],
        "geoPoint": {
          "lat": 41.4645,
          "lon": -81.50873
        }
      },
      {
        "facility": "Geauga Hospital",
        "status": "RECRUITING",
        "city": "Chardon",
        "state": "Ohio",
        "zip": "44024",
        "country": "United States",
        "contacts": [
          {
            "name": "Site Public Contact",
            "role": "CONTACT",
            "phone": "800-641-2422",
            "email": "CTUReferral@UHhospitals.org"
          },
          {
            "name": "Lauren E. Henke",
            "role": "PRINCIPAL_INVESTIGATOR"
          }
        ],
        "geoPoint": {
          "lat": 41.61422,
          "lon": -81.14899
        }
      },
      {
        "facility": "University of Cincinnati Cancer Center-UC Medical Center",
        "status": "RECRUITING",
        "city": "Cincinnati",
        "state": "Ohio",
        "zip": "45219",
        "country": "United States",
        "contacts": [
          {
            "name": "Site Public Contact",
            "role": "CONTACT",
            "phone": "513-584-7698",
            "email": "cancer@uchealth.com"
          },
          {
            "name": "Jordan Kharofa",
            "role": "PRINCIPAL_INVESTIGATOR"
          }
        ],
        "geoPoint": {
          "lat": 39.12711,
          "lon": -84.51439
        }
      },
      {
        "facility": "Case Western Reserve University",
        "status": "RECRUITING",
        "city": "Cleveland",
        "state": "Ohio",
        "zip": "44106",
        "country": "United States",
        "contacts": [
          {
            "name": "Site Public Contact",
            "role": "CONTACT",
            "phone": "800-641-2422",
            "email": "CTUReferral@UHhospitals.org"
          },
          {
            "name": "Lauren E. Henke",
            "role": "PRINCIPAL_INVESTIGATOR"
          }
        ],
        "geoPoint": {
          "lat": 41.4995,
          "lon": -81.69541
        }
      },
      {
        "facility": "Mercy Cancer Center-Elyria",
        "status": "SUSPENDED",
        "city": "Elyria",
        "state": "Ohio",
        "zip": "44035",
        "country": "United States",
        "geoPoint": {
          "lat": 41.36838,
          "lon": -82.10765
        }
      },
      {
        "facility": "UH Seidman Cancer Center at Landerbrook Health Center",
        "status": "RECRUITING",
        "city": "Mayfield Heights",
        "state": "Ohio",
        "zip": "44124",
        "country": "United States",
        "contacts": [
          {
            "name": "Site Public Contact",
            "role": "CONTACT",
            "phone": "800-641-2422",
            "email": "CTUReferral@UHhospitals.org"
          },
          {
            "name": "Lauren E. Henke",
            "role": "PRINCIPAL_INVESTIGATOR"
          }
        ],
        "geoPoint": {
          "lat": 41.51922,
          "lon": -81.4579
        }
      },
      {
        "facility": "UH Seidman Cancer Center at Lake Health Mentor Campus",
        "status": "RECRUITING",
        "city": "Mentor",
        "state": "Ohio",
        "zip": "44060",
        "country": "United States",
        "contacts": [
          {
            "name": "Site Public Contact",
            "role": "CONTACT",
            "phone": "800-641-2422",
            "email": "CTUReferral@UHhospitals.org"
          },
          {
            "name": "Lauren E. Henke",
            "role": "PRINCIPAL_INVESTIGATOR"
          }
        ],
        "geoPoint": {
          "lat": 41.66616,
          "lon": -81.33955
        }
      },
      {
        "facility": "UH Seidman Cancer Center at Southwest General Hospital",
        "status": "RECRUITING",
        "city": "Middleburg Heights",
        "state": "Ohio",
        "zip": "44130",
        "country": "United States",
        "contacts": [
          {
            "name": "Site Public Contact",
            "role": "CONTACT",
            "phone": "800-641-2422",
            "email": "CTUReferral@UHhospitals.org"
          },
          {
            "name": "Lauren E. Henke",
            "role": "PRINCIPAL_INVESTIGATOR"
          }
        ],
        "geoPoint": {
          "lat": 41.36144,
          "lon": -81.81291
        }
      },
      {
        "facility": "University Hospitals Parma Medical Center",
        "status": "RECRUITING",
        "city": "Parma",
        "state": "Ohio",
        "zip": "44129",
        "country": "United States",
        "contacts": [
          {
            "name": "Site Public Contact",
            "role": "CONTACT",
            "phone": "800-641-2422",
            "email": "CTUReferral@UHhospitals.org"
          },
          {
            "name": "Lauren E. Henke",
            "role": "PRINCIPAL_INVESTIGATOR"
          }
        ],
        "geoPoint": {
          "lat": 41.40477,
          "lon": -81.72291
        }
      },
      {
        "facility": "University Hospitals Portage Medical Center",
        "status": "RECRUITING",
        "city": "Ravenna",
        "state": "Ohio",
        "zip": "44266",
        "country": "United States",
        "contacts": [
          {
            "name": "Site Public Contact",
            "role": "CONTACT",
            "phone": "800-641-2422",
            "email": "CTUReferral@UHhospitals.org"
          },
          {
            "name": "Lauren E. Henke",
            "role": "PRINCIPAL_INVESTIGATOR"
          }
        ],
        "geoPoint": {
          "lat": 41.15756,
          "lon": -81.24205
        }
      },
      {
        "facility": "UH Seidman Cancer Center at Firelands Regional Medical Center",
        "status": "RECRUITING",
        "city": "Sandusky",
        "state": "Ohio",
        "zip": "44870",
        "country": "United States",
        "contacts": [
          {
            "name": "Site Public Contact",
            "role": "CONTACT",
            "phone": "800-641-2422",
            "email": "CTUReferral@UHhospitals.org"
          },
          {
            "name": "Lauren E. Henke",
            "role": "PRINCIPAL_INVESTIGATOR"
          }
        ],
        "geoPoint": {
          "lat": 41.44894,
          "lon": -82.70796
        }
      },
      {
        "facility": "University Hospitals Sharon Health Center",
        "status": "RECRUITING",
        "city": "Wadsworth",
        "state": "Ohio",
        "zip": "44281",
        "country": "United States",
        "contacts": [
          {
            "name": "Site Public Contact",
            "role": "CONTACT",
            "phone": "800-641-2422",
            "email": "CTUReferral@UHhospitals.org"
          },
          {
            "name": "Lauren E. Henke",
            "role": "PRINCIPAL_INVESTIGATOR"
          }
        ],
        "geoPoint": {
          "lat": 41.02561,
          "lon": -81.72985
        }
      },
      {
        "facility": "University of Cincinnati Cancer Center-West Chester",
        "status": "RECRUITING",
        "city": "West Chester",
        "state": "Ohio",
        "zip": "45069",
        "country": "United States",
        "contacts": [
          {
            "name": "Site Public Contact",
            "role": "CONTACT",
            "phone": "513-584-7698",
            "email": "cancer@uchealth.com"
          },
          {
            "name": "Jordan Kharofa",
            "role": "PRINCIPAL_INVESTIGATOR"
          }
        ],
        "geoPoint": {
          "lat": 39.33172,
          "lon": -84.40716
        }
      },
      {
        "facility": "UH Seidman Cancer Center at Saint John Medical Center",
        "status": "SUSPENDED",
        "city": "Westlake",
        "state": "Ohio",
        "zip": "44145",
        "country": "United States",
        "geoPoint": {
          "lat": 41.45532,
          "lon": -81.91792
        }
      },
      {
        "facility": "UHHS-Westlake Medical Center",
        "status": "RECRUITING",
        "city": "Westlake",
        "state": "Ohio",
        "zip": "44145",
        "country": "United States",
        "contacts": [
          {
            "name": "Site Public Contact",
            "role": "CONTACT",
            "phone": "800-641-2422",
            "email": "CTUReferral@UHhospitals.org"
          },
          {
            "name": "Lauren E. Henke",
            "role": "PRINCIPAL_INVESTIGATOR"
          }
        ],
        "geoPoint": {
          "lat": 41.45532,
          "lon": -81.91792
        }
      },
      {
        "facility": "University of Oklahoma Health Sciences Center",
        "status": "RECRUITING",
        "city": "Oklahoma City",
        "state": "Oklahoma",
        "zip": "73104",
        "country": "United States",
        "contacts": [
          {
            "name": "Site Public Contact",
            "role": "CONTACT",
            "phone": "405-271-8777",
            "email": "ou-clinical-trials@ouhsc.edu"
          },
          {
            "name": "Andrea Johnston",
            "role": "PRINCIPAL_INVESTIGATOR"
          }
        ],
        "geoPoint": {
          "lat": 35.46756,
          "lon": -97.51643
        }
      },
      {
        "facility": "University of Pennsylvania/Abramson Cancer Center",
        "status": "RECRUITING",
        "city": "Philadelphia",
        "state": "Pennsylvania",
        "zip": "19104",
        "country": "United States",
        "contacts": [
          {
            "name": "Site Public Contact",
            "role": "CONTACT",
            "phone": "855-216-0098",
            "email": "PennCancerTrials@careboxhealth.com"
          },
          {
            "name": "John P. Plastaras",
            "role": "PRINCIPAL_INVESTIGATOR"
          }
        ],
        "geoPoint": {
          "lat": 39.95238,
          "lon": -75.16362
        }
      },
      {
        "facility": "Thompson Proton Center",
        "status": "RECRUITING",
        "city": "Knoxville",
        "state": "Tennessee",
        "zip": "37909",
        "country": "United States",
        "contacts": [
          {
            "name": "Site Public Contact",
            "role": "CONTACT",
            "phone": "865-531-5118",
            "email": "jwilso31@covhlth.com"
          },
          {
            "name": "Grant M. Clark",
            "role": "PRINCIPAL_INVESTIGATOR"
          }
        ],
        "geoPoint": {
          "lat": 35.96064,
          "lon": -83.92074
        }
      },
      {
        "facility": "Thompson Cancer Survival Center",
        "status": "RECRUITING",
        "city": "Knoxville",
        "state": "Tennessee",
        "zip": "37916",
        "country": "United States",
        "contacts": [
          {
            "name": "Site Public Contact",
            "role": "CONTACT",
            "phone": "865-331-1812"
          },
          {
            "name": "Grant M. Clark",
            "role": "PRINCIPAL_INVESTIGATOR"
          }
        ],
        "geoPoint": {
          "lat": 35.96064,
          "lon": -83.92074
        }
      },
      {
        "facility": "Thompson Cancer Survival Center - West",
        "status": "RECRUITING",
        "city": "Knoxville",
        "state": "Tennessee",
        "zip": "37932",
        "country": "United States",
        "contacts": [
          {
            "name": "Site Public Contact",
            "role": "CONTACT",
            "phone": "865-331-1812"
          },
          {
            "name": "Grant M. Clark",
            "role": "PRINCIPAL_INVESTIGATOR"
          }
        ],
        "geoPoint": {
          "lat": 35.96064,
          "lon": -83.92074
        }
      },
      {
        "facility": "Thompson Oncology Group-Maryville",
        "status": "SUSPENDED",
        "city": "Maryville",
        "state": "Tennessee",
        "zip": "37804",
        "country": "United States",
        "geoPoint": {
          "lat": 35.75647,
          "lon": -83.97046
        }
      },
      {
        "facility": "Thompson Oncology Group-Oak Ridge",
        "status": "RECRUITING",
        "city": "Oak Ridge",
        "state": "Tennessee",
        "zip": "37830",
        "country": "United States",
        "contacts": [
          {
            "name": "Site Public Contact",
            "role": "CONTACT",
            "phone": "865-331-1812"
          },
          {
            "name": "Grant M. Clark",
            "role": "PRINCIPAL_INVESTIGATOR"
          }
        ],
        "geoPoint": {
          "lat": 36.01036,
          "lon": -84.26964
        }
      },
      {
        "facility": "MD Anderson in The Woodlands",
        "status": "RECRUITING",
        "city": "Conroe",
        "state": "Texas",
        "zip": "77384",
        "country": "United States",
        "contacts": [
          {
            "name": "Site Public Contact",
            "role": "CONTACT",
            "phone": "866-632-6789",
            "email": "askmdanderson@mdanderson.org"
          },
          {
            "name": "Saumil Gandhi",
            "role": "PRINCIPAL_INVESTIGATOR"
          }
        ],
        "geoPoint": {
          "lat": 30.31188,
          "lon": -95.45605
        }
      },
      {
        "facility": "M D Anderson Cancer Center",
        "status": "RECRUITING",
        "city": "Houston",
        "state": "Texas",
        "zip": "77030",
        "country": "United States",
        "contacts": [
          {
            "name": "Site Public Contact",
            "role": "CONTACT",
            "phone": "877-632-6789",
            "email": "askmdanderson@mdanderson.org"
          },
          {
            "name": "Saumil Gandhi",
            "role": "PRINCIPAL_INVESTIGATOR"
          }
        ],
        "geoPoint": {
          "lat": 29.76328,
          "lon": -95.36327
        }
      },
      {
        "facility": "MD Anderson West Houston",
        "status": "RECRUITING",
        "city": "Houston",
        "state": "Texas",
        "zip": "77079",
        "country": "United States",
        "contacts": [
          {
            "name": "Site Public Contact",
            "role": "CONTACT",
            "phone": "877-632-6789",
            "email": "askmdanderson@mdanderson.org"
          },
          {
            "name": "Saumil Gandhi",
            "role": "PRINCIPAL_INVESTIGATOR"
          }
        ],
        "geoPoint": {
          "lat": 29.76328,
          "lon": -95.36327
        }
      },
      {
        "facility": "MD Anderson League City",
        "status": "RECRUITING",
        "city": "League City",
        "state": "Texas",
        "zip": "77573",
        "country": "United States",
        "contacts": [
          {
            "name": "Site Public Contact",
            "role": "CONTACT",
            "phone": "877-632-6789",
            "email": "askmdanderson@mdanderson.org"
          },
          {
            "name": "Saumil Gandhi",
            "role": "PRINCIPAL_INVESTIGATOR"
          }
        ],
        "geoPoint": {
          "lat": 29.50745,
          "lon": -95.09493
        }
      },
      {
        "facility": "MD Anderson in Sugar Land",
        "status": "RECRUITING",
        "city": "Sugar Land",
        "state": "Texas",
        "zip": "77478",
        "country": "United States",
        "contacts": [
          {
            "name": "Site Public Contact",
            "role": "CONTACT",
            "phone": "877-632-6789",
            "email": "askmdanderson@mdanderson.org"
          },
          {
            "name": "Saumil Gandhi",
            "role": "PRINCIPAL_INVESTIGATOR"
          }
        ],
        "geoPoint": {
          "lat": 29.61968,
          "lon": -95.63495
        }
      },
      {
        "facility": "Huntsman Cancer Institute/University of Utah",
        "status": "RECRUITING",
        "city": "Salt Lake City",
        "state": "Utah",
        "zip": "84112",
        "country": "United States",
        "contacts": [
          {
            "name": "Site Public Contact",
            "role": "CONTACT",
            "phone": "888-424-2100",
            "email": "cancerinfo@hci.utah.edu"
          },
          {
            "name": "Shane Lloyd",
            "role": "PRINCIPAL_INVESTIGATOR"
          }
        ],
        "geoPoint": {
          "lat": 40.76078,
          "lon": -111.89105
        }
      },
      {
        "facility": "Inova Alexandria Hospital",
        "status": "ACTIVE_NOT_RECRUITING",
        "city": "Alexandria",
        "state": "Virginia",
        "zip": "22304",
        "country": "United States",
        "geoPoint": {
          "lat": 38.80484,
          "lon": -77.04692
        }
      },
      {
        "facility": "Inova Schar Cancer Institute",
        "status": "ACTIVE_NOT_RECRUITING",
        "city": "Fairfax",
        "state": "Virginia",
        "zip": "22031",
        "country": "United States",
        "geoPoint": {
          "lat": 38.84622,
          "lon": -77.30637
        }
      },
      {
        "facility": "Inova Fair Oaks Hospital",
        "status": "ACTIVE_NOT_RECRUITING",
        "city": "Fairfax",
        "state": "Virginia",
        "zip": "22033",
        "country": "United States",
        "geoPoint": {
          "lat": 38.84622,
          "lon": -77.30637
        }
      },
      {
        "facility": "Inova Loudoun Hospital",
        "status": "ACTIVE_NOT_RECRUITING",
        "city": "Leesburg",
        "state": "Virginia",
        "zip": "20176",
        "country": "United States",
        "geoPoint": {
          "lat": 39.11566,
          "lon": -77.5636
        }
      },
      {
        "facility": "University of Washington Medical Center - Montlake",
        "status": "ACTIVE_NOT_RECRUITING",
        "city": "Seattle",
        "state": "Washington",
        "zip": "98195",
        "country": "United States",
        "geoPoint": {
          "lat": 47.60621,
          "lon": -122.33207
        }
      },
      {
        "facility": "Mayo Clinic Health System-Eau Claire Clinic",
        "status": "COMPLETED",
        "city": "Eau Claire",
        "state": "Wisconsin",
        "zip": "54701",
        "country": "United States",
        "geoPoint": {
          "lat": 44.81135,
          "lon": -91.49849
        }
      }
    ],
    "key_inclusion_summary": [
      "Histologically proven diagnosis of adenocarcinoma or squamous cell carcinoma of the thoracic esophagus or gastroesophageal junction.",
      "Stage I-IVA, excluding T4b, according to AJCC 8th edition.",
      "Surgical consultation to determine candidacy for resection after chemoradiation.",
      "Zubrod performance status of 0, 1, or 2.",
      "Adequate organ function (neutrophils, platelets, renal, hepatic)."
    ],
    "key_exclusion_summary": [
      "Cervical esophageal cancers.",
      "T4b disease.",
      "Definitive clinical or radiologic evidence of metastatic disease.",
      "Prior thoracic radiotherapy that would result in overlap of radiation therapy fields.",
      "Severe, active co-morbidities such as uncontrolled infection, symptomatic congestive heart failure, or recent myocardial infarction."
    ]
  }