{
  "nct_id": "NCT03678025",
  "official_title": "Phase III Randomized Trial of Standard Systemic Therapy (SST) Versus Standard Systemic Therapy Plus Definitive Treatment (Surgery or Radiation) of the Primary Tumor in Metastatic Prostate Cancer",
  "brief_title": "Standard Systemic Therapy With or Without Definitive Treatment in Treating Participants With Metastatic Prostate Cancer",
  "cancer_type_display": "A study for participants with metastatic prostate cancer, comparing standard systemic therapy alone to standard systemic therapy combined with definitive treatment (surgery or radiation) of the primary tumor.",
  "cancer_tags": [
    "Castration Levels of Testosterone",
    "Metastatic Prostatic Adenocarcinoma",
    "Stage IV Prostate Cancer AJCC v8",
    "Stage IVA Prostate Cancer AJCC v8",
    "Stage IVB Prostate Cancer AJCC v8"
  ],
  "link_to_trial": "https://clinicaltrials.gov/study/NCT03678025",
  "phase": "Phase 3",
  "recruitment_status": "RECRUITING",
  "last_update_date": "2025-09-11",
  "enrollment": 1273,
  "min_age": 18,
  "max_age": null,
  "sex": "MALE",
  "is_metastatic_allowed": true,
  "performance_status_scale": "Zubrod",
  "performance_status_values": [0, 1],
  "min_prior_lines": 0,
  "max_prior_lines": 0,
  "prior_treatments_required": null,
  "prior_treatments_excluded": [
    "Prior local therapy for prostate adenocarcinoma (e.g., brachytherapy, HIFU, cryotherapy, laser ablative therapies)"
  ],
  "principal_investigator": "Brian Chapin",
  "site_name": null,
  "contact_email": "dsparks@swog.org",
  "contact_phone": "2106148808",
  "locations": [
    {
      "facility": "Banner MD Anderson Cancer Center",
      "status": "RECRUITING",
      "city": "Gilbert",
      "state": "Arizona",
      "zip": "85234",
      "country": "United States",
      "contacts": [
        {
          "name": "Site Public Contact",
          "role": "CONTACT",
          "phone": "602-747-9738"
        },
        { "name": "Chinedu Mmeje", "role": "PRINCIPAL_INVESTIGATOR" }
      ],
      "geoPoint": { "lat": 33.35283, "lon": -111.78903 }
    },
    {
      "facility": "Cancer Center at Saint Joseph's",
      "status": "RECRUITING",
      "city": "Phoenix",
      "state": "Arizona",
      "zip": "85004",
      "country": "United States",
      "contacts": [
        {
          "name": "Site Public Contact",
          "role": "CONTACT",
          "phone": "602-406-0777",
          "email": "CancerInstitute@DignityHealth.org"
        },
        { "name": "Shahzad Siddique", "role": "PRINCIPAL_INVESTIGATOR" }
      ],
      "geoPoint": { "lat": 33.44838, "lon": -112.07404 }
    },
    {
      "facility": "Mayo Clinic Hospital in Arizona",
      "status": "SUSPENDED",
      "city": "Phoenix",
      "state": "Arizona",
      "zip": "85054",
      "country": "United States",
      "geoPoint": { "lat": 33.44838, "lon": -112.07404 }
    },
    {
      "facility": "Mayo Clinic in Arizona",
      "status": "SUSPENDED",
      "city": "Scottsdale",
      "state": "Arizona",
      "zip": "85259",
      "country": "United States",
      "geoPoint": { "lat": 33.50921, "lon": -111.89903 }
    },
    {
      "facility": "University of Arizona Cancer Center-Orange Grove Campus",
      "status": "RECRUITING",
      "city": "Tucson",
      "state": "Arizona",
      "zip": "85704",
      "country": "United States",
      "contacts": [
        {
          "name": "Site Public Contact",
          "role": "CONTACT",
          "phone": "520-694-8900"
        },
        { "name": "Juan Chipollini", "role": "PRINCIPAL_INVESTIGATOR" }
      ],
      "geoPoint": { "lat": 32.22174, "lon": -110.92648 }
    },
    {
      "facility": "University of Arizona Cancer Center-North Campus",
      "status": "RECRUITING",
      "city": "Tucson",
      "state": "Arizona",
      "zip": "85719",
      "country": "United States",
      "contacts": [
        {
          "name": "Site Public Contact",
          "role": "CONTACT",
          "email": "UACC-IIT@uacc.arizona.edu"
        },
        { "name": "Juan Chipollini", "role": "PRINCIPAL_INVESTIGATOR" }
      ],
      "geoPoint": { "lat": 32.22174, "lon": -110.92648 }
    },
    {
      "facility": "University of Arkansas for Medical Sciences",
      "status": "RECRUITING",
      "city": "Little Rock",
      "state": "Arkansas",
      "zip": "72205",
      "country": "United States",
      "contacts": [
        {
          "name": "Site Public Contact",
          "role": "CONTACT",
          "phone": "501-686-8274"
        },
        { "name": "Shi-Ming Tu", "role": "PRINCIPAL_INVESTIGATOR" }
      ],
      "geoPoint": { "lat": 34.74648, "lon": -92.28959 }
    },
    {
      "facility": "Kaiser Permanente-Deer Valley Medical Center",
      "status": "RECRUITING",
      "city": "Antioch",
      "state": "California",
      "zip": "94531",
      "country": "United States",
      "contacts": [
        {
          "name": "Site Public Contact",
          "role": "CONTACT",
          "phone": "877-642-4691",
          "email": "Kpoct@kp.org"
        },
        { "name": "Andrea L. Harzstark", "role": "PRINCIPAL_INVESTIGATOR" }
      ],
      "geoPoint": { "lat": 38.00492, "lon": -121.80579 }
    },
    {
      "facility": "Community Cancer Institute",
      "status": "RECRUITING",
      "city": "Clovis",
      "state": "California",
      "zip": "93611",
      "country": "United States",
      "contacts": [
        {
          "name": "Site Public Contact",
          "role": "CONTACT",
          "phone": "559-387-1827"
        },
        { "name": "Uzair B. Chaudhary", "role": "PRINCIPAL_INVESTIGATOR" }
      ],
      "geoPoint": { "lat": 36.82523, "lon": -119.70292 }
    },
    {
      "facility": "University Oncology Associates",
      "status": "SUSPENDED",
      "city": "Clovis",
      "state": "California",
      "zip": "93611",
      "country": "United States",
      "geoPoint": { "lat": 36.82523, "lon": -119.70292 }
    },
    {
      "facility": "City of Hope Comprehensive Cancer Center",
      "status": "RECRUITING",
      "city": "Duarte",
      "state": "California",
      "zip": "91010",
      "country": "United States",
      "contacts": [
        {
          "name": "Site Public Contact",
          "role": "CONTACT",
          "phone": "800-826-4673",
          "email": "becomingapatient@coh.org"
        },
        { "name": "Tanya B. Dorff", "role": "PRINCIPAL_INVESTIGATOR" }
      ],
      "geoPoint": { "lat": 34.13945, "lon": -117.97729 }
    },
    {
      "facility": "Kaiser Permanente Dublin",
      "status": "RECRUITING",
      "city": "Dublin",
      "state": "California",
      "zip": "94568",
      "country": "United States",
      "contacts": [
        {
          "name": "Site Public Contact",
          "role": "CONTACT",
          "phone": "877-642-4691"
        },
        { "name": "Andrea L. Harzstark", "role": "PRINCIPAL_INVESTIGATOR" }
      ],
      "geoPoint": { "lat": 37.70215, "lon": -121.93579 }
    },
    {
      "facility": "Kaiser Permanente-Fremont",
      "status": "RECRUITING",
      "city": "Fremont",
      "state": "California",
      "zip": "94538",
      "country": "United States",
      "contacts": [
        {
          "name": "Site Public Contact",
          "role": "CONTACT",
          "phone": "877-642-4691",
          "email": "Kpoct@kp.org"
        },
        { "name": "Andrea L. Harzstark", "role": "PRINCIPAL_INVESTIGATOR" }
      ],
      "geoPoint": { "lat": 37.54827, "lon": -121.98857 }
    },
    {
      "facility": "Fresno Cancer Center",
      "status": "RECRUITING",
      "city": "Fresno",
      "state": "California",
      "zip": "93720",
      "country": "United States",
      "contacts": [
        {
          "name": "Site Public Contact",
          "role": "CONTACT",
          "phone": "877-642-4691",
          "email": "Kpoct@kp.org"
        },
        { "name": "Andrea L. Harzstark", "role": "PRINCIPAL_INVESTIGATOR" }
      ],
      "geoPoint": { "lat": 36.74773, "lon": -119.77237 }
    },
    {
      "facility": "Kaiser Permanente-Fresno",
      "status": "RECRUITING",
      "city": "Fresno",
      "state": "California",
      "zip": "93720",
      "country": "United States",
      "contacts": [
        {
          "name": "Site Public Contact",
          "role": "CONTACT",
          "phone": "877-642-4691",
          "email": "Kpoct@kp.org"
        },
        { "name": "Andrea L. Harzstark", "role": "PRINCIPAL_INVESTIGATOR" }
      ],
      "geoPoint": { "lat": 36.74773, "lon": -119.77237 }
    },
    {
      "facility": "UC San Diego Moores Cancer Center",
      "status": "RECRUITING",
      "city": "La Jolla",
      "state": "California",
      "zip": "92093",
      "country": "United States",
      "contacts": [
        {
          "name": "Site Public Contact",
          "role": "CONTACT",
          "phone": "858-822-5354",
          "email": "cancercto@ucsd.edu"
        },
        { "name": "Aditya Bagrodia", "role": "PRINCIPAL_INVESTIGATOR" }
      ],
      "geoPoint": { "lat": 32.84727, "lon": -117.2742 }
    },
    {
      "facility": "Tibor Rubin VA Medical Center",
      "status": "RECRUITING",
      "city": "Long Beach",
      "state": "California",
      "zip": "90822",
      "country": "United States",
      "contacts": [
        {
          "name": "Site Public Contact",
          "role": "CONTACT",
          "phone": "562-826-8000"
        },
        { "name": "Greg Gin", "role": "PRINCIPAL_INVESTIGATOR" }
      ],
      "geoPoint": { "lat": 33.76696, "lon": -118.18923 }
    },
    {
      "facility": "Los Angeles County-USC Medical Center",
      "status": "RECRUITING",
      "city": "Los Angeles",
      "state": "California",
      "zip": "90033",
      "country": "United States",
      "contacts": [
        {
          "name": "Site Public Contact",
          "role": "CONTACT",
          "phone": "323-865-0451"
        },
        { "name": "Siamak Daneshmand", "role": "PRINCIPAL_INVESTIGATOR" }
      ],
      "geoPoint": { "lat": 34.05223, "lon": -118.24368 }
    },
    {
      "facility": "USC / Norris Comprehensive Cancer Center",
      "status": "RECRUITING",
      "city": "Los Angeles",
      "state": "California",
      "zip": "90033",
      "country": "United States",
      "contacts": [
        {
          "name": "Site Public Contact",
          "role": "CONTACT",
          "phone": "323-865-0451"
        },
        { "name": "Siamak Daneshmand", "role": "PRINCIPAL_INVESTIGATOR" }
      ],
      "geoPoint": { "lat": 34.05223, "lon": -118.24368 }
    },
    {
      "facility": "Fremont - Rideout Cancer Center",
      "status": "RECRUITING",
      "city": "Marysville",
      "state": "California",
      "zip": "95901",
      "country": "United States",
      "contacts": [
        {
          "name": "Site Public Contact",
          "role": "CONTACT",
          "phone": "530-749-4400"
        },
        { "name": "Richard K. Valicenti", "role": "PRINCIPAL_INVESTIGATOR" }
      ],
      "geoPoint": { "lat": 39.14573, "lon": -121.59135 }
    },
    {
      "facility": "Kaiser Permanente-Modesto",
      "status": "RECRUITING",
      "city": "Modesto",
      "state": "California",
      "zip": "95356",
      "country": "United States",
      "contacts": [
        {
          "name": "Site Public Contact",
          "role": "CONTACT",
          "phone": "877-642-4691",
          "email": "Kpoct@kp.org"
        },
        { "name": "Andrea L. Harzstark", "role": "PRINCIPAL_INVESTIGATOR" }
      ],
      "geoPoint": { "lat": 37.6391, "lon": -120.99688 }
    },
    {
      "facility": "Kaiser Permanente Oakland-Broadway",
      "status": "RECRUITING",
      "city": "Oakland",
      "state": "California",
      "zip": "94611",
      "country": "United States",
      "contacts": [
        {
          "name": "Site Public Contact",
          "role": "CONTACT",
          "phone": "877-642-4691",
          "email": "Kpoct@kp.org"
        },
        { "name": "Andrea L. Harzstark", "role": "PRINCIPAL_INVESTIGATOR" }
      ],
      "geoPoint": { "lat": 37.80437, "lon": -122.2708 }
    },
    {
      "facility": "Kaiser Permanente-Oakland",
      "status": "RECRUITING",
      "city": "Oakland",
      "state": "California",
      "zip": "94611",
      "country": "United States",
      "contacts": [
        {
          "name": "Site Public Contact",
          "role": "CONTACT",
          "phone": "877-642-4691",
          "email": "Kpoct@kp.org"
        },
        { "name": "Andrea L. Harzstark", "role": "PRINCIPAL_INVESTIGATOR" }
      ],
      "geoPoint": { "lat": 37.80437, "lon": -122.2708 }
    },
    {
      "facility": "Desert Regional Medical Center",
      "status": "RECRUITING",
      "city": "Palm Springs",
      "state": "California",
      "zip": "92262",
      "country": "United States",
      "contacts": [
        {
          "name": "Site Public Contact",
          "role": "CONTACT",
          "phone": "760-416-4730"
        },
        { "name": "Amir Lavaf", "role": "PRINCIPAL_INVESTIGATOR" }
      ],
      "geoPoint": { "lat": 33.8303, "lon": -116.54529 }
    },
    {
      "facility": "Stanford Cancer Institute Palo Alto",
      "status": "RECRUITING",
      "city": "Palo Alto",
      "state": "California",
      "zip": "94304",
      "country": "United States",
      "contacts": [
        {
          "name": "Site Public Contact",
          "role": "CONTACT",
          "phone": "650-498-7061",
          "email": "ccto-office@stanford.edu"
        },
        { "name": "Geoffrey A. Sonn", "role": "PRINCIPAL_INVESTIGATOR" }
      ],
      "geoPoint": { "lat": 37.44188, "lon": -122.14302 }
    },
    {
      "facility": "Kaiser Permanente-Rancho Cordova Cancer Center",
      "status": "RECRUITING",
      "city": "Rancho Cordova",
      "state": "California",
      "zip": "95670",
      "country": "United States",
      "contacts": [
        {
          "name": "Site Public Contact",
          "role": "CONTACT",
          "phone": "877-642-4691",
          "email": "Kpoct@kp.org"
        },
        { "name": "Andrea L. Harzstark", "role": "PRINCIPAL_INVESTIGATOR" }
      ],
      "geoPoint": { "lat": 38.58907, "lon": -121.30273 }
    },
    {
      "facility": "Kaiser Permanente-Redwood City",
      "status": "RECRUITING",
      "city": "Redwood City",
      "state": "California",
      "zip": "94063",
      "country": "United States",
      "contacts": [
        {
          "name": "Site Public Contact",
          "role": "CONTACT",
          "phone": "877-642-4691",
          "email": "Kpoct@kp.org"
        },
        { "name": "Andrea L. Harzstark", "role": "PRINCIPAL_INVESTIGATOR" }
      ],
      "geoPoint": { "lat": 37.48522, "lon": -122.23635 }
    },
    {
      "facility": "Kaiser Permanente-Richmond",
      "status": "RECRUITING",
      "city": "Richmond",
      "state": "California",
      "zip": "94801",
      "country": "United States",
      "contacts": [
        {
          "name": "Site Public Contact",
          "role": "CONTACT",
          "phone": "877-642-4691",
          "email": "Kpoct@kp.org"
        },
        { "name": "Andrea L. Harzstark", "role": "PRINCIPAL_INVESTIGATOR" }
      ],
      "geoPoint": { "lat": 37.93576, "lon": -122.34775 }
    },
    {
      "facility": "Rohnert Park Cancer Center",
      "status": "RECRUITING",
      "city": "Rohnert Park",
      "state": "California",
      "zip": "94928",
      "country": "United States",
      "contacts": [
        {
          "name": "Site Public Contact",
          "role": "CONTACT",
          "phone": "877-642-4691",
          "email": "Kpoct@kp.org"
        },
        { "name": "Andrea L. Harzstark", "role": "PRINCIPAL_INVESTIGATOR" }
      ],
      "geoPoint": { "lat": 38.33964, "lon": -122.7011 }
    },
    {
      "facility": "Kaiser Permanente-Roseville",
      "status": "RECRUITING",
      "city": "Roseville",
      "state": "California",
      "zip": "95661",
      "country": "United States",
      "contacts": [
        {
          "name": "Site Public Contact",
          "role": "CONTACT",
          "phone": "877-642-4691",
          "email": "Kpoct@kp.org"
        },
        { "name": "Andrea L. Harzstark", "role": "PRINCIPAL_INVESTIGATOR" }
      ],
      "geoPoint": { "lat": 38.75212, "lon": -121.28801 }
    },
    {
      "facility": "The Permanente Medical Group-Roseville Radiation Oncology",
      "status": "RECRUITING",
      "city": "Roseville",
      "state": "California",
      "zip": "95678",
      "country": "United States",
      "contacts": [
        {
          "name": "Site Public Contact",
          "role": "CONTACT",
          "phone": "877-642-4691",
          "email": "Kpoct@kp.org"
        },
        { "name": "Andrea L. Harzstark", "role": "PRINCIPAL_INVESTIGATOR" }
      ],
      "geoPoint": { "lat": 38.75212, "lon": -121.28801 }
    },
    {
      "facility": "Kaiser Permanente Downtown Commons",
      "status": "RECRUITING",
      "city": "Sacramento",
      "state": "California",
      "zip": "95814",
      "country": "United States",
      "contacts": [
        {
          "name": "Site Public Contact",
          "role": "CONTACT",
          "phone": "877-642-4691",
          "email": "kpoct@kp.org"
        },
        { "name": "Andrea L. Harzstark", "role": "PRINCIPAL_INVESTIGATOR" }
      ],
      "geoPoint": { "lat": 38.58157, "lon": -121.4944 }
    },
    {
      "facility": "Mercy Cancer Center - Sacramento",
      "status": "RECRUITING",
      "city": "Sacramento",
      "state": "California",
      "zip": "95816",
      "country": "United States",
      "contacts": [
        {
          "name": "Site Public Contact",
          "role": "CONTACT",
          "phone": "916-556-3301",
          "email": "OncologyResearch@DignityHealth.org"
        },
        { "name": "Shahzad Siddique", "role": "PRINCIPAL_INVESTIGATOR" }
      ],
      "geoPoint": { "lat": 38.58157, "lon": -121.4944 }
    },
    {
      "facility": "University of California Davis Comprehensive Cancer Center",
      "status": "RECRUITING",
      "city": "Sacramento",
      "state": "California",
      "zip": "95817",
      "country": "United States",
      "contacts": [
        {
          "name": "Site Public Contact",
          "role": "CONTACT",
          "phone": "916-734-3089"
        },
        { "name": "Richard K. Valicenti", "role": "PRINCIPAL_INVESTIGATOR" }
      ],
      "geoPoint": { "lat": 38.58157, "lon": -121.4944 }
    },
    {
      "facility": "Kaiser Permanente-South Sacramento",
      "status": "RECRUITING",
      "city": "Sacramento",
      "state": "California",
      "zip": "95823",
      "country": "United States",
      "contacts": [
        {
          "name": "Site Public Contact",
          "role": "CONTACT",
          "phone": "877-642-4691",
          "email": "Kpoct@kp.org"
        },
        { "name": "Andrea L. Harzstark", "role": "PRINCIPAL_INVESTIGATOR" }
      ],
      "geoPoint": { "lat": 38.58157, "lon": -121.4944 }
    },
    {
      "facility": "South Sacramento Cancer Center",
      "status": "RECRUITING",
      "city": "Sacramento",
      "state": "California",
      "zip": "95823",
      "country": "United States",
      "contacts": [
        {
          "name": "Site Public Contact",
          "role": "CONTACT",
          "phone": "877-642-4691",
          "email": "Kpoct@kp.org"
        },
        { "name": "Andrea L. Harzstark", "role": "PRINCIPAL_INVESTIGATOR" }
      ],
      "geoPoint": { "lat": 38.58157, "lon": -121.4944 }
    },
    {
      "facility": "Kaiser Permanente-San Francisco",
      "status": "RECRUITING",
      "city": "San Francisco",
      "state": "California",
      "zip": "94115",
      "country": "United States",
      "contacts": [
        {
          "name": "Site Public Contact",
          "role": "CONTACT",
          "phone": "877-642-4691",
          "email": "Kpoct@kp.org"
        },
        { "name": "Andrea L. Harzstark", "role": "PRINCIPAL_INVESTIGATOR" }
      ],
      "geoPoint": { "lat": 37.77493, "lon": -122.41942 }
    },
    {
      "facility": "Kaiser Permanente-Santa Teresa-San Jose",
      "status": "RECRUITING",
      "city": "San Jose",
      "state": "California",
      "zip": "95119",
      "country": "United States",
      "contacts": [
        {
          "name": "Site Public Contact",
          "role": "CONTACT",
          "phone": "877-642-4691",
          "email": "Kpoct@kp.org"
        },
        { "name": "Andrea L. Harzstark", "role": "PRINCIPAL_INVESTIGATOR" }
      ],
      "geoPoint": { "lat": 37.33939, "lon": -121.89496 }
    },
    {
      "facility": "Kaiser Permanente San Leandro",
      "status": "RECRUITING",
      "city": "San Leandro",
      "state": "California",
      "zip": "94577",
      "country": "United States",
      "contacts": [
        {
          "name": "Site Public Contact",
          "role": "CONTACT",
          "phone": "877-642-4691",
          "email": "Kpoct@kp.org"
        },
        { "name": "Andrea L. Harzstark", "role": "PRINCIPAL_INVESTIGATOR" }
      ],
      "geoPoint": { "lat": 37.72493, "lon": -122.15608 }
    },
    {
      "facility": "Pacific Central Coast Health Center-San Luis Obispo",
      "status": "RECRUITING",
      "city": "San Luis Obispo",
      "state": "California",
      "zip": "93401",
      "country": "United States",
      "contacts": [
        {
          "name": "Site Public Contact",
          "role": "CONTACT",
          "phone": "805-219-4673",
          "email": "ResearchInstituteInquiries@CommonSpirit.org"
        },
        { "name": "Shahzad Siddique", "role": "PRINCIPAL_INVESTIGATOR" }
      ],
      "geoPoint": { "lat": 35.28275, "lon": -120.65962 }
    },
    {
      "facility": "Kaiser San Rafael-Gallinas",
      "status": "RECRUITING",
      "city": "San Rafael",
      "state": "California",
      "zip": "94903",
      "country": "United States",
      "contacts": [
        {
          "name": "Site Public Contact",
          "role": "CONTACT",
          "phone": "877-642-4691",
          "email": "Kpoct@kp.org"
        },
        { "name": "Andrea L. Harzstark", "role": "PRINCIPAL_INVESTIGATOR" }
      ],
      "geoPoint": { "lat": 37.97353, "lon": -122.53109 }
    },
    {
      "facility": "Kaiser Permanente Medical Center - Santa Clara",
      "status": "RECRUITING",
      "city": "Santa Clara",
      "state": "California",
      "zip": "95051",
      "country": "United States",
      "contacts": [
        {
          "name": "Site Public Contact",
          "role": "CONTACT",
          "phone": "877-642-4691",
          "email": "Kpoct@kp.org"
        },
        { "name": "Andrea L. Harzstark", "role": "PRINCIPAL_INVESTIGATOR" }
      ],
      "geoPoint": { "lat": 37.35411, "lon": -121.95524 }
    },
    {
      "facility": "Kaiser Permanente-Santa Rosa",
      "status": "RECRUITING",
      "city": "Santa Rosa",
      "state": "California",
      "zip": "95403",
      "country": "United States",
      "contacts": [
        {
          "name": "Site Public Contact",
          "role": "CONTACT",
          "phone": "877-642-4691",
          "email": "Kpoct@kp.org"
        },
        { "name": "Andrea L. Harzstark", "role": "PRINCIPAL_INVESTIGATOR" }
      ],
      "geoPoint": { "lat": 38.44047, "lon": -122.71443 }
    },
    {
      "facility": "Kaiser Permanente Cancer Treatment Center",
      "status": "RECRUITING",
      "city": "South San Francisco",
      "state": "California",
      "zip": "94080",
      "country": "United States",
      "contacts": [
        {
          "name": "Site Public Contact",
          "role": "CONTACT",
          "phone": "877-642-4691",
          "email": "Kpoct@kp.org"
        },
        { "name": "Andrea L. Harzstark", "role": "PRINCIPAL_INVESTIGATOR" }
      ],
      "geoPoint": { "lat": 37.65466, "lon": -122.40775 }
    },
    {
      "facility": "Kaiser Permanente-South San Francisco",
      "status": "RECRUITING",
      "city": "South San Francisco",
      "state": "California",
      "zip": "94080",
      "country": "United States",
      "contacts": [
        {
          "name": "Site Public Contact",
          "role": "CONTACT",
          "phone": "877-642-4691",
          "email": "Kpoct@kp.org"
        },
        { "name": "Andrea L. Harzstark", "role": "PRINCIPAL_INVESTIGATOR" }
      ],
      "geoPoint": { "lat": 37.65466, "lon": -122.40775 }
    },
    {
      "facility": "Kaiser Permanente-Stockton",
      "status": "RECRUITING",
      "city": "Stockton",
      "state": "California",
      "zip": "95210",
      "country": "United States",
      "contacts": [
        {
          "name": "Site Public Contact",
          "role": "CONTACT",
          "phone": "877-642-4691",
          "email": "Kpoct@kp.org"
        },
        { "name": "Andrea L. Harzstark", "role": "PRINCIPAL_INVESTIGATOR" }
      ],
      "geoPoint": { "lat": 37.9577, "lon": -121.29078 }
    },
    {
      "facility": "Gene Upshaw Memorial Tahoe Forest Cancer Center",
      "status": "RECRUITING",
      "city": "Truckee",
      "state": "California",
      "zip": "96161",
      "country": "United States",
      "contacts": [
        {
          "name": "Site Public Contact",
          "role": "CONTACT",
          "phone": "530-582-6450"
        },
        { "name": "Richard K. Valicenti", "role": "PRINCIPAL_INVESTIGATOR" }
      ],
      "geoPoint": { "lat": 39.32796, "lon": -120.18325 }
    },
    {
      "facility": "Kaiser Permanente Medical Center-Vacaville",
      "status": "RECRUITING",
      "city": "Vacaville",
      "state": "California",
      "zip": "95688",
      "country": "United States",
      "contacts": [
        {
          "name": "Site Public Contact",
          "role": "CONTACT",
          "phone": "877-642-4691",
          "email": "Kpoct@kp.org"
        },
        { "name": "Andrea L. Harzstark", "role": "PRINCIPAL_INVESTIGATOR" }
      ],
      "geoPoint": { "lat": 38.35658, "lon": -121.98774 }
    },
    {
      "facility": "Kaiser Permanente-Vallejo",
      "status": "RECRUITING",
      "city": "Vallejo",
      "state": "California",
      "zip": "94589",
      "country": "United States",
      "contacts": [
        {
          "name": "Site Public Contact",
          "role": "CONTACT",
          "phone": "877-642-4691",
          "email": "Kpoct@kp.org"
        },
        { "name": "Andrea L. Harzstark", "role": "PRINCIPAL_INVESTIGATOR" }
      ],
      "geoPoint": { "lat": 38.10409, "lon": -122.25664 }
    },
    {
      "facility": "Kaiser Permanente-Walnut Creek",
      "status": "RECRUITING",
      "city": "Walnut Creek",
      "state": "California",
      "zip": "94596",
      "country": "United States",
      "contacts": [
        {
          "name": "Site Public Contact",
          "role": "CONTACT",
          "phone": "877-642-4691",
          "email": "Kpoct@kp.org"
        },
        { "name": "Andrea L. Harzstark", "role": "PRINCIPAL_INVESTIGATOR" }
      ],
      "geoPoint": { "lat": 37.90631, "lon": -122.06496 }
    },
    {
      "facility": "University of Colorado Hospital",
      "status": "RECRUITING",
      "city": "Aurora",
      "state": "Colorado",
      "zip": "80045",
      "country": "United States",
      "contacts": [
        {
          "name": "Site Public Contact",
          "role": "CONTACT",
          "phone": "720-848-0650"
        },
        { "name": "Paul D. Maroni", "role": "PRINCIPAL_INVESTIGATOR" }
      ],
      "geoPoint": { "lat": 39.72943, "lon": -104.83192 }
    },
    {
      "facility": "Rocky Mountain Cancer Centers-Boulder",
      "status": "RECRUITING",
      "city": "Boulder",
      "state": "Colorado",
      "zip": "80304",
      "country": "United States",
      "contacts": [
        {
          "name": "Site Public Contact",
          "role": "CONTACT",
          "phone": "303-777-2663",
          "email": "info@westernstatesncorp.org"
        },
        { "name": "Nicholas DiBella", "role": "PRINCIPAL_INVESTIGATOR" }
      ],
      "geoPoint": { "lat": 40.01499, "lon": -105.27055 }
    },
    {
      "facility": "UCHealth Memorial Hospital Central",
      "status": "RECRUITING",
      "city": "Colorado Springs",
      "state": "Colorado",
      "zip": "80909",
      "country": "United States",
      "contacts": [
        {
          "name": "Site Public Contact",
          "role": "CONTACT",
          "phone": "719-365-2406"
        },
        { "name": "Paul D. Maroni", "role": "PRINCIPAL_INVESTIGATOR" }
      ],
      "geoPoint": { "lat": 38.83388, "lon": -104.82136 }
    },
    {
      "facility": "Memorial Hospital North",
      "status": "RECRUITING",
      "city": "Colorado Springs",
      "state": "Colorado",
      "zip": "80920",
      "country": "United States",
      "contacts": [
        {
          "name": "Site Public Contact",
          "role": "CONTACT",
          "phone": "719-364-6700"
        },
        { "name": "Paul D. Maroni", "role": "PRINCIPAL_INVESTIGATOR" }
      ],
      "geoPoint": { "lat": 38.83388, "lon": -104.82136 }
    },
    {
      "facility": "Porter Adventist Hospital",
      "status": "RECRUITING",
      "city": "Denver",
      "state": "Colorado",
      "zip": "80210",
      "country": "United States",
      "contacts": [
        {
          "name": "Site Public Contact",
          "role": "CONTACT",
          "phone": "719-776-6550",
          "email": "ResearchTracking@Centura.Org"
        },
        { "name": "Shahzad Siddique", "role": "PRINCIPAL_INVESTIGATOR" }
      ],
      "geoPoint": { "lat": 39.73915, "lon": -104.9847 }
    },
    {
      "facility": "Shaw Cancer Center",
      "status": "RECRUITING",
      "city": "Edwards",
      "state": "Colorado",
      "zip": "81632",
      "country": "United States",
      "contacts": [
        {
          "name": "Site Public Contact",
          "role": "CONTACT",
          "phone": "970-569-7429"
        },
        {
          "name": "Patricia H. Hardenbergh",
          "role": "PRINCIPAL_INVESTIGATOR"
        }
      ],
      "geoPoint": { "lat": 39.64499, "lon": -106.5942 }
    },
    {
      "facility": "Poudre Valley Hospital",
      "status": "RECRUITING",
      "city": "Fort Collins",
      "state": "Colorado",
      "zip": "80524",
      "country": "United States",
      "contacts": [
        {
          "name": "Site Public Contact",
          "role": "CONTACT",
          "phone": "970-297-6150"
        },
        { "name": "Paul D. Maroni", "role": "PRINCIPAL_INVESTIGATOR" }
      ],
      "geoPoint": { "lat": 40.58526, "lon": -105.08442 }
    },
    {
      "facility": "North Colorado Medical Center",
      "status": "RECRUITING",
      "city": "Greeley",
      "state": "Colorado",
      "zip": "80631",
      "country": "United States",
      "contacts": [
        {
          "name": "Site Public Contact",
          "role": "CONTACT",
          "phone": "970-810-3046",
          "email": "BMDACCResearchCOMailbox@bannerhealth.com"
        },
        { "name": "Supriya Jain", "role": "PRINCIPAL_INVESTIGATOR" }
      ],
      "geoPoint": { "lat": 40.42331, "lon": -104.70913 }
    },
    {
      "facility": "Littleton Adventist Hospital",
      "status": "RECRUITING",
      "city": "Littleton",
      "state": "Colorado",
      "zip": "80122",
      "country": "United States",
      "contacts": [
        {
          "name": "Site Public Contact",
          "role": "CONTACT",
          "phone": "719-776-6550",
          "email": "ResearchTracking@Centura.Org"
        },
        { "name": "Shahzad Siddique", "role": "PRINCIPAL_INVESTIGATOR" }
      ],
      "geoPoint": { "lat": 39.61332, "lon": -105.01665 }
    },
    {
      "facility": "McKee Medical Center",
      "status": "RECRUITING",
      "city": "Loveland",
      "state": "Colorado",
      "zip": "80539",
      "country": "United States",
      "contacts": [
        {
          "name": "Site Public Contact",
          "role": "CONTACT",
          "phone": "970-810-3046",
          "email": "BMDACCResearchCOMailbox@bannerhealth.com"
        },
        { "name": "Supriya Jain", "role": "PRINCIPAL_INVESTIGATOR" }
      ],
      "geoPoint": { "lat": 40.39776, "lon": -105.07498 }
    },
    {
      "facility": "Parker Adventist Hospital",
      "status": "RECRUITING",
      "city": "Parker",
      "state": "Colorado",
      "zip": "80138",
      "country": "United States",
      "contacts": [
        {
          "name": "Site Public Contact",
          "role": "CONTACT",
          "phone": "719-776-6550",
          "email": "ResearchTracking@Centura.Org"
        },
        { "name": "Shahzad Siddique", "role": "PRINCIPAL_INVESTIGATOR" }
      ],
      "geoPoint": { "lat": 39.5186, "lon": -104.76136 }
    },
    {
      "facility": "Smilow Cancer Hospital Care Center - Guilford",
      "status": "RECRUITING",
      "city": "Guilford",
      "state": "Connecticut",
      "zip": "06437",
      "country": "United States",
      "contacts": [
        {
          "name": "Site Public Contact",
          "role": "CONTACT",
          "phone": "203-785-5702",
          "email": "canceranswers@yale.edu"
        },
        { "name": "Preston C. Sprenkle", "role": "PRINCIPAL_INVESTIGATOR" }
      ],
      "geoPoint": { "lat": 41.28899, "lon": -72.68176 }
    },
    {
      "facility": "Yale University",
      "status": "RECRUITING",
      "city": "New Haven",
      "state": "Connecticut",
      "zip": "06520",
      "country": "United States",
      "contacts": [
        {
          "name": "Site Public Contact",
          "role": "CONTACT",
          "phone": "203-785-5702",
          "email": "canceranswers@yale.edu"
        },
        { "name": "Preston C. Sprenkle", "role": "PRINCIPAL_INVESTIGATOR" }
      ],
      "geoPoint": { "lat": 41.30815, "lon": -72.92816 }
    },
    {
      "facility": "Stamford Hospital/Bennett Cancer Center",
      "status": "RECRUITING",
      "city": "Stamford",
      "state": "Connecticut",
      "zip": "06904",
      "country": "United States",
      "contacts": [
        {
          "name": "Site Public Contact",
          "role": "CONTACT",
          "phone": "203-323-8944"
        },
        { "name": "Anthony P. Gulati", "role": "PRINCIPAL_INVESTIGATOR" }
      ],
      "geoPoint": { "lat": 41.05343, "lon": -73.53873 }
    },
    {
      "facility": "Smilow Cancer Hospital Care Center-Trumbull",
      "status": "RECRUITING",
      "city": "Trumbull",
      "state": "Connecticut",
      "zip": "06611",
      "country": "United States",
      "contacts": [
        {
          "name": "Site Public Contact",
          "role": "CONTACT",
          "phone": "203-785-5702",
          "email": "canceranswers@yale.edu"
        },
        { "name": "Preston C. Sprenkle", "role": "PRINCIPAL_INVESTIGATOR" }
      ],
      "geoPoint": { "lat": 41.24287, "lon": -73.20067 }
    },
    {
      "facility": "Smilow Cancer Hospital Care Center - Waterford",
      "status": "RECRUITING",
      "city": "Waterford",
      "state": "Connecticut",
      "zip": "06385",
      "country": "United States",
      "contacts": [
        {
          "name": "Site Public Contact",
          "role": "CONTACT",
          "phone": "203-785-5702",
          "email": "canceranswers@yale.edu"
        },
        { "name": "Preston C. Sprenkle", "role": "PRINCIPAL_INVESTIGATOR" }
      ],
      "geoPoint": { "lat": 41.3417, "lon": -72.13597 }
    },
    {
      "facility": "Veterans Affairs Connecticut Healthcare System-West Haven Campus",
      "status": "RECRUITING",
      "city": "West Haven",
      "state": "Connecticut",
      "zip": "06516",
      "country": "United States",
      "contacts": [
        {
          "name": "Site Public Contact",
          "role": "CONTACT",
          "phone": "203-937-3421",
          "phoneExt": "2832"
        },
        { "name": "Preston C. Sprenkle", "role": "PRINCIPAL_INVESTIGATOR" }
      ],
      "geoPoint": { "lat": 41.27065, "lon": -72.94705 }
    },
    {
      "facility": "Helen F Graham Cancer Center",
      "status": "RECRUITING",
      "city": "Newark",
      "state": "Delaware",
      "zip": "19713",
      "country": "United States",
      "contacts": [
        {
          "name": "Site Public Contact",
          "role": "CONTACT",
          "phone": "302-623-4450",
          "email": "lbarone@christianacare.org"
        },
        { "name": "Gregory A. Masters", "role": "PRINCIPAL_INVESTIGATOR" }
      ],
      "geoPoint": { "lat": 39.68372, "lon": -75.74966 }
    },
    {
      "facility": "Christiana Care Health System-Christiana Hospital",
      "status": "RECRUITING",
      "city": "Newark",
      "state": "Delaware",
      "zip": "19718",
      "country": "United States",
      "contacts": [
        {
          "name": "Site Public Contact",
          "role": "CONTACT",
          "phone": "302-623-4450",
          "email": "lbarone@christianacare.org"
        },
        { "name": "Gregory A. Masters", "role": "PRINCIPAL_INVESTIGATOR" }
      ],
      "geoPoint": { "lat": 39.68372, "lon": -75.74966 }
    },
    {
      "facility": "MedStar Georgetown University Hospital",
      "status": "ACTIVE_NOT_RECRUITING",
      "city": "Washington D.C.",
      "state": "District of Columbia",
      "zip": "20007",
      "country": "United States",
      "geoPoint": { "lat": 38.89511, "lon": -77.03637 }
    },
    {
      "facility": "MedStar Washington Hospital Center",
      "status": "ACTIVE_NOT_RECRUITING",
      "city": "Washington D.C.",
      "state": "District of Columbia",
      "zip": "20010",
      "country": "United States",
      "geoPoint": { "lat": 38.89511, "lon": -77.03637 }
    },
    {
      "facility": "George Washington University Medical Center",
      "status": "RECRUITING",
      "city": "Washington D.C.",
      "state": "District of Columbia",
      "zip": "20037",
      "country": "United States",
      "contacts": [
        {
          "name": "Site Public Contact",
          "role": "CONTACT",
          "phone": "202-741-2981"
        },
        { "name": "Michael J. Whalen", "role": "PRINCIPAL_INVESTIGATOR" }
      ],
      "geoPoint": { "lat": 38.89511, "lon": -77.03637 }
    },
    {
      "facility": "Mount Sinai Comprehensive Cancer Center at Aventura",
      "status": "RECRUITING",
      "city": "Aventura",
      "state": "Florida",
      "zip": "33180",
      "country": "United States",
      "contacts": [
        {
          "name": "Site Public Contact",
          "role": "CONTACT",
          "phone": "305-674-2625",
          "email": "yenrique@msmc.com"
        },
        { "name": "Michael A. Schwartz", "role": "PRINCIPAL_INVESTIGATOR" }
      ],
      "geoPoint": { "lat": 25.95648, "lon": -80.13921 }
    },
    {
      "facility": "UM Sylvester Comprehensive Cancer Center at Coral Gables",
      "status": "RECRUITING",
      "city": "Coral Gables",
      "state": "Florida",
      "zip": "33146",
      "country": "United States",
      "contacts": [
        {
          "name": "Site Public Contact",
          "role": "CONTACT",
          "phone": "305-243-2647"
        },
        { "name": "Chad R. Ritch", "role": "PRINCIPAL_INVESTIGATOR" }
      ],
      "geoPoint": { "lat": 25.72149, "lon": -80.26838 }
    },
    {
      "facility": "UM Sylvester Comprehensive Cancer Center at Deerfield Beach",
      "status": "RECRUITING",
      "city": "Deerfield Beach",
      "state": "Florida",
      "zip": "33442",
      "country": "United States",
      "contacts": [
        {
          "name": "Site Public Contact",
          "role": "CONTACT",
          "phone": "305-243-2647"
        },
        { "name": "Chad R. Ritch", "role": "PRINCIPAL_INVESTIGATOR" }
      ],
      "geoPoint": { "lat": 26.31841, "lon": -80.09977 }
    },
    {
      "facility": "Baptist MD Anderson Cancer Center",
      "status": "RECRUITING",
      "city": "Jacksonville",
      "state": "Florida",
      "zip": "32207",
      "country": "United States",
      "contacts": [
        {
          "name": "Site Public Contact",
          "role": "CONTACT",
          "phone": "904-202-7468"
        },
        { "name": "Jonathan J. Melquist", "role": "PRINCIPAL_INVESTIGATOR" }
      ],
      "geoPoint": { "lat": 30.33218, "lon": -81.65565 }
    },
    {
      "facility": "University of Miami Miller School of Medicine-Sylvester Cancer Center",
      "status": "RECRUITING",
      "city": "Miami",
      "state": "Florida",
      "zip": "33136",
      "country": "United States",
      "contacts": [
        {
          "name": "Site Public Contact",
          "role": "CONTACT",
          "phone": "305-243-2647"
        },
        { "name": "Chad R. Ritch", "role": "PRINCIPAL_INVESTIGATOR" }
      ],
      "geoPoint": { "lat": 25.77427, "lon": -80.19366 }
    },
    {
      "facility": "UM Sylvester Comprehensive Cancer Center at Kendall",
      "status": "RECRUITING",
      "city": "Miami",
      "state": "Florida",
      "zip": "33176",
      "country": "United States",
      "contacts": [
        {
          "name": "Site Public Contact",
          "role": "CONTACT",
          "phone": "305-243-2647"
        },
        { "name": "Chad R. Ritch", "role": "PRINCIPAL_INVESTIGATOR" }
      ],
      "geoPoint": { "lat": 25.77427, "lon": -80.19366 }
    },
    {
      "facility": "Mount Sinai Medical Center",
      "status": "RECRUITING",
      "city": "Miami Beach",
      "state": "Florida",
      "zip": "33140",
      "country": "United States",
      "contacts": [
        {
          "name": "Site Public Contact",
          "role": "CONTACT",
          "phone": "305-674-2625",
          "email": "yenrique@msmc.com"
        },
        { "name": "Michael A. Schwartz", "role": "PRINCIPAL_INVESTIGATOR" }
      ],
      "geoPoint": { "lat": 25.79065, "lon": -80.13005 }
    },
    {
      "facility": "Orlando Health Cancer Institute",
      "status": "ACTIVE_NOT_RECRUITING",
      "city": "Orlando",
      "state": "Florida",
      "zip": "32806",
      "country": "United States",
      "geoPoint": { "lat": 28.53834, "lon": -81.37924 }
    },
    {
      "facility": "UM Sylvester Comprehensive Cancer Center at Plantation",
      "status": "RECRUITING",
      "city": "Plantation",
      "state": "Florida",
      "zip": "33324",
      "country": "United States",
      "contacts": [
        {
          "name": "Site Public Contact",
          "role": "CONTACT",
          "phone": "305-243-2647"
        },
        { "name": "Chad R. Ritch", "role": "PRINCIPAL_INVESTIGATOR" }
      ],
      "geoPoint": { "lat": 26.13421, "lon": -80.23184 }
    },
    {
      "facility": "Grady Health System",
      "status": "RECRUITING",
      "city": "Atlanta",
      "state": "Georgia",
      "zip": "30303",
      "country": "United States",
      "contacts": [
        {
          "name": "Site Public Contact",
          "role": "CONTACT",
          "phone": "404-489-9164"
        },
        { "name": "Shreyas Joshi", "role": "PRINCIPAL_INVESTIGATOR" }
      ],
      "geoPoint": { "lat": 33.749, "lon": -84.38798 }
    },
    {
      "facility": "Emory University Hospital Midtown",
      "status": "RECRUITING",
      "city": "Atlanta",
      "state": "Georgia",
      "zip": "30308",
      "country": "United States",
      "contacts": [
        {
          "name": "Site Public Contact",
          "role": "CONTACT",
          "phone": "888-946-7447"
        },
        { "name": "Shreyas Joshi", "role": "PRINCIPAL_INVESTIGATOR" }
      ],
      "geoPoint": { "lat": 33.749, "lon": -84.38798 }
    },
    {
      "facility": "Emory University Hospital/Winship Cancer Institute",
      "status": "RECRUITING",
      "city": "Atlanta",
      "state": "Georgia",
      "zip": "30322",
      "country": "United States",
      "contacts": [
        {
          "name": "Site Public Contact",
          "role": "CONTACT",
          "phone": "404-778-1868"
        },
        { "name": "Shreyas Joshi", "role": "PRINCIPAL_INVESTIGATOR" }
      ],
      "geoPoint": { "lat": 33.749, "lon": -84.38798 }
    },
    {
      "facility": "Emory Saint Joseph's Hospital",
      "status": "RECRUITING",
      "city": "Atlanta",
      "state": "Georgia",
      "zip": "30342",
      "country": "United States",
      "contacts": [
        {
          "name": "Site Public Contact",
          "role": "CONTACT",
          "phone": "404-851-7115"
        },
        { "name": "Shreyas Joshi", "role": "PRINCIPAL_INVESTIGATOR" }
      ],
      "geoPoint": { "lat": 33.749, "lon": -84.38798 }
    },
    {
      "facility": "Augusta University Medical Center",
      "status": "RECRUITING",
      "city": "Augusta",
      "state": "Georgia",
      "zip": "30912",
      "country": "United States",
      "contacts": [
        {
          "name": "Site Public Contact",
          "role": "CONTACT",
          "phone": "706-721-2388",
          "email": "ga_cares@augusta.edu"
        },
        { "name": "Sharad A. Ghamande", "role": "PRINCIPAL_INVESTIGATOR" }
      ],
      "geoPoint": { "lat": 33.47097, "lon": -81.97484 }
    },
    {
      "facility": "Atlanta VA Medical Center",
      "status": "RECRUITING",
      "city": "Decatur",
      "state": "Georgia",
      "zip": "30033",
      "country": "United States",
      "contacts": [
        {
          "name": "Site Public Contact",
          "role": "CONTACT",
          "phone": "404-321-6111",
          "phoneExt": "7632"
        },
        { "name": "Wayne B. Harris", "role": "PRINCIPAL_INVESTIGATOR" }
      ],
      "geoPoint": { "lat": 33.77483, "lon": -84.29631 }
    },
    {
      "facility": "Saint Alphonsus Cancer Care Center-Caldwell",
      "status": "RECRUITING",
      "city": "Caldwell",
      "state": "Idaho",
      "zip": "83605",
      "country": "United States",
      "contacts": [
        {
          "name": "Site Public Contact",
          "role": "CONTACT",
          "phone": "734-712-3671",
          "email": "stephanie.couch@stjoeshealth.org"
        },
        { "name": "John M. Schallenkamp", "role": "PRINCIPAL_INVESTIGATOR" }
      ],
      "geoPoint": { "lat": 43.66294, "lon": -116.68736 }
    },
    {
      "facility": "Saint Alphonsus Cancer Care Center-Nampa",
      "status": "RECRUITING",
      "city": "Nampa",
      "state": "Idaho",
      "zip": "83687",
      "country": "United States",
      "contacts": [
        {
          "name": "Site Public Contact",
          "role": "CONTACT",
          "phone": "406-969-6060",
          "email": "mccinfo@mtcancer.org"
        },
        { "name": "John M. Schallenkamp", "role": "PRINCIPAL_INVESTIGATOR" }
      ],
      "geoPoint": { "lat": 43.54072, "lon": -116.56346 }
    },
    {
      "facility": "Kootenai Clinic Cancer Services - Post Falls",
      "status": "RECRUITING",
      "city": "Post Falls",
      "state": "Idaho",
      "zip": "83854",
      "country": "United States",
      "contacts": [
        {
          "name": "Site Public Contact",
          "role": "CONTACT",
          "phone": "406-969-6060",
          "email": "mccinfo@mtcancer.org"
        },
        { "name": "John M. Schallenkamp", "role": "PRINCIPAL_INVESTIGATOR" }
      ],
      "geoPoint": { "lat": 47.71796, "lon": -116.95159 }
    },
    {
      "facility": "Rush - Copley Medical Center",
      "status": "RECRUITING",
      "city": "Aurora",
      "state": "Illinois",
      "zip": "60504",
      "country": "United States",
      "contacts": [
        {
          "name": "Site Public Contact",
          "role": "CONTACT",
          "phone": "630-978-6212",
          "email": "Cancer.Research@rushcopley.com"
        },
        { "name": "Sinisa Stanic", "role": "PRINCIPAL_INVESTIGATOR" }
      ],
      "geoPoint": { "lat": 41.76058, "lon": -88.32007 }
    },
    {
      "facility": "Illinois CancerCare-Bloomington",
      "status": "RECRUITING",
      "city": "Bloomington",
      "state": "Illinois",
      "zip": "61704",
      "country": "United States",
      "contacts": [
        {
          "name": "Site Public Contact",
          "role": "CONTACT",
          "phone": "309-243-3605",
          "email": "andersonj@illinoiscancercare.com"
        },
        { "name": "Bryan A. Faller", "role": "PRINCIPAL_INVESTIGATOR" }
      ],
      "geoPoint": { "lat": 40.4842, "lon": -88.99369 }
    },
    {
      "facility": "Illinois CancerCare-Canton",
      "status": "RECRUITING",
      "city": "Canton",
      "state": "Illinois",
      "zip": "61520",
      "country": "United States",
      "contacts": [
        {
          "name": "Site Public Contact",
          "role": "CONTACT",
          "phone": "309-243-3605",
          "email": "andersonj@illinoiscancercare.com"
        },
        { "name": "Bryan A. Faller", "role": "PRINCIPAL_INVESTIGATOR" }
      ],
      "geoPoint": { "lat": 40.55809, "lon": -90.03512 }
    },
    {
      "facility": "Illinois CancerCare-Carthage",
      "status": "RECRUITING",
      "city": "Carthage",
      "state": "Illinois",
      "zip": "62321",
      "country": "United States",
      "contacts": [
        {
          "name": "Site Public Contact",
          "role": "CONTACT",
          "phone": "309-243-3605",
          "email": "andersonj@illinoiscancercare.com"
        },
        { "name": "Bryan A. Faller", "role": "PRINCIPAL_INVESTIGATOR" }
      ],
      "geoPoint": { "lat": 40.41643, "lon": -91.13625 }
    },
    {
      "facility": "Northwestern University",
      "status": "ACTIVE_NOT_RECRUITING",
      "city": "Chicago",
      "state": "Illinois",
      "zip": "60611",
      "country": "United States",
      "geoPoint": { "lat": 41.85003, "lon": -87.65005 }
    },
    {
      "facility": "Rush University Medical Center",
      "status": "RECRUITING",
      "city": "Chicago",
      "state": "Illinois",
      "zip": "60612",
      "country": "United States",
      "contacts": [
        {
          "name": "Site Public Contact",
          "role": "CONTACT",
          "phone": "312-942-5498",
          "email": "clinical_trials@rush.edu"
        },
        { "name": "Srinivas Vourganti", "role": "PRINCIPAL_INVESTIGATOR" }
      ],
      "geoPoint": { "lat": 41.85003, "lon": -87.65005 }
    },
    {
      "facility": "University of Illinois",
      "status": "RECRUITING",
      "city": "Chicago",
      "state": "Illinois",
      "zip": "60612",
      "country": "United States",
      "contacts": [
        {
          "name": "Site Public Contact",
          "role": "CONTACT",
          "phone": "312-355-3046"
        },
        { "name": "Daniel Moreira", "role": "PRINCIPAL_INVESTIGATOR" }
      ],
      "geoPoint": { "lat": 41.85003, "lon": -87.65005 }
    },
    {
      "facility": "University of Chicago Comprehensive Cancer Center",
      "status": "ACTIVE_NOT_RECRUITING",
      "city": "Chicago",
      "state": "Illinois",
      "zip": "60637",
      "country": "United States",
      "geoPoint": { "lat": 41.85003, "lon": -87.65005 }
    },
    {
      "facility": "Decatur Memorial Hospital",
      "status": "RECRUITING",
      "city": "Decatur",
      "state": "Illinois",
      "zip": "62526",
      "country": "United States",
      "contacts": [
        {
          "name": "Site Public Contact",
          "role": "CONTACT",
          "phone": "217-876-4762",
          "email": "morganthaler.jodi@mhsil.com"
        },
        { "name": "Bryan A. Faller", "role": "PRINCIPAL_INVESTIGATOR" }
      ],
      "geoPoint": { "lat": 39.84031, "lon": -88.9548 }
    },
    {
      "facility": "Crossroads Cancer Center",
      "status": "RECRUITING",
      "city": "Effingham",
      "state": "Illinois",
      "zip": "62401",
      "country": "United States",
      "contacts": [
        {
          "name": "Site Public Contact",
          "role": "CONTACT",
          "phone": "217-876-4762",
          "email": "morganthaler.jodi@mhsil.com"
        },
        { "name": "Bryan A. Faller", "role": "PRINCIPAL_INVESTIGATOR" }
      ],
      "geoPoint": { "lat": 39.12004, "lon": -88.54338 }
    },
    {
      "facility": "Illinois CancerCare-Eureka",
      "status": "RECRUITING",
      "city": "Eureka",
      "state": "Illinois",
      "zip": "61530",
      "country": "United States",
      "contacts": [
        {
          "name": "Site Public Contact",
          "role": "CONTACT",
          "phone": "309-243-3605",
          "email": "andersonj@illinoiscancercare.com"
        },
        { "name": "Bryan A. Faller", "role": "PRINCIPAL_INVESTIGATOR" }
      ],
      "geoPoint": { "lat": 40.72143, "lon": -89.27286 }
    },
    {
      "facility": "Illinois CancerCare-Galesburg",
      "status": "RECRUITING",
      "city": "Galesburg",
      "state": "Illinois",
      "zip": "61401",
      "country": "United States",
      "contacts": [
        {
          "name": "Site Public Contact",
          "role": "CONTACT",
          "phone": "309-243-3605",
          "email": "andersonj@illinoiscancercare.com"
        },
        { "name": "Bryan A. Faller", "role": "PRINCIPAL_INVESTIGATOR" }
      ],
      "geoPoint": { "lat": 40.94782, "lon": -90.37124 }
    },
    {
      "facility": "Illinois CancerCare-Kewanee Clinic",
      "status": "RECRUITING",
      "city": "Kewanee",
      "state": "Illinois",
      "zip": "61443",
      "country": "United States",
      "contacts": [
        {
          "name": "Site Public Contact",
          "role": "CONTACT",
          "phone": "309-243-3605",
          "email": "andersonj@illinoiscancercare.com"
        },
        { "name": "Bryan A. Faller", "role": "PRINCIPAL_INVESTIGATOR" }
      ],
      "geoPoint": { "lat": 41.24559, "lon": -89.92483 }
    },
    {
      "facility": "Illinois CancerCare-Macomb",
      "status": "RECRUITING",
      "city": "Macomb",
      "state": "Illinois",
      "zip": "61455",
      "country": "United States",
      "contacts": [
        {
          "name": "Site Public Contact",
          "role": "CONTACT",
          "phone": "309-243-3605",
          "email": "andersonj@illinoiscancercare.com"
        },
        { "name": "Bryan A. Faller", "role": "PRINCIPAL_INVESTIGATOR" }
      ],
      "geoPoint": { "lat": 40.45921, "lon": -90.6718 }
    },
    {
      "facility": "Loyola University Medical Center",
      "status": "RECRUITING",
      "city": "Maywood",
      "state": "Illinois",
      "zip": "60153",
      "country": "United States",
      "contacts": [
        {
          "name": "Site Public Contact",
          "role": "CONTACT",
          "phone": "708-226-4357"
        },
        { "name": "Ami Badami", "role": "PRINCIPAL_INVESTIGATOR" }
      ],
      "geoPoint": { "lat": 41.8792, "lon": -87.84312 }
    },
    {
      "facility": "Illinois CancerCare-Ottawa Clinic",
      "status": "RECRUITING",
      "city": "Ottawa",
      "state": "Illinois",
      "zip": "61350",
      "country": "United States",
      "contacts": [
        {
          "name": "Site Public Contact",
          "role": "CONTACT",
          "phone": "309-243-3605",
          "email": "andersonj@illinoiscancercare.com"
        },
        { "name": "Bryan A. Faller", "role": "PRINCIPAL_INVESTIGATOR" }
      ],
      "geoPoint": { "lat": 41.34559, "lon": -88.84258 }
    },
    {
      "facility": "Illinois CancerCare-Pekin",
      "status": "RECRUITING",
      "city": "Pekin",
      "state": "Illinois",
      "zip": "61554",
      "country": "United States",
      "contacts": [
        {
          "name": "Site Public Contact",
          "role": "CONTACT",
          "phone": "309-243-3605",
          "email": "andersonj@illinoiscancercare.com"
        },
        { "name": "Bryan A. Faller", "role": "PRINCIPAL_INVESTIGATOR" }
      ],
      "geoPoint": { "lat": 40.56754, "lon": -89.64066 }
    },
    {
      "facility": "Illinois CancerCare-Peoria",
      "status": "RECRUITING",
      "city": "Peoria",
      "state": "Illinois",
      "zip": "61615",
      "country": "United States",
      "contacts": [
        {
          "name": "Site Public Contact",
          "role": "CONTACT",
          "phone": "309-243-3605",
          "email": "andersonj@illinoiscancercare.com"
        },
        { "name": "Bryan A. Faller", "role": "PRINCIPAL_INVESTIGATOR" }
      ],
      "geoPoint": { "lat": 40.69365, "lon": -89.58899 }
    },
    {
      "facility": "Methodist Medical Center of Illinois",
      "status": "RECRUITING",
      "city": "Peoria",
      "state": "Illinois",
      "zip": "61636",
      "country": "United States",
      "contacts": [
        {
          "name": "Site Public Contact",
          "role": "CONTACT",
          "phone": "309-243-3605",
          "email": "andersonj@illinoiscancercare.com"
        },
        { "name": "Bryan A. Faller", "role": "PRINCIPAL_INVESTIGATOR" }
      ],
      "geoPoint": { "lat": 40.69365, "lon": -89.58899 }
    },
    {
      "facility": "OSF Saint Francis Medical Center",
      "status": "RECRUITING",
      "city": "Peoria",
      "state": "Illinois",
      "zip": "61637",
      "country": "United States",
      "contacts": [
        {
          "name": "Site Public Contact",
          "role": "CONTACT",
          "phone": "309-243-3605",
          "email": "andersonj@illinoiscancercare.com"
        },
        { "name": "Bryan A. Faller", "role": "PRINCIPAL_INVESTIGATOR" }
      ],
      "geoPoint": { "lat": 40.69365, "lon": -89.58899 }
    },
    {
      "facility": "Illinois CancerCare-Peru",
      "status": "RECRUITING",
      "city": "Peru",
      "state": "Illinois",
      "zip": "61354",
      "country": "United States",
      "contacts": [
        {
          "name": "Site Public Contact",
          "role": "CONTACT",
          "phone": "309-243-3605",
          "email": "andersonj@illinoiscancercare.com"
        },
        { "name": "Bryan A. Faller", "role": "PRINCIPAL_INVESTIGATOR" }
      ],
      "geoPoint": { "lat": 41.32753, "lon": -89.12897 }
    },
    {
      "facility": "Illinois CancerCare-Princeton",
      "status": "RECRUITING",
      "city": "Princeton",
      "state": "Illinois",
      "zip": "61356",
      "country": "United States",
      "contacts": [
        {
          "name": "Site Public Contact",
          "role": "CONTACT",
          "phone": "309-243-3605",
          "email": "andersonj@illinoiscancercare.com"
        },
        { "name": "Bryan A. Faller", "role": "PRINCIPAL_INVESTIGATOR" }
      ],
      "geoPoint": { "lat": 41.36809, "lon": -89.46481 }
    },
    {
      "facility": "Southwest Illinois Health Services LLP",
      "status": "SUSPENDED",
      "city": "Swansea",
      "state": "Illinois",
      "zip": "62226",
      "country": "United States",
      "geoPoint": { "lat": 38.53394, "lon": -89.98899 }
    },
    {
      "facility": "Carle Cancer Center",
      "status": "RECRUITING",
      "city": "Urbana",
      "state": "Illinois",
      "zip": "61801",
      "country": "United States",
      "contacts": [
        {
          "name": "Site Public Contact",
          "role": "CONTACT",
          "phone": "800-446-5532",
          "email": "Research@carle.com"
        },
        { "name": "Sinisa Stanic", "role": "PRINCIPAL_INVESTIGATOR" }
      ],
      "geoPoint": { "lat": 40.11059, "lon": -88.20727 }
    },
    {
      "facility": "Indiana University/Melvin and Bren Simon Cancer Center",
      "status": "ACTIVE_NOT_RECRUITING",
      "city": "Indianapolis",
      "state": "Indiana",
      "zip": "46202",
      "country": "United States",
      "geoPoint": { "lat": 39.76838, "lon": -86.15804 }
    },
    {
      "facility": "Reid Health",
      "status": "RECRUITING",
      "city": "Richmond",
      "state": "Indiana",
      "zip": "47374",
      "country": "United States",
      "contacts": [
        {
          "name": "Site Public Contact",
          "role": "CONTACT",
          "phone": "937-528-2900",
          "email": "clinical.trials@daytonncorp.org"
        },
        { "name": "Howard M. Gross", "role": "PRINCIPAL_INVESTIGATOR" }
      ],
      "geoPoint": { "lat": 39.82894, "lon": -84.89024 }
    },
    {
      "facility": "McFarland Clinic - Ames",
      "status": "RECRUITING",
      "city": "Ames",
      "state": "Iowa",
      "zip": "50010",
      "country": "United States",
      "contacts": [
        {
          "name": "Site Public Contact",
          "role": "CONTACT",
          "phone": "515-239-4734",
          "email": "ksoder@mcfarlandclinic.com"
        },
        { "name": "Joseph J. Merchant", "role": "PRINCIPAL_INVESTIGATOR" }
      ],
      "geoPoint": { "lat": 42.03471, "lon": -93.61994 }
    },
    {
      "facility": "Iowa Methodist Medical Center",
      "status": "RECRUITING",
      "city": "Des Moines",
      "state": "Iowa",
      "zip": "50309",
      "country": "United States",
      "contacts": [
        {
          "name": "Site Public Contact",
          "role": "CONTACT",
          "phone": "515-241-6727"
        },
        { "name": "Joshua Lukenbill", "role": "PRINCIPAL_INVESTIGATOR" }
      ],
      "geoPoint": { "lat": 41.60054, "lon": -93.60911 }
    },
    {
      "facility": "University of Iowa/Holden Comprehensive Cancer Center",
      "status": "RECRUITING",
      "city": "Iowa City",
      "state": "Iowa",
      "zip": "52242",
      "country": "United States",
      "contacts": [
        {
          "name": "Site Public Contact",
          "role": "CONTACT",
          "phone": "800-237-1225"
        },
        { "name": "Yousef Zakharia", "role": "PRINCIPAL_INVESTIGATOR" }
      ],
      "geoPoint": { "lat": 41.66113, "lon": -91.53017 }
    },
    {
      "facility": "University of Kansas Cancer Center",
      "status": "RECRUITING",
      "city": "Kansas City",
      "state": "Kansas",
      "zip": "66160",
      "country": "United States",
      "contacts": [
        {
          "name": "Site Public Contact",
          "role": "CONTACT",
          "phone": "913-588-3671",
          "email": "KUCC_Navigation@kumc.edu"
        },
        { "name": "William Parker", "role": "PRINCIPAL_INVESTIGATOR" }
      ],
      "geoPoint": { "lat": 39.11417, "lon": -94.62746 }
    },
    {
      "facility": "Olathe Health Cancer Center",
      "status": "RECRUITING",
      "city": "Olathe",
      "state": "Kansas",
      "zip": "66061",
      "country": "United States",
      "contacts": [
        {
          "name": "Site Public Contact",
          "role": "CONTACT",
          "phone": "913-355-8000",
          "email": "Jeni.wakefield@olathehealth.org"
        },
        { "name": "William Parker", "role": "PRINCIPAL_INVESTIGATOR" }
      ],
      "geoPoint": { "lat": 38.8814, "lon": -94.81913 }
    },
    {
      "facility": "University of Kansas Cancer Center-Overland Park",
      "status": "RECRUITING",
      "city": "Overland Park",
      "state": "Kansas",
      "zip": "66210",
      "country": "United States",
      "contacts": [
        {
          "name": "Site Public Contact",
          "role": "CONTACT",
          "phone": "913-588-3671",
          "email": "KUCC_Navigation@kumc.edu"
        },
        { "name": "William Parker", "role": "PRINCIPAL_INVESTIGATOR" }
      ],
      "geoPoint": { "lat": 38.98223, "lon": -94.67079 }
    },
    {
      "facility": "University of Kansas Hospital-Westwood Cancer Center",
      "status": "RECRUITING",
      "city": "Westwood",
      "state": "Kansas",
      "zip": "66205",
      "country": "United States",
      "contacts": [
        {
          "name": "Site Public Contact",
          "role": "CONTACT",
          "phone": "913-588-3671",
          "email": "KUCC_Navigation@kumc.edu"
        },
        { "name": "William Parker", "role": "PRINCIPAL_INVESTIGATOR" }
      ],
      "geoPoint": { "lat": 39.04056, "lon": -94.6169 }
    },
    {
      "facility": "Saint Joseph Radiation Oncology Resource Center",
      "status": "RECRUITING",
      "city": "Lexington",
      "state": "Kentucky",
      "zip": "40504",
      "country": "United States",
      "contacts": [
        {
          "name": "Site Public Contact",
          "role": "CONTACT",
          "phone": "859-629-7169",
          "email": "ResearchInstituteInquiries@CommonSpirit.org"
        },
        { "name": "Shahzad Siddique", "role": "PRINCIPAL_INVESTIGATOR" }
      ],
      "geoPoint": { "lat": 37.98869, "lon": -84.47772 }
    },
    {
      "facility": "Saint Joseph Hospital East",
      "status": "RECRUITING",
      "city": "Lexington",
      "state": "Kentucky",
      "zip": "40509",
      "country": "United States",
      "contacts": [
        {
          "name": "Site Public Contact",
          "role": "CONTACT",
          "phone": "859-629-7169",
          "email": "ResearchInstituteInquiries@CommonSpirit.org"
        },
        { "name": "Shahzad Siddique", "role": "PRINCIPAL_INVESTIGATOR" }
      ],
      "geoPoint": { "lat": 37.98869, "lon": -84.47772 }
    },
    {
      "facility": "University of Kentucky/Markey Cancer Center",
      "status": "NOT_YET_RECRUITING",
      "city": "Lexington",
      "state": "Kentucky",
      "zip": "40536",
      "country": "United States",
      "contacts": [
        {
          "name": "Site Public Contact",
          "role": "CONTACT",
          "phone": "859-257-3379"
        },
        { "name": "Patrick J. Hensley", "role": "PRINCIPAL_INVESTIGATOR" }
      ],
      "geoPoint": { "lat": 37.98869, "lon": -84.47772 }
    },
    {
      "facility": "The James Graham Brown Cancer Center at University of Louisville",
      "status": "RECRUITING",
      "city": "Louisville",
      "state": "Kentucky",
      "zip": "40202",
      "country": "United States",
      "contacts": [
        {
          "name": "Site Public Contact",
          "role": "CONTACT",
          "phone": "502-562-3429"
        },
        { "name": "Scott R. Silva", "role": "PRINCIPAL_INVESTIGATOR" }
      ],
      "geoPoint": { "lat": 38.25424, "lon": -85.75941 }
    },
    {
      "facility": "East Jefferson General Hospital",
      "status": "RECRUITING",
      "city": "Metairie",
      "state": "Louisiana",
      "zip": "70006",
      "country": "United States",
      "contacts": [
        {
          "name": "Site Public Contact",
          "role": "CONTACT",
          "phone": "504-210-3539",
          "email": "emede1@lsuhsc.edu"
        },
        { "name": "Scott E. Delacroix", "role": "PRINCIPAL_INVESTIGATOR" }
      ],
      "geoPoint": { "lat": 29.98409, "lon": -90.15285 }
    },
    {
      "facility": "LSU Healthcare Network / Metairie Multi-Specialty Clinic",
      "status": "RECRUITING",
      "city": "Metairie",
      "state": "Louisiana",
      "zip": "70006",
      "country": "United States",
      "contacts": [
        {
          "name": "Site Public Contact",
          "role": "CONTACT",
          "phone": "504-210-3539",
          "email": "emede1@lsuhsc.edu"
        },
        { "name": "Scott E. Delacroix", "role": "PRINCIPAL_INVESTIGATOR" }
      ],
      "geoPoint": { "lat": 29.98409, "lon": -90.15285 }
    },
    {
      "facility": "MaineHealth Coastal Cancer Treatment Center",
      "status": "RECRUITING",
      "city": "Bath",
      "state": "Maine",
      "zip": "04530",
      "country": "United States",
      "contacts": [
        {
          "name": "Site Public Contact",
          "role": "CONTACT",
          "phone": "888-823-5923",
          "email": "ctsucontact@westat.com"
        },
        { "name": "Matthew H. Hayn", "role": "PRINCIPAL_INVESTIGATOR" }
      ],
      "geoPoint": { "lat": 43.91064, "lon": -69.8206 }
    },
    {
      "facility": "Lafayette Family Cancer Center-EMMC",
      "status": "RECRUITING",
      "city": "Brewer",
      "state": "Maine",
      "zip": "04412",
      "country": "United States",
      "contacts": [
        {
          "name": "Site Public Contact",
          "role": "CONTACT",
          "phone": "800-987-3005"
        },
        { "name": "Sarah J. Sinclair", "role": "PRINCIPAL_INVESTIGATOR" }
      ],
      "geoPoint": { "lat": 44.79674, "lon": -68.76142 }
    },
    {
      "facility": "Maine Medical Center-Bramhall Campus",
      "status": "RECRUITING",
      "city": "Portland",
      "state": "Maine",
      "zip": "04102",
      "country": "United States",
      "contacts": [
        {
          "name": "Site Public Contact",
          "role": "CONTACT",
          "phone": "207-885-7565"
        },
        { "name": "Matthew H. Hayn", "role": "PRINCIPAL_INVESTIGATOR" }
      ],
      "geoPoint": { "lat": 43.65737, "lon": -70.2589 }
    },
    {
      "facility": "MaineHealth Cancer Care Center of York County",
      "status": "RECRUITING",
      "city": "Sanford",
      "state": "Maine",
      "zip": "04073",
      "country": "United States",
      "contacts": [
        {
          "name": "Site Public Contact",
          "role": "CONTACT",
          "phone": "207-459-1600"
        },
        { "name": "Matthew H. Hayn", "role": "PRINCIPAL_INVESTIGATOR" }
      ],
      "geoPoint": { "lat": 43.43925, "lon": -70.77422 }
    },
    {
      "facility": "MaineHealth/SMHC Cancer Care and Blood Disorders-Sanford",
      "status": "RECRUITING",
      "city": "Sanford",
      "state": "Maine",
      "zip": "04073",
      "country": "United States",
      "contacts": [
        {
          "name": "Site Public Contact",
          "role": "CONTACT",
          "email": "LLemire@mmc.org"
        },
        { "name": "Matthew H. Hayn", "role": "PRINCIPAL_INVESTIGATOR" }
      ],
      "geoPoint": { "lat": 43.43925, "lon": -70.77422 }
    },
    {
      "facility": "Maine Medical Center- Scarborough Campus",
      "status": "RECRUITING",
      "city": "Scarborough",
      "state": "Maine",
      "zip": "04074",
      "country": "United States",
      "contacts": [
        {
          "name": "Site Public Contact",
          "role": "CONTACT",
          "phone": "207-396-8090",
          "email": "wrighd@mmc.org"
        },
        { "name": "Matthew H. Hayn", "role": "PRINCIPAL_INVESTIGATOR" }
      ],
      "geoPoint": { "lat": 43.57814, "lon": -70.32172 }
    },
    {
      "facility": "Johns Hopkins University/Sidney Kimmel Cancer Center",
      "status": "ACTIVE_NOT_RECRUITING",
      "city": "Baltimore",
      "state": "Maryland",
      "zip": "21287",
      "country": "United States",
      "geoPoint": { "lat": 39.29038, "lon": -76.61219 }
    },
    {
      "facility": "Lahey Hospital and Medical Center",
      "status": "ACTIVE_NOT_RECRUITING",
      "city": "Burlington",
      "state": "Massachusetts",
      "zip": "01805",
      "country": "United States",
      "geoPoint": { "lat": 42.50482, "lon": -71.19561 }
    },
    {
      "facility": "Saint Joseph Mercy Hospital",
      "status": "RECRUITING",
      "city": "Ann Arbor",
      "state": "Michigan",
      "zip": "48106",
      "country": "United States",
      "contacts": [
        {
          "name": "Site Public Contact",
          "role": "CONTACT",
          "phone": "734-712-7251",
          "email": "MCRCwebsitecontactform@stjoeshealth.org"
        },
        {
          "name": "Christopher M. Reynolds",
          "role": "PRINCIPAL_INVESTIGATOR"
        }
      ],
      "geoPoint": { "lat": 42.27756, "lon": -83.74088 }
    },
    {
      "facility": "University of Michigan Comprehensive Cancer Center",
      "status": "RECRUITING",
      "city": "Ann Arbor",
      "state": "Michigan",
      "zip": "48109",
      "country": "United States",
      "contacts": [
        {
          "name": "Site Public Contact",
          "role": "CONTACT",
          "phone": "800-865-1125"
        },
        {
          "name": "Samuel D. Kaffenberger",
          "role": "PRINCIPAL_INVESTIGATOR"
        }
      ],
      "geoPoint": { "lat": 42.27756, "lon": -83.74088 }
    },
    {
      "facility": "Saint Joseph Mercy Brighton",
      "status": "RECRUITING",
      "city": "Brighton",
      "state": "Michigan",
      "zip": "48114",
      "country": "United States",
      "contacts": [
        {
          "name": "Site Public Contact",
          "role": "CONTACT",
          "phone": "734-712-7251",
          "email": "MCRCwebsitecontactform@stjoeshealth.org"
        },
        {
          "name": "Christopher M. Reynolds",
          "role": "PRINCIPAL_INVESTIGATOR"
        }
      ],
      "geoPoint": { "lat": 42.52948, "lon": -83.78022 }
    },
    {
      "facility": "Henry Ford Cancer Institute-Downriver",
      "status": "RECRUITING",
      "city": "Brownstown",
      "state": "Michigan",
      "zip": "48183",
      "country": "United States",
      "contacts": [
        {
          "name": "Site Public Contact",
          "role": "CONTACT",
          "phone": "313-916-3721",
          "email": "CTOResearch@hfhs.org"
        },
        { "name": "Haythem Y. Ali", "role": "PRINCIPAL_INVESTIGATOR" }
      ]
    },
    {
      "facility": "Saint Joseph Mercy Canton",
      "status": "RECRUITING",
      "city": "Canton",
      "state": "Michigan",
      "zip": "48188",
      "country": "United States",
      "contacts": [
        {
          "name": "Site Public Contact",
          "role": "CONTACT",
          "phone": "734-712-7251",
          "email": "MCRCwebsitecontactform@stjoeshealth.org"
        },
        {
          "name": "Christopher M. Reynolds",
          "role": "PRINCIPAL_INVESTIGATOR"
        }
      ],
      "geoPoint": { "lat": 42.30865, "lon": -83.48216 }
    },
    {
      "facility": "Saint Joseph Mercy Chelsea",
      "status": "RECRUITING",
      "city": "Chelsea",
      "state": "Michigan",
      "zip": "48118",
      "country": "United States",
      "contacts": [
        {
          "name": "Site Public Contact",
          "role": "CONTACT",
          "phone": "734-712-7251",
          "email": "MCRCwebsitecontactform@stjoeshealth.org"
        },
        {
          "name": "Christopher M. Reynolds",
          "role": "PRINCIPAL_INVESTIGATOR"
        }
      ],
      "geoPoint": { "lat": 42.31807, "lon": -84.02181 }
    },
    {
      "facility": "GenesisCare USA - Clarkston",
      "status": "RECRUITING",
      "city": "Clarkston",
      "state": "Michigan",
      "zip": "48346",
      "country": "United States",
      "contacts": [
        {
          "name": "Site Public Contact",
          "role": "CONTACT",
          "phone": "941-833-5700",
          "email": "Rudi.Ross@usa.genesiscare.com"
        },
        { "name": "Frank A. Vicini", "role": "PRINCIPAL_INVESTIGATOR" }
      ],
      "geoPoint": { "lat": 42.73586, "lon": -83.41883 }
    },
    {
      "facility": "Henry Ford Macomb Hospital-Clinton Township",
      "status": "RECRUITING",
      "city": "Clinton Township",
      "state": "Michigan",
      "zip": "48038",
      "country": "United States",
      "contacts": [
        {
          "name": "Site Public Contact",
          "role": "CONTACT",
          "phone": "313-916-3721",
          "email": "CTOResearch@hfhs.org"
        },
        { "name": "Haythem Y. Ali", "role": "PRINCIPAL_INVESTIGATOR" }
      ],
      "geoPoint": { "lat": 42.58698, "lon": -82.91992 }
    },
    {
      "facility": "Wayne State University/Karmanos Cancer Institute",
      "status": "RECRUITING",
      "city": "Detroit",
      "state": "Michigan",
      "zip": "48201",
      "country": "United States",
      "contacts": [
        {
          "name": "Site Public Contact",
          "role": "CONTACT",
          "phone": "313-576-9790",
          "email": "ctoadmin@karmanos.org"
        },
        { "name": "Elisabeth I. Heath", "role": "PRINCIPAL_INVESTIGATOR" }
      ],
      "geoPoint": { "lat": 42.33143, "lon": -83.04575 }
    },
    {
      "facility": "Henry Ford Hospital",
      "status": "RECRUITING",
      "city": "Detroit",
      "state": "Michigan",
      "zip": "48202",
      "country": "United States",
      "contacts": [
        {
          "name": "Site Public Contact",
          "role": "CONTACT",
          "phone": "313-916-3721",
          "email": "CTOResearch@hfhs.org"
        },
        { "name": "Haythem Y. Ali", "role": "PRINCIPAL_INVESTIGATOR" }
      ],
      "geoPoint": { "lat": 42.33143, "lon": -83.04575 }
    },
    {
      "facility": "GenesisCare USA - Farmington Hills",
      "status": "RECRUITING",
      "city": "Farmington Hills",
      "state": "Michigan",
      "zip": "48334",
      "country": "United States",
      "contacts": [
        {
          "name": "Site Public Contact",
          "role": "CONTACT",
          "phone": "941-833-5700",
          "email": "Rudi.Ross@usa.genesiscare.com"
        },
        { "name": "Frank A. Vicini", "role": "PRINCIPAL_INVESTIGATOR" }
      ],
      "geoPoint": { "lat": 42.48531, "lon": -83.37716 }
    },
    {
      "facility": "Spectrum Health at Butterworth Campus",
      "status": "RECRUITING",
      "city": "Grand Rapids",
      "state": "Michigan",
      "zip": "49503",
      "country": "United States",
      "contacts": [
        {
          "name": "Site Public Contact",
          "role": "CONTACT",
          "phone": "616-391-1230",
          "email": "crcwm-regulatory@crcwm.org"
        },
        { "name": "Kathleen J. Yost", "role": "PRINCIPAL_INVESTIGATOR" }
      ],
      "geoPoint": { "lat": 42.96336, "lon": -85.66809 }
    },
    {
      "facility": "West Michigan Cancer Center",
      "status": "RECRUITING",
      "city": "Kalamazoo",
      "state": "Michigan",
      "zip": "49007",
      "country": "United States",
      "contacts": [
        {
          "name": "Site Public Contact",
          "role": "CONTACT",
          "phone": "616-391-1230",
          "email": "crcwm-regulatory@crcwm.org"
        },
        { "name": "Kathleen J. Yost", "role": "PRINCIPAL_INVESTIGATOR" }
      ],
      "geoPoint": { "lat": 42.29171, "lon": -85.58723 }
    },
    {
      "facility": "Sparrow Hospital",
      "status": "RECRUITING",
      "city": "Lansing",
      "state": "Michigan",
      "zip": "48912",
      "country": "United States",
      "contacts": [
        {
          "name": "Site Public Contact",
          "role": "CONTACT",
          "phone": "517-364-9400"
        },
        {
          "name": "Christopher M. Reynolds",
          "role": "PRINCIPAL_INVESTIGATOR"
        }
      ],
      "geoPoint": { "lat": 42.73253, "lon": -84.55553 }
    },
    {
      "facility": "GenesisCare USA - Macomb",
      "status": "RECRUITING",
      "city": "Macomb",
      "state": "Michigan",
      "zip": "48044",
      "country": "United States",
      "contacts": [
        {
          "name": "Site Public Contact",
          "role": "CONTACT",
          "phone": "941-833-5700",
          "email": "Rudi.Ross@usa.genesiscare.com"
        },
        { "name": "Frank A. Vicini", "role": "PRINCIPAL_INVESTIGATOR" }
      ],
      "geoPoint": { "lat": 42.70087, "lon": -82.95909 }
    },
    {
      "facility": "GenesisCare USA - Madison Heights",
      "status": "RECRUITING",
      "city": "Madison Heights",
      "state": "Michigan",
      "zip": "48071",
      "country": "United States",
      "contacts": [
        {
          "name": "Site Public Contact",
          "role": "CONTACT",
          "phone": "941-833-5700",
          "email": "Rudi.Ross@usa.genesiscare.com"
        },
        { "name": "Frank A. Vicini", "role": "PRINCIPAL_INVESTIGATOR" }
      ],
      "geoPoint": { "lat": 42.48587, "lon": -83.1052 }
    },
    {
      "facility": "21st Century Oncology-Pontiac",
      "status": "RECRUITING",
      "city": "Pontiac",
      "state": "Michigan",
      "zip": "48341",
      "country": "United States",
      "contacts": [
        {
          "name": "Site Public Contact",
          "role": "CONTACT",
          "phone": "734-712-3671",
          "email": "stephanie.couch@stjoeshealth.org"
        },
        {
          "name": "Christopher M. Reynolds",
          "role": "PRINCIPAL_INVESTIGATOR"
        }
      ],
      "geoPoint": { "lat": 42.63892, "lon": -83.29105 }
    },
    {
      "facility": "Ascension Saint Mary's Hospital",
      "status": "RECRUITING",
      "city": "Saginaw",
      "state": "Michigan",
      "zip": "48601",
      "country": "United States",
      "contacts": [
        {
          "name": "Site Public Contact",
          "role": "CONTACT",
          "phone": "989-907-8411",
          "email": "lori.srebinski@ascension.org"
        },
        {
          "name": "Christopher M. Reynolds",
          "role": "PRINCIPAL_INVESTIGATOR"
        }
      ],
      "geoPoint": { "lat": 43.41947, "lon": -83.95081 }
    },
    {
      "facility": "Munson Medical Center",
      "status": "RECRUITING",
      "city": "Traverse City",
      "state": "Michigan",
      "zip": "49684",
      "country": "United States",
      "contacts": [
        {
          "name": "Site Public Contact",
          "role": "CONTACT",
          "phone": "616-391-1230",
          "email": "crcwm-regulatory@crcwm.org"
        },
        { "name": "Kathleen J. Yost", "role": "PRINCIPAL_INVESTIGATOR" }
      ],
      "geoPoint": { "lat": 44.76306, "lon": -85.62063 }
    },
    {
      "facility": "GenesisCare USA - Troy",
      "status": "RECRUITING",
      "city": "Troy",
      "state": "Michigan",
      "zip": "48098",
      "country": "United States",
      "contacts": [
        {
          "name": "Site Public Contact",
          "role": "CONTACT",
          "phone": "941-833-5700",
          "email": "Rudi.Ross@usa.genesiscare.com"
        },
        { "name": "Frank A. Vicini", "role": "PRINCIPAL_INVESTIGATOR" }
      ],
      "geoPoint": { "lat": 42.60559, "lon": -83.14993 }
    },
    {
      "facility": "Henry Ford West Bloomfield Hospital",
      "status": "RECRUITING",
      "city": "West Bloomfield",
      "state": "Michigan",
      "zip": "48322",
      "country": "United States",
      "contacts": [
        {
          "name": "Site Public Contact",
          "role": "CONTACT",
          "phone": "313-916-3721",
          "email": "CTOResearch@hfhs.org"
        },
        { "name": "Haythem Y. Ali", "role": "PRINCIPAL_INVESTIGATOR" }
      ],
      "geoPoint": { "lat": 42.56891, "lon": -83.38356 }
    },
    {
      "facility": "Mercy Hospital",
      "status": "RECRUITING",
      "city": "Coon Rapids",
      "state": "Minnesota",
      "zip": "55433",
      "country": "United States",
      "contacts": [
        {
          "name": "Site Public Contact",
          "role": "CONTACT",
          "phone": "952-993-1517",
          "email": "mmcorc@healthpartners.com"
        },
        { "name": "David M. King", "role": "PRINCIPAL_INVESTIGATOR" }
      ],
      "geoPoint": { "lat": 45.11997, "lon": -93.28773 }
    },
    {
      "facility": "Fairview Southdale Hospital",
      "status": "RECRUITING",
      "city": "Edina",
      "state": "Minnesota",
      "zip": "55435",
      "country": "United States",
      "contacts": [
        {
          "name": "Site Public Contact",
          "role": "CONTACT",
          "phone": "952-993-1517",
          "email": "mmcorc@healthpartners.com"
        },
        { "name": "David M. King", "role": "PRINCIPAL_INVESTIGATOR" }
      ],
      "geoPoint": { "lat": 44.88969, "lon": -93.34995 }
    },
    {
      "facility": "Unity Hospital",
      "status": "RECRUITING",
      "city": "Fridley",
      "state": "Minnesota",
      "zip": "55432",
      "country": "United States",
      "contacts": [
        {
          "name": "Site Public Contact",
          "role": "CONTACT",
          "phone": "952-993-1517",
          "email": "mmcorc@healthpartners.com"
        },
        { "name": "David M. King", "role": "PRINCIPAL_INVESTIGATOR" }
      ],
      "geoPoint": { "lat": 45.08608, "lon": -93.26328 }
    },
    {
      "facility": "Hennepin County Medical Center",
      "status": "RECRUITING",
      "city": "Minneapolis",
      "state": "Minnesota",
      "zip": "55415",
      "country": "United States",
      "contacts": [
        {
          "name": "Site Public Contact",
          "role": "CONTACT",
          "phone": "952-993-1517",
          "email": "mmcorc@healthpartners.com"
        },
        { "name": "David M. King", "role": "PRINCIPAL_INVESTIGATOR" }
      ],
      "geoPoint": { "lat": 44.97997, "lon": -93.26384 }
    },
    {
      "facility": "Health Partners Inc",
      "status": "RECRUITING",
      "city": "Minneapolis",
      "state": "Minnesota",
      "zip": "55454",
      "country": "United States",
      "contacts": [
        {
          "name": "Site Public Contact",
          "role": "CONTACT",
          "phone": "952-993-1517",
          "email": "mmcorc@healthpartners.com"
        },
        { "name": "David M. King", "role": "PRINCIPAL_INVESTIGATOR" }
      ],
      "geoPoint": { "lat": 44.97997, "lon": -93.26384 }
    },
    {
      "facility": "North Memorial Medical Health Center",
      "status": "RECRUITING",
      "city": "Robbinsdale",
      "state": "Minnesota",
      "zip": "55422",
      "country": "United States",
      "contacts": [
        {
          "name": "Site Public Contact",
          "role": "CONTACT",
          "phone": "952-993-1517",
          "email": "mmcorc@healthpartners.com"
        },
        { "name": "David M. King", "role": "PRINCIPAL_INVESTIGATOR" }
      ],
      "geoPoint": { "lat": 45.03219, "lon": -93.33856 }
    },
    {
      "facility": "Mayo Clinic in Rochester",
      "status": "SUSPENDED",
      "city": "Rochester",
      "state": "Minnesota",
      "zip": "55905",
      "country": "United States",
      "geoPoint": { "lat": 44.02163, "lon": -92.4699 }
    },
    {
      "facility": "Park Nicollet Clinic - Saint Louis Park",
      "status": "RECRUITING",
      "city": "Saint Louis Park",
      "state": "Minnesota",
      "zip": "55416",
      "country": "United States",
      "contacts": [
        {
          "name": "Site Public Contact",
          "role": "CONTACT",
          "phone": "952-993-1517",
          "email": "mmcorc@healthpartners.com"
        },
        { "name": "David M. King", "role": "PRINCIPAL_INVESTIGATOR" }
      ],
      "geoPoint": { "lat": 44.9483, "lon": -93.34801 }
    },
    {
      "facility": "Regions Hospital",
      "status": "RECRUITING",
      "city": "Saint Paul",
      "state": "Minnesota",
      "zip": "55101",
      "country": "United States",
      "contacts": [
        {
          "name": "Site Public Contact",
          "role": "CONTACT",
          "phone": "952-993-1517",
          "email": "mmcorc@healthpartners.com"
        },
        { "name": "David M. King", "role": "PRINCIPAL_INVESTIGATOR" }
      ],
      "geoPoint": { "lat": 44.94441, "lon": -93.09327 }
    },
    {
      "facility": "Saint Francis Regional Medical Center",
      "status": "RECRUITING",
      "city": "Shakopee",
      "state": "Minnesota",
      "zip": "55379",
      "country": "United States",
      "contacts": [
        {
          "name": "Site Public Contact",
          "role": "CONTACT",
          "phone": "952-993-1517",
          "email": "mmcorc@healthpartners.com"
        },
        { "name": "David M. King", "role": "PRINCIPAL_INVESTIGATOR" }
      ],
      "geoPoint": { "lat": 44.79802, "lon": -93.5269 }
    },
    {
      "facility": "University of Mississippi Medical Center",
      "status": "SUSPENDED",
      "city": "Jackson",
      "state": "Mississippi",
      "zip": "39216",
      "country": "United States",
      "geoPoint": { "lat": 32.29876, "lon": -90.18481 }
    },
    {
      "facility": "Saint Francis Medical Center",
      "status": "RECRUITING",
      "city": "Cape Girardeau",
      "state": "Missouri",
      "zip": "63703",
      "country": "United States",
      "contacts": [
        {
          "name": "Site Public Contact",
          "role": "CONTACT",
          "phone": "573-334-2230",
          "email": "sfmc@sfmc.net"
        },
        { "name": "Bryan A. Faller", "role": "PRINCIPAL_INVESTIGATOR" }
      ],
      "geoPoint": { "lat": 37.30588, "lon": -89.51815 }
    },
    {
      "facility": "Southeast Cancer Center",
      "status": "RECRUITING",
      "city": "Cape Girardeau",
      "state": "Missouri",
      "zip": "63703",
      "country": "United States",
      "contacts": [
        {
          "name": "Site Public Contact",
          "role": "CONTACT",
          "phone": "573-651-5550"
        },
        { "name": "Bryan A. Faller", "role": "PRINCIPAL_INVESTIGATOR" }
      ],
      "geoPoint": { "lat": 37.30588, "lon": -89.51815 }
    },
    {
      "facility": "Siteman Cancer Center at Saint Peters Hospital",
      "status": "RECRUITING",
      "city": "City of Saint Peters",
      "state": "Missouri",
      "zip": "63376",
      "country": "United States",
      "contacts": [
        {
          "name": "Site Public Contact",
          "role": "CONTACT",
          "phone": "800-600-3606",
          "email": "info@siteman.wustl.edu"
        },
        { "name": "Jeff M. Michalski", "role": "PRINCIPAL_INVESTIGATOR" }
      ],
      "geoPoint": { "lat": 38.80033, "lon": -90.62651 }
    },
    {
      "facility": "University of Missouri - Ellis Fischel",
      "status": "RECRUITING",
      "city": "Columbia",
      "state": "Missouri",
      "zip": "65212",
      "country": "United States",
      "contacts": [
        {
          "name": "Site Public Contact",
          "role": "CONTACT",
          "phone": "573-882-7440"
        },
        { "name": "Kushal Naha", "role": "PRINCIPAL_INVESTIGATOR" }
      ],
      "geoPoint": { "lat": 38.95171, "lon": -92.33407 }
    },
    {
      "facility": "Siteman Cancer Center at West County Hospital",
      "status": "RECRUITING",
      "city": "Creve Coeur",
      "state": "Missouri",
      "zip": "63141",
      "country": "United States",
      "contacts": [
        {
          "name": "Site Public Contact",
          "role": "CONTACT",
          "phone": "800-600-3606",
          "email": "info@siteman.wustl.edu"
        },
        { "name": "Jeff M. Michalski", "role": "PRINCIPAL_INVESTIGATOR" }
      ],
      "geoPoint": { "lat": 38.66089, "lon": -90.42262 }
    },
    {
      "facility": "Freeman Health System",
      "status": "RECRUITING",
      "city": "Joplin",
      "state": "Missouri",
      "zip": "64804",
      "country": "United States",
      "contacts": [
        {
          "name": "Site Public Contact",
          "role": "CONTACT",
          "phone": "417-347-4030",
          "email": "LJCrockett@freemanhealth.com"
        },
        { "name": "Jay W. Carlson", "role": "PRINCIPAL_INVESTIGATOR" }
      ],
      "geoPoint": { "lat": 37.08423, "lon": -94.51328 }
    },
    {
      "facility": "University of Kansas Cancer Center - North",
      "status": "RECRUITING",
      "city": "Kansas City",
      "state": "Missouri",
      "zip": "64154",
      "country": "United States",
      "contacts": [
        {
          "name": "Site Public Contact",
          "role": "CONTACT",
          "phone": "913-588-3671",
          "email": "KUCC_Navigation@kumc.edu"
        },
        { "name": "William Parker", "role": "PRINCIPAL_INVESTIGATOR" }
      ],
      "geoPoint": { "lat": 39.09973, "lon": -94.57857 }
    },
    {
      "facility": "Delbert Day Cancer Institute at PCRMC",
      "status": "RECRUITING",
      "city": "Rolla",
      "state": "Missouri",
      "zip": "65401",
      "country": "United States",
      "contacts": [
        {
          "name": "Site Public Contact",
          "role": "CONTACT",
          "phone": "573-458-7504",
          "email": "research@phelpshealth.org"
        },
        { "name": "Jay W. Carlson", "role": "PRINCIPAL_INVESTIGATOR" }
      ],
      "geoPoint": { "lat": 37.95143, "lon": -91.77127 }
    },
    {
      "facility": "Sainte Genevieve County Memorial Hospital",
      "status": "RECRUITING",
      "city": "Sainte Genevieve",
      "state": "Missouri",
      "zip": "63670",
      "country": "United States",
      "contacts": [
        {
          "name": "Site Public Contact",
          "role": "CONTACT",
          "phone": "314-996-5569"
        },
        { "name": "Bryan A. Faller", "role": "PRINCIPAL_INVESTIGATOR" }
      ],
      "geoPoint": { "lat": 37.98144, "lon": -90.04178 }
    },
    {
      "facility": "Mercy Hospital Springfield",
      "status": "RECRUITING",
      "city": "Springfield",
      "state": "Missouri",
      "zip": "65804",
      "country": "United States",
      "contacts": [
        {
          "name": "Site Public Contact",
          "role": "CONTACT",
          "phone": "417-269-4520"
        },
        { "name": "Jay W. Carlson", "role": "PRINCIPAL_INVESTIGATOR" }
      ],
      "geoPoint": { "lat": 37.21533, "lon": -93.29824 }
    },
    {
      "facility": "CoxHealth South Hospital",
      "status": "RECRUITING",
      "city": "Springfield",
      "state": "Missouri",
      "zip": "65807",
      "country": "United States",
      "contacts": [
        {
          "name": "Site Public Contact",
          "role": "CONTACT",
          "phone": "417-269-4520"
        },
        { "name": "Jay W. Carlson", "role": "PRINCIPAL_INVESTIGATOR" }
      ],
      "geoPoint": { "lat": 37.21533, "lon": -93.29824 }
    },
    {
      "facility": "Washington University School of Medicine",
      "status": "RECRUITING",
      "city": "St Louis",
      "state": "Missouri",
      "zip": "63110",
      "country": "United States",
      "contacts": [
        {
          "name": "Site Public Contact",
          "role": "CONTACT",
          "phone": "800-600-3606",
          "email": "info@siteman.wustl.edu"
        },
        { "name": "Jeff M. Michalski", "role": "PRINCIPAL_INVESTIGATOR" }
      ],
      "geoPoint": { "lat": 38.62727, "lon": -90.19789 }
    },
    {
      "facility": "Siteman Cancer Center-South County",
      "status": "RECRUITING",
      "city": "St Louis",
      "state": "Missouri",
      "zip": "63129",
      "country": "United States",
      "contacts": [
        {
          "name": "Site Public Contact",
          "role": "CONTACT",
          "phone": "800-600-3606",
          "email": "info@siteman.wustl.edu"
        },
        { "name": "Jeff M. Michalski", "role": "PRINCIPAL_INVESTIGATOR" }
      ],
      "geoPoint": { "lat": 38.62727, "lon": -90.19789 }
    },
    {
      "facility": "Missouri Baptist Medical Center",
      "status": "RECRUITING",
      "city": "St Louis",
      "state": "Missouri",
      "zip": "63131",
      "country": "United States",
      "contacts": [
        {
          "name": "Site Public Contact",
          "role": "CONTACT",
          "phone": "314-996-5569"
        },
        { "name": "Bryan A. Faller", "role": "PRINCIPAL_INVESTIGATOR" }
      ],
      "geoPoint": { "lat": 38.62727, "lon": -90.19789 }
    },
    {
      "facility": "Siteman Cancer Center at Christian Hospital",
      "status": "RECRUITING",
      "city": "St Louis",
      "state": "Missouri",
      "zip": "63136",
      "country": "United States",
      "contacts": [
        {
          "name": "Site Public Contact",
          "role": "CONTACT",
          "phone": "800-600-3606",
          "email": "info@siteman.wustl.edu"
        },
        { "name": "Jeff M. Michalski", "role": "PRINCIPAL_INVESTIGATOR" }
      ],
      "geoPoint": { "lat": 38.62727, "lon": -90.19789 }
    },
    {
      "facility": "Mercy Hospital Saint Louis",
      "status": "RECRUITING",
      "city": "St Louis",
      "state": "Missouri",
      "zip": "63141",
      "country": "United States",
      "contacts": [
        {
          "name": "Site Public Contact",
          "role": "CONTACT",
          "phone": "314-251-7066"
        },
        { "name": "Jay W. Carlson", "role": "PRINCIPAL_INVESTIGATOR" }
      ],
      "geoPoint": { "lat": 38.62727, "lon": -90.19789 }
    },
    {
      "facility": "Billings Clinic Cancer Center",
      "status": "RECRUITING",
      "city": "Billings",
      "state": "Montana",
      "zip": "59101",
      "country": "United States",
      "contacts": [
        {
          "name": "Site Public Contact",
          "role": "CONTACT",
          "phone": "800-996-2663",
          "email": "research@billingsclinic.org"
        },
        { "name": "John M. Schallenkamp", "role": "PRINCIPAL_INVESTIGATOR" }
      ],
      "geoPoint": { "lat": 45.78329, "lon": -108.50069 }
    },
    {
      "facility": "Bozeman Deaconess Hospital",
      "status": "RECRUITING",
      "city": "Bozeman",
      "state": "Montana",
      "zip": "59715",
      "country": "United States",
      "contacts": [
        {
          "name": "Site Public Contact",
          "role": "CONTACT",
          "phone": "406-969-6060",
          "email": "mccinfo@mtcancer.org"
        },
        { "name": "John M. Schallenkamp", "role": "PRINCIPAL_INVESTIGATOR" }
      ],
      "geoPoint": { "lat": 45.67965, "lon": -111.03856 }
    },
    {
      "facility": "Saint James Community Hospital and Cancer Treatment Center",
      "status": "RECRUITING",
      "city": "Butte",
      "state": "Montana",
      "zip": "59701",
      "country": "United States",
      "contacts": [
        {
          "name": "Site Public Contact",
          "role": "CONTACT",
          "phone": "406-723-2621"
        },
        { "name": "Troy A. Fiddler", "role": "PRINCIPAL_INVESTIGATOR" }
      ],
      "geoPoint": { "lat": 46.00382, "lon": -112.53474 }
    },
    {
      "facility": "Benefis Healthcare- Sletten Cancer Institute",
      "status": "RECRUITING",
      "city": "Great Falls",
      "state": "Montana",
      "zip": "59405",
      "country": "United States",
      "contacts": [
        {
          "name": "Site Public Contact",
          "role": "CONTACT",
          "phone": "406-969-6060",
          "email": "mccinfo@mtcancer.org"
        },
        { "name": "John M. Schallenkamp", "role": "PRINCIPAL_INVESTIGATOR" }
      ],
      "geoPoint": { "lat": 47.50024, "lon": -111.30081 }
    },
    {
      "facility": "Kalispell Regional Medical Center",
      "status": "RECRUITING",
      "city": "Kalispell",
      "state": "Montana",
      "zip": "59901",
      "country": "United States",
      "contacts": [
        {
          "name": "Site Public Contact",
          "role": "CONTACT",
          "phone": "406-969-6060",
          "email": "mccinfo@mtcancer.org"
        },
        { "name": "John M. Schallenkamp", "role": "PRINCIPAL_INVESTIGATOR" }
      ],
      "geoPoint": { "lat": 48.19579, "lon": -114.31291 }
    },
    {
      "facility": "Nebraska Medicine-Bellevue",
      "status": "RECRUITING",
      "city": "Bellevue",
      "state": "Nebraska",
      "zip": "68123",
      "country": "United States",
      "contacts": [
        {
          "name": "Site Public Contact",
          "role": "CONTACT",
          "phone": "402-559-6941",
          "email": "unmcrsa@unmc.edu"
        },
        { "name": "Benjamin A. Teply", "role": "PRINCIPAL_INVESTIGATOR" }
      ],
      "geoPoint": { "lat": 41.13667, "lon": -95.89084 }
    },
    {
      "facility": "Nebraska Methodist Hospital",
      "status": "RECRUITING",
      "city": "Omaha",
      "state": "Nebraska",
      "zip": "68114",
      "country": "United States",
      "contacts": [
        {
          "name": "Site Public Contact",
          "role": "CONTACT",
          "phone": "402-354-5144"
        },
        { "name": "Ralph J. Hauke", "role": "PRINCIPAL_INVESTIGATOR" }
      ],
      "geoPoint": { "lat": 41.25626, "lon": -95.94043 }
    },
    {
      "facility": "Nebraska Medicine-Village Pointe",
      "status": "RECRUITING",
      "city": "Omaha",
      "state": "Nebraska",
      "zip": "68118",
      "country": "United States",
      "contacts": [
        {
          "name": "Site Public Contact",
          "role": "CONTACT",
          "phone": "402-559-5600"
        },
        { "name": "Benjamin A. Teply", "role": "PRINCIPAL_INVESTIGATOR" }
      ],
      "geoPoint": { "lat": 41.25626, "lon": -95.94043 }
    },
    {
      "facility": "University of Nebraska Medical Center",
      "status": "RECRUITING",
      "city": "Omaha",
      "state": "Nebraska",
      "zip": "68198",
      "country": "United States",
      "contacts": [
        {
          "name": "Site Public Contact",
          "role": "CONTACT",
          "phone": "402-559-6941",
          "email": "unmcrsa@unmc.edu"
        },
        { "name": "Benjamin A. Teply", "role": "PRINCIPAL_INVESTIGATOR" }
      ],
      "geoPoint": { "lat": 41.25626, "lon": -95.94043 }
    },
    {
      "facility": "Comprehensive Cancer Centers of Nevada - Henderson",
      "status": "RECRUITING",
      "city": "Henderson",
      "state": "Nevada",
      "zip": "89052",
      "country": "United States",
      "contacts": [
        {
          "name": "Site Public Contact",
          "role": "CONTACT",
          "phone": "702-384-0013",
          "email": "research@sncrf.org"
        },
        { "name": "John A. Ellerton", "role": "PRINCIPAL_INVESTIGATOR" }
      ],
      "geoPoint": { "lat": 36.0397, "lon": -114.98194 }
    },
    {
      "facility": "Radiation Oncology Centers of Nevada Central",
      "status": "RECRUITING",
      "city": "Las Vegas",
      "state": "Nevada",
      "zip": "89106",
      "country": "United States",
      "contacts": [
        {
          "name": "Site Public Contact",
          "role": "CONTACT",
          "phone": "702-384-0013",
          "email": "research@sncrf.org"
        },
        { "name": "John A. Ellerton", "role": "PRINCIPAL_INVESTIGATOR" }
      ],
      "geoPoint": { "lat": 36.17497, "lon": -115.13722 }
    },
    {
      "facility": "Comprehensive Cancer Centers of Nevada - Northwest",
      "status": "RECRUITING",
      "city": "Las Vegas",
      "state": "Nevada",
      "zip": "89128",
      "country": "United States",
      "contacts": [
        {
          "name": "Site Public Contact",
          "role": "CONTACT",
          "phone": "702-384-0013",
          "email": "research@sncrf.org"
        },
        { "name": "John A. Ellerton", "role": "PRINCIPAL_INVESTIGATOR" }
      ],
      "geoPoint": { "lat": 36.17497, "lon": -115.13722 }
    },
    {
      "facility": "Comprehensive Cancer Centers of Nevada-Summerlin",
      "status": "RECRUITING",
      "city": "Las Vegas",
      "state": "Nevada",
      "zip": "89144",
      "country": "United States",
      "contacts": [
        {
          "name": "Site Public Contact",
          "role": "CONTACT",
          "phone": "702-384-0013",
          "email": "research@sncrf.org"
        },
        { "name": "John A. Ellerton", "role": "PRINCIPAL_INVESTIGATOR" }
      ],
      "geoPoint": { "lat": 36.17497, "lon": -115.13722 }
    },
    {
      "facility": "Comprehensive Cancer Centers of Nevada",
      "status": "RECRUITING",
      "city": "Las Vegas",
      "state": "Nevada",
      "zip": "89148",
      "country": "United States",
      "contacts": [
        {
          "name": "Site Public Contact",
          "role": "CONTACT",
          "phone": "702-384-0013",
          "email": "research@sncrf.org"
        },
        { "name": "John A. Ellerton", "role": "PRINCIPAL_INVESTIGATOR" }
      ],
      "geoPoint": { "lat": 36.17497, "lon": -115.13722 }
    },
    {
      "facility": "Comprehensive Cancer Centers of Nevada - Central Valley",
      "status": "RECRUITING",
      "city": "Las Vegas",
      "state": "Nevada",
      "zip": "89169",
      "country": "United States",
      "contacts": [
        {
          "name": "Site Public Contact",
          "role": "CONTACT",
          "phone": "702-384-0013",
          "email": "research@sncrf.org"
        },
        { "name": "John A. Ellerton", "role": "PRINCIPAL_INVESTIGATOR" }
      ],
      "geoPoint": { "lat": 36.17497, "lon": -115.13722 }
    },
    {
      "facility": "New Hampshire Oncology Hematology PA-Concord",
      "status": "RECRUITING",
      "city": "Concord",
      "state": "New Hampshire",
      "zip": "03301",
      "country": "United States",
      "contacts": [
        {
          "name": "Site Public Contact",
          "role": "CONTACT",
          "phone": "603-224-2556"
        },
        { "name": "Douglas J. Weckstein", "role": "PRINCIPAL_INVESTIGATOR" }
      ],
      "geoPoint": { "lat": 43.20814, "lon": -71.53757 }
    },
    {
      "facility": "Wentworth-Douglass Hospital",
      "status": "ACTIVE_NOT_RECRUITING",
      "city": "Dover",
      "state": "New Hampshire",
      "zip": "03820",
      "country": "United States",
      "geoPoint": { "lat": 43.19786, "lon": -70.87367 }
    },
    {
      "facility": "Dartmouth Hitchcock Medical Center/Dartmouth Cancer Center",
      "status": "RECRUITING",
      "city": "Lebanon",
      "state": "New Hampshire",
      "zip": "03756",
      "country": "United States",
      "contacts": [
        {
          "name": "Site Public Contact",
          "role": "CONTACT",
          "phone": "800-639-6918",
          "email": "cancer.research.nurse@dartmouth.edu"
        },
        { "name": "Rodwell Mabaera", "role": "PRINCIPAL_INVESTIGATOR" }
      ],
      "geoPoint": { "lat": 43.64229, "lon": -72.25176 }
    },
    {
      "facility": "Elliot Hospital",
      "status": "ACTIVE_NOT_RECRUITING",
      "city": "Manchester",
      "state": "New Hampshire",
      "zip": "03103",
      "country": "United States",
      "geoPoint": { "lat": 42.99564, "lon": -71.45479 }
    },
    {
      "facility": "Solinsky Center for Cancer Care",
      "status": "RECRUITING",
      "city": "Manchester",
      "state": "New Hampshire",
      "zip": "03103",
      "country": "United States",
      "contacts": [
        {
          "name": "Site Public Contact",
          "role": "CONTACT",
          "phone": "800-339-6484"
        },
        { "name": "Douglas J. Weckstein", "role": "PRINCIPAL_INVESTIGATOR" }
      ],
      "geoPoint": { "lat": 42.99564, "lon": -71.45479 }
    },
    {
      "facility": "Hackensack University Medical Center",
      "status": "RECRUITING",
      "city": "Hackensack",
      "state": "New Jersey",
      "zip": "07601",
      "country": "United States",
      "contacts": [
        {
          "name": "Site Public Contact",
          "role": "CONTACT",
          "phone": "201-996-2879"
        },
        { "name": "Robert S. Alter", "role": "PRINCIPAL_INVESTIGATOR" }
      ],
      "geoPoint": { "lat": 40.88593, "lon": -74.04347 }
    },
    {
      "facility": "Holy Name Hospital",
      "status": "ACTIVE_NOT_RECRUITING",
      "city": "Teaneck",
      "state": "New Jersey",
      "zip": "07666",
      "country": "United States",
      "geoPoint": { "lat": 40.8976, "lon": -74.01597 }
    },
    {
      "facility": "Albany Medical Center",
      "status": "RECRUITING",
      "city": "Albany",
      "state": "New York",
      "zip": "12208",
      "country": "United States",
      "contacts": [
        {
          "name": "Site Public Contact",
          "role": "CONTACT",
          "phone": "518-262-5513"
        },
        { "name": "Badar M. Mian", "role": "PRINCIPAL_INVESTIGATOR" }
      ],
      "geoPoint": { "lat": 42.65258, "lon": -73.75623 }
    },
    {
      "facility": "Roswell Park Cancer Institute",
      "status": "RECRUITING",
      "city": "Buffalo",
      "state": "New York",
      "zip": "14263",
      "country": "United States",
      "contacts": [
        {
          "name": "Site Public Contact",
          "role": "CONTACT",
          "phone": "800-767-9355",
          "email": "askroswell@roswellpark.org"
        },
        { "name": "Gurkamal S. Chatta", "role": "PRINCIPAL_INVESTIGATOR" }
      ],
      "geoPoint": { "lat": 42.88645, "lon": -78.87837 }
    },
    {
      "facility": "Noyes Memorial Hospital/Myers Cancer Center",
      "status": "RECRUITING",
      "city": "Dansville",
      "state": "New York",
      "zip": "14437",
      "country": "United States",
      "contacts": [
        {
          "name": "Site Public Contact",
          "role": "CONTACT",
          "email": "WCICTOresearch@urmc.rochester.edu"
        },
        { "name": "Paul M. Barr", "role": "PRINCIPAL_INVESTIGATOR" }
      ],
      "geoPoint": { "lat": 42.5609, "lon": -77.69611 }
    },
    {
      "facility": "Glens Falls Hospital",
      "status": "RECRUITING",
      "city": "Glens Falls",
      "state": "New York",
      "zip": "12801",
      "country": "United States",
      "contacts": [
        {
          "name": "Site Public Contact",
          "role": "CONTACT",
          "phone": "518-926-6700"
        },
        {
          "name": "Nataniel H. Lester-Coll",
          "role": "PRINCIPAL_INVESTIGATOR"
        }
      ],
      "geoPoint": { "lat": 43.30952, "lon": -73.64401 }
    },
    {
      "facility": "Northwell Health/Center for Advanced Medicine",
      "status": "ACTIVE_NOT_RECRUITING",
      "city": "Lake Success",
      "state": "New York",
      "zip": "11042",
      "country": "United States",
      "geoPoint": { "lat": 40.77066, "lon": -73.71763 }
    },
    {
      "facility": "NYP/Weill Cornell Medical Center",
      "status": "RECRUITING",
      "city": "New York",
      "state": "New York",
      "zip": "10065",
      "country": "United States",
      "contacts": [
        {
          "name": "Site Public Contact",
          "role": "CONTACT",
          "phone": "212-746-1848"
        },
        { "name": "Douglas Scherr", "role": "PRINCIPAL_INVESTIGATOR" }
      ],
      "geoPoint": { "lat": 40.71427, "lon": -74.00597 }
    },
    {
      "facility": "Upstate Cancer Center Radiation Oncology at Oneida",
      "status": "RECRUITING",
      "city": "Oneida",
      "state": "New York",
      "zip": "13421",
      "country": "United States",
      "contacts": [
        {
          "name": "Site Public Contact",
          "role": "CONTACT",
          "phone": "315-464-3603",
          "email": "BinghamE@upstate.edu"
        },
        { "name": "Gennady Bratslavsky", "role": "PRINCIPAL_INVESTIGATOR" }
      ],
      "geoPoint": { "lat": 43.09257, "lon": -75.65129 }
    },
    {
      "facility": "Upstate Cancer Center Radiation Oncology at Oswego",
      "status": "RECRUITING",
      "city": "Oswego",
      "state": "New York",
      "zip": "13126",
      "country": "United States",
      "contacts": [
        {
          "name": "Site Public Contact",
          "role": "CONTACT",
          "phone": "315-464-3603",
          "email": "BinghamE@upstate.edu"
        },
        { "name": "Gennady Bratslavsky", "role": "PRINCIPAL_INVESTIGATOR" }
      ],
      "geoPoint": { "lat": 43.45535, "lon": -76.5105 }
    },
    {
      "facility": "Highland Hospital",
      "status": "RECRUITING",
      "city": "Rochester",
      "state": "New York",
      "zip": "14620",
      "country": "United States",
      "contacts": [
        {
          "name": "Site Public Contact",
          "role": "CONTACT",
          "phone": "585-341-8113"
        },
        { "name": "Paul M. Barr", "role": "PRINCIPAL_INVESTIGATOR" }
      ],
      "geoPoint": { "lat": 43.15478, "lon": -77.61556 }
    },
    {
      "facility": "University of Rochester",
      "status": "RECRUITING",
      "city": "Rochester",
      "state": "New York",
      "zip": "14642",
      "country": "United States",
      "contacts": [
        {
          "name": "Site Public Contact",
          "role": "CONTACT",
          "phone": "585-275-5830"
        },
        { "name": "Paul M. Barr", "role": "PRINCIPAL_INVESTIGATOR" }
      ],
      "geoPoint": { "lat": 43.15478, "lon": -77.61556 }
    },
    {
      "facility": "Stony Brook University Medical Center",
      "status": "RECRUITING",
      "city": "Stony Brook",
      "state": "New York",
      "zip": "11794",
      "country": "United States",
      "contacts": [
        {
          "name": "Site Public Contact",
          "role": "CONTACT",
          "phone": "800-862-2215"
        },
        {
          "name": "Massimiliano Spaliviero",
          "role": "PRINCIPAL_INVESTIGATOR"
        }
      ],
      "geoPoint": { "lat": 40.92565, "lon": -73.14094 }
    },
    {
      "facility": "State University of New York Upstate Medical University",
      "status": "RECRUITING",
      "city": "Syracuse",
      "state": "New York",
      "zip": "13210",
      "country": "United States",
      "contacts": [
        {
          "name": "Site Public Contact",
          "role": "CONTACT",
          "phone": "315-464-5476"
        },
        { "name": "Gennady Bratslavsky", "role": "PRINCIPAL_INVESTIGATOR" }
      ],
      "geoPoint": { "lat": 43.04812, "lon": -76.14742 }
    },
    {
      "facility": "Montefiore Medical Center-Einstein Campus",
      "status": "RECRUITING",
      "city": "The Bronx",
      "state": "New York",
      "zip": "10461",
      "country": "United States",
      "contacts": [
        {
          "name": "Site Public Contact",
          "role": "CONTACT",
          "phone": "718-379-6866",
          "email": "eskwak@montefiore.org"
        },
        { "name": "Ahmed A. Aboumohamed", "role": "PRINCIPAL_INVESTIGATOR" }
      ],
      "geoPoint": { "lat": 40.84985, "lon": -73.86641 }
    },
    {
      "facility": "Montefiore Medical Center - Moses Campus",
      "status": "RECRUITING",
      "city": "The Bronx",
      "state": "New York",
      "zip": "10467",
      "country": "United States",
      "contacts": [
        {
          "name": "Site Public Contact",
          "role": "CONTACT",
          "phone": "718-379-6866",
          "email": "eskwak@montefiore.org"
        },
        { "name": "Ahmed A. Aboumohamed", "role": "PRINCIPAL_INVESTIGATOR" }
      ],
      "geoPoint": { "lat": 40.84985, "lon": -73.86641 }
    },
    {
      "facility": "James J Peters VA Medical Center",
      "status": "ACTIVE_NOT_RECRUITING",
      "city": "The Bronx",
      "state": "New York",
      "zip": "10468",
      "country": "United States",
      "geoPoint": { "lat": 40.84985, "lon": -73.86641 }
    },
    {
      "facility": "Atrium Health Stanly/LCI-Albemarle",
      "status": "RECRUITING",
      "city": "Albemarle",
      "state": "North Carolina",
      "zip": "28002",
      "country": "United States",
      "contacts": [
        {
          "name": "Site Public Contact",
          "role": "CONTACT",
          "phone": "800-804-9376"
        },
        { "name": "Earle F. Burgess", "role": "PRINCIPAL_INVESTIGATOR" }
      ],
      "geoPoint": { "lat": 35.35014, "lon": -80.20006 }
    },
    {
      "facility": "Mission Hospital",
      "status": "ACTIVE_NOT_RECRUITING",
      "city": "Asheville",
      "state": "North Carolina",
      "zip": "28801",
      "country": "United States",
      "geoPoint": { "lat": 35.60095, "lon": -82.55402 }
    },
    {
      "facility": "Carolinas Medical Center/Levine Cancer Institute",
      "status": "RECRUITING",
      "city": "Charlotte",
      "state": "North Carolina",
      "zip": "28203",
      "country": "United States",
      "contacts": [
        {
          "name": "Site Public Contact",
          "role": "CONTACT",
          "phone": "800-804-9376"
        },
        { "name": "Earle F. Burgess", "role": "PRINCIPAL_INVESTIGATOR" }
      ],
      "geoPoint": { "lat": 35.22709, "lon": -80.84313 }
    },
    {
      "facility": "Atrium Health Pineville/LCI-Pineville",
      "status": "RECRUITING",
      "city": "Charlotte",
      "state": "North Carolina",
      "zip": "28210",
      "country": "United States",
      "contacts": [
        {
          "name": "Site Public Contact",
          "role": "CONTACT",
          "phone": "980-442-2000"
        },
        { "name": "Earle F. Burgess", "role": "PRINCIPAL_INVESTIGATOR" }
      ],
      "geoPoint": { "lat": 35.22709, "lon": -80.84313 }
    },
    {
      "facility": "Atrium Health University City/LCI-University",
      "status": "RECRUITING",
      "city": "Charlotte",
      "state": "North Carolina",
      "zip": "28262",
      "country": "United States",
      "contacts": [
        {
          "name": "Site Public Contact",
          "role": "CONTACT",
          "phone": "800-804-9376"
        },
        { "name": "Earle F. Burgess", "role": "PRINCIPAL_INVESTIGATOR" }
      ],
      "geoPoint": { "lat": 35.22709, "lon": -80.84313 }
    },
    {
      "facility": "Levine Cancer Institute-Ballantyne",
      "status": "RECRUITING",
      "city": "Charlotte",
      "state": "North Carolina",
      "zip": "28277",
      "country": "United States",
      "contacts": [
        {
          "name": "Site Public Contact",
          "role": "CONTACT",
          "phone": "800-804-9376"
        },
        { "name": "Earle F. Burgess", "role": "PRINCIPAL_INVESTIGATOR" }
      ],
      "geoPoint": { "lat": 35.22709, "lon": -80.84313 }
    },
    {
      "facility": "Atrium Health Cabarrus/LCI-Concord",
      "status": "RECRUITING",
      "city": "Concord",
      "state": "North Carolina",
      "zip": "28025",
      "country": "United States",
      "contacts": [
        {
          "name": "Site Public Contact",
          "role": "CONTACT",
          "phone": "800-804-9376"
        },
        { "name": "Earle F. Burgess", "role": "PRINCIPAL_INVESTIGATOR" }
      ],
      "geoPoint": { "lat": 35.40888, "lon": -80.58158 }
    },
    {
      "facility": "Levine Cancer Institute-Gaston",
      "status": "RECRUITING",
      "city": "Gastonia",
      "state": "North Carolina",
      "zip": "28054",
      "country": "United States",
      "contacts": [
        {
          "name": "Site Public Contact",
          "role": "CONTACT",
          "phone": "800-804-9376"
        },
        { "name": "Earle F. Burgess", "role": "PRINCIPAL_INVESTIGATOR" }
      ],
      "geoPoint": { "lat": 35.26208, "lon": -81.1873 }
    },
    {
      "facility": "Margaret R Pardee Memorial Hospital",
      "status": "RECRUITING",
      "city": "Hendersonville",
      "state": "North Carolina",
      "zip": "28791",
      "country": "United States",
      "contacts": [
        {
          "name": "Site Public Contact",
          "role": "CONTACT",
          "phone": "828-696-4716",
          "email": "pardeecancerresearch@unchealth.unc.edu"
        },
        { "name": "Praveen Vashist", "role": "PRINCIPAL_INVESTIGATOR" }
      ],
      "geoPoint": { "lat": 35.31873, "lon": -82.46095 }
    },
    {
      "facility": "Atrium Health Union/LCI-Union",
      "status": "RECRUITING",
      "city": "Monroe",
      "state": "North Carolina",
      "zip": "28112",
      "country": "United States",
      "contacts": [
        {
          "name": "Site Public Contact",
          "role": "CONTACT",
          "phone": "980-442-2000"
        },
        { "name": "Earle F. Burgess", "role": "PRINCIPAL_INVESTIGATOR" }
      ],
      "geoPoint": { "lat": 34.98543, "lon": -80.54951 }
    },
    {
      "facility": "CarolinaEast Medical Center",
      "status": "RECRUITING",
      "city": "New Bern",
      "state": "North Carolina",
      "zip": "28561",
      "country": "United States",
      "contacts": [
        {
          "name": "Site Public Contact",
          "role": "CONTACT",
          "phone": "252-634-6589",
          "email": "lharrison@carolinaeasthealth.com"
        },
        { "name": "Sarah B. Carroll", "role": "PRINCIPAL_INVESTIGATOR" }
      ],
      "geoPoint": { "lat": 35.10849, "lon": -77.04411 }
    },
    {
      "facility": "Cleveland Clinic Mercy Hospital",
      "status": "RECRUITING",
      "city": "Canton",
      "state": "Ohio",
      "zip": "44708",
      "country": "United States",
      "contacts": [
        {
          "name": "Site Public Contact",
          "role": "CONTACT",
          "phone": "888-293-4673"
        },
        { "name": "Mitchell Haut", "role": "PRINCIPAL_INVESTIGATOR" }
      ],
      "geoPoint": { "lat": 40.79895, "lon": -81.37845 }
    },
    {
      "facility": "Miami Valley Hospital South",
      "status": "RECRUITING",
      "city": "Centerville",
      "state": "Ohio",
      "zip": "45459",
      "country": "United States",
      "contacts": [
        {
          "name": "Site Public Contact",
          "role": "CONTACT",
          "phone": "937-528-2900",
          "email": "clinical.trials@daytonncorp.org"
        },
        { "name": "Tarek M. Sabagh", "role": "PRINCIPAL_INVESTIGATOR" }
      ],
      "geoPoint": { "lat": 39.62839, "lon": -84.15938 }
    },
    {
      "facility": "University of Cincinnati Cancer Center-UC Medical Center",
      "status": "RECRUITING",
      "city": "Cincinnati",
      "state": "Ohio",
      "zip": "45219",
      "country": "United States",
      "contacts": [
        {
          "name": "Site Public Contact",
          "role": "CONTACT",
          "phone": "513-584-7698",
          "email": "cancer@uchealth.com"
        },
        { "name": "Abhinav Sidana", "role": "PRINCIPAL_INVESTIGATOR" }
      ],
      "geoPoint": { "lat": 39.12711, "lon": -84.51439 }
    },
    {
      "facility": "MetroHealth Medical Center",
      "status": "RECRUITING",
      "city": "Cleveland",
      "state": "Ohio",
      "zip": "44109",
      "country": "United States",
      "contacts": [
        {
          "name": "Site Public Contact",
          "role": "CONTACT",
          "phone": "216-778-8526",
          "email": "dstrater@metrohealth.org"
        },
        { "name": "William Tse", "role": "PRINCIPAL_INVESTIGATOR" }
      ],
      "geoPoint": { "lat": 41.4995, "lon": -81.69541 }
    },
    {
      "facility": "Ohio State University Comprehensive Cancer Center",
      "status": "RECRUITING",
      "city": "Columbus",
      "state": "Ohio",
      "zip": "43210",
      "country": "United States",
      "contacts": [
        {
          "name": "Site Public Contact",
          "role": "CONTACT",
          "phone": "800-293-5066",
          "email": "Jamesline@osumc.edu"
        },
        { "name": "Steven K. Clinton", "role": "PRINCIPAL_INVESTIGATOR" }
      ],
      "geoPoint": { "lat": 39.96118, "lon": -82.99879 }
    },
    {
      "facility": "Miami Valley Hospital North",
      "status": "RECRUITING",
      "city": "Dayton",
      "state": "Ohio",
      "zip": "45415",
      "country": "United States",
      "contacts": [
        {
          "name": "Site Public Contact",
          "role": "CONTACT",
          "phone": "937-528-2900",
          "email": "clinical.trials@daytonncorp.org"
        },
        { "name": "Tarek M. Sabagh", "role": "PRINCIPAL_INVESTIGATOR" }
      ],
      "geoPoint": { "lat": 39.75895, "lon": -84.19161 }
    },
    {
      "facility": "Greater Dayton Cancer Center",
      "status": "RECRUITING",
      "city": "Kettering",
      "state": "Ohio",
      "zip": "45409",
      "country": "United States",
      "contacts": [
        {
          "name": "Site Public Contact",
          "role": "CONTACT",
          "phone": "937-528-2900",
          "email": "clinical.trials@daytonncorp.org"
        },
        { "name": "Howard M. Gross", "role": "PRINCIPAL_INVESTIGATOR" }
      ],
      "geoPoint": { "lat": 39.6895, "lon": -84.16883 }
    },
    {
      "facility": "Kettering Medical Center",
      "status": "RECRUITING",
      "city": "Kettering",
      "state": "Ohio",
      "zip": "45429",
      "country": "United States",
      "contacts": [
        {
          "name": "Site Public Contact",
          "role": "CONTACT",
          "phone": "937-528-2900",
          "email": "clinical.trials@daytonncorp.org"
        },
        { "name": "Howard M. Gross", "role": "PRINCIPAL_INVESTIGATOR" }
      ],
      "geoPoint": { "lat": 39.6895, "lon": -84.16883 }
    },
    {
      "facility": "ProMedica Flower Hospital",
      "status": "RECRUITING",
      "city": "Sylvania",
      "state": "Ohio",
      "zip": "43560",
      "country": "United States",
      "contacts": [
        {
          "name": "Site Public Contact",
          "role": "CONTACT",
          "phone": "419-824-1842",
          "email": "PCIOncResearch@promedica.org"
        },
        { "name": "Jeffrey A. Forquer", "role": "PRINCIPAL_INVESTIGATOR" }
      ],
      "geoPoint": { "lat": 41.71894, "lon": -83.71299 }
    },
    {
      "facility": "ProMedica Toledo Hospital/Russell J Ebeid Children's Hospital",
      "status": "RECRUITING",
      "city": "Toledo",
      "state": "Ohio",
      "zip": "43606",
      "country": "United States",
      "contacts": [
        {
          "name": "Site Public Contact",
          "role": "CONTACT",
          "phone": "419-824-1842",
          "email": "PCIOncResearch@promedica.org"
        },
        { "name": "Jeffrey A. Forquer", "role": "PRINCIPAL_INVESTIGATOR" }
      ],
      "geoPoint": { "lat": 41.66394, "lon": -83.55521 }
    },
    {
      "facility": "University of Toledo",
      "status": "SUSPENDED",
      "city": "Toledo",
      "state": "Ohio",
      "zip": "43614",
      "country": "United States",
      "geoPoint": { "lat": 41.66394, "lon": -83.55521 }
    },
    {
      "facility": "University of Cincinnati Cancer Center-West Chester",
      "status": "RECRUITING",
      "city": "West Chester",
      "state": "Ohio",
      "zip": "45069",
      "country": "United States",
      "contacts": [
        {
          "name": "Site Public Contact",
          "role": "CONTACT",
          "phone": "513-584-7698",
          "email": "cancer@uchealth.com"
        },
        { "name": "Abhinav Sidana", "role": "PRINCIPAL_INVESTIGATOR" }
      ],
      "geoPoint": { "lat": 39.33172, "lon": -84.40716 }
    },
    {
      "facility": "University of Oklahoma Health Sciences Center",
      "status": "RECRUITING",
      "city": "Oklahoma City",
      "state": "Oklahoma",
      "zip": "73104",
      "country": "United States",
      "contacts": [
        {
          "name": "Site Public Contact",
          "role": "CONTACT",
          "phone": "405-271-8777",
          "email": "ou-clinical-trials@ouhsc.edu"
        },
        { "name": "Kelly L. Stratton", "role": "PRINCIPAL_INVESTIGATOR" }
      ],
      "geoPoint": { "lat": 35.46756, "lon": -97.51643 }
    },
    {
      "facility": "Legacy Mount Hood Medical Center",
      "status": "ACTIVE_NOT_RECRUITING",
      "city": "Gresham",
      "state": "Oregon",
      "zip": "97030",
      "country": "United States",
      "geoPoint": { "lat": 45.49818, "lon": -122.43148 }
    },
    {
      "facility": "Legacy Good Samaritan Hospital and Medical Center",
      "status": "ACTIVE_NOT_RECRUITING",
      "city": "Portland",
      "state": "Oregon",
      "zip": "97210",
      "country": "United States",
      "geoPoint": { "lat": 45.52345, "lon": -122.67621 }
    },
    {
      "facility": "Oregon Health and Science University",
      "status": "ACTIVE_NOT_RECRUITING",
      "city": "Portland",
      "state": "Oregon",
      "zip": "97239",
      "country": "United States",
      "geoPoint": { "lat": 45.52345, "lon": -122.67621 }
    },
    {
      "facility": "Chambersburg Hospital",
      "status": "RECRUITING",
      "city": "Chambersburg",
      "state": "Pennsylvania",
      "zip": "17201",
      "country": "United States",
      "contacts": [
        {
          "name": "Site Public Contact",
          "role": "CONTACT",
          "phone": "888-823-5923",
          "email": "ctsucontact@westat.com"
        },
        { "name": "Sherif F. Yacoub", "role": "PRINCIPAL_INVESTIGATOR" }
      ],
      "geoPoint": { "lat": 39.93759, "lon": -77.6611 }
    },
    {
      "facility": "Geisinger Medical Center",
      "status": "RECRUITING",
      "city": "Danville",
      "state": "Pennsylvania",
      "zip": "17822",
      "country": "United States",
      "contacts": [
        {
          "name": "Site Public Contact",
          "role": "CONTACT",
          "phone": "570-271-5251",
          "email": "HemonCCTrials@geisinger.edu"
        },
        { "name": "Ahmad Hanif", "role": "PRINCIPAL_INVESTIGATOR" }
      ],
      "geoPoint": { "lat": 40.96342, "lon": -76.61273 }
    },
    {
      "facility": "Ephrata Cancer Center",
      "status": "RECRUITING",
      "city": "Ephrata",
      "state": "Pennsylvania",
      "zip": "17522",
      "country": "United States",
      "contacts": [
        {
          "name": "Site Public Contact",
          "role": "CONTACT",
          "phone": "717-721-4840"
        },
        { "name": "Sherif F. Yacoub", "role": "PRINCIPAL_INVESTIGATOR" }
      ],
      "geoPoint": { "lat": 40.17982, "lon": -76.17884 }
    },
    {
      "facility": "Adams Cancer Center",
      "status": "RECRUITING",
      "city": "Gettysburg",
      "state": "Pennsylvania",
      "zip": "17325",
      "country": "United States",
      "contacts": [
        {
          "name": "Site Public Contact",
          "role": "CONTACT",
          "phone": "877-441-7957"
        },
        { "name": "Sherif F. Yacoub", "role": "PRINCIPAL_INVESTIGATOR" }
      ],
      "geoPoint": { "lat": 39.83093, "lon": -77.2311 }
    },
    {
      "facility": "Sechler Family Cancer Center",
      "status": "RECRUITING",
      "city": "Lebanon",
      "state": "Pennsylvania",
      "zip": "17042",
      "country": "United States",
      "contacts": [
        {
          "name": "Site Public Contact",
          "role": "CONTACT",
          "phone": "717-741-8303",
          "email": "doxenberg@wellspan.org"
        },
        { "name": "Sherif F. Yacoub", "role": "PRINCIPAL_INVESTIGATOR" }
      ],
      "geoPoint": { "lat": 40.34093, "lon": -76.41135 }
    },
    {
      "facility": "Geisinger Medical Oncology-Lewisburg",
      "status": "RECRUITING",
      "city": "Lewisburg",
      "state": "Pennsylvania",
      "zip": "17837",
      "country": "United States",
      "contacts": [
        {
          "name": "Site Public Contact",
          "role": "CONTACT",
          "phone": "570-374-8555",
          "email": "HemonCCTrials@geisinger.edu"
        },
        { "name": "Ahmad Hanif", "role": "PRINCIPAL_INVESTIGATOR" }
      ],
      "geoPoint": { "lat": 40.96453, "lon": -76.88441 }
    },
    {
      "facility": "Temple University Hospital",
      "status": "WITHDRAWN",
      "city": "Philadelphia",
      "state": "Pennsylvania",
      "zip": "19140",
      "country": "United States",
      "geoPoint": { "lat": 39.95238, "lon": -75.16362 }
    },
    {
      "facility": "University of Pittsburgh Cancer Institute (UPCI)",
      "status": "RECRUITING",
      "city": "Pittsburgh",
      "state": "Pennsylvania",
      "zip": "15232",
      "country": "United States",
      "contacts": [
        {
          "name": "Site Public Contact",
          "role": "CONTACT",
          "phone": "412-647-8073"
        },
        { "name": "Benjamin J. Davies", "role": "PRINCIPAL_INVESTIGATOR" }
      ],
      "geoPoint": { "lat": 40.44062, "lon": -79.99589 }
    },
    {
      "facility": "UPMC-Shadyside Hospital",
      "status": "RECRUITING",
      "city": "Pittsburgh",
      "state": "Pennsylvania",
      "zip": "15232",
      "country": "United States",
      "contacts": [
        {
          "name": "Site Public Contact",
          "role": "CONTACT",
          "phone": "412-621-2334"
        },
        { "name": "Benjamin J. Davies", "role": "PRINCIPAL_INVESTIGATOR" }
      ],
      "geoPoint": { "lat": 40.44062, "lon": -79.99589 }
    },
    {
      "facility": "Geisinger Wyoming Valley/Henry Cancer Center",
      "status": "RECRUITING",
      "city": "Wilkes-Barre",
      "state": "Pennsylvania",
      "zip": "18711",
      "country": "United States",
      "contacts": [
        {
          "name": "Site Public Contact",
          "role": "CONTACT",
          "phone": "570-271-5251",
          "email": "HemonCCTrials@geisinger.edu"
        },
        { "name": "Ahmad Hanif", "role": "PRINCIPAL_INVESTIGATOR" }
      ],
      "geoPoint": { "lat": 41.24591, "lon": -75.88131 }
    },
    {
      "facility": "WellSpan Health-York Cancer Center",
      "status": "RECRUITING",
      "city": "York",
      "state": "Pennsylvania",
      "zip": "17403",
      "country": "United States",
      "contacts": [
        {
          "name": "Site Public Contact",
          "role": "CONTACT",
          "phone": "877-441-7957"
        },
        { "name": "Sherif F. Yacoub", "role": "PRINCIPAL_INVESTIGATOR" }
      ],
      "geoPoint": { "lat": 39.9626, "lon": -76.72774 }
    },
    {
      "facility": "Prisma Health Cancer Institute - Spartanburg",
      "status": "RECRUITING",
      "city": "Boiling Springs",
      "state": "South Carolina",
      "zip": "29316",
      "country": "United States",
      "contacts": [
        {
          "name": "Site Public Contact",
          "role": "CONTACT",
          "phone": "864-241-6251"
        },
        { "name": "Ki Y. Chung", "role": "PRINCIPAL_INVESTIGATOR" }
      ],
      "geoPoint": { "lat": 35.04651, "lon": -81.98177 }
    },
    {
      "facility": "Medical University of South Carolina",
      "status": "RECRUITING",
      "city": "Charleston",
      "state": "South Carolina",
      "zip": "29425",
      "country": "United States",
      "contacts": [
        {
          "name": "Site Public Contact",
          "role": "CONTACT",
          "phone": "843-792-9321",
          "email": "hcc-clinical-trials@musc.edu"
        },
        { "name": "David T. Marshall", "role": "PRINCIPAL_INVESTIGATOR" }
      ],
      "geoPoint": { "lat": 32.77632, "lon": -79.93275 }
    },
    {
      "facility": "Prisma Health Cancer Institute - Faris",
      "status": "RECRUITING",
      "city": "Greenville",
      "state": "South Carolina",
      "zip": "29605",
      "country": "United States",
      "contacts": [
        {
          "name": "Site Public Contact",
          "role": "CONTACT",
          "phone": "864-241-6251"
        },
        { "name": "Ki Y. Chung", "role": "PRINCIPAL_INVESTIGATOR" }
      ],
      "geoPoint": { "lat": 34.85262, "lon": -82.39401 }
    },
    {
      "facility": "Saint Francis Cancer Center",
      "status": "RECRUITING",
      "city": "Greenville",
      "state": "South Carolina",
      "zip": "29607",
      "country": "United States",
      "contacts": [
        {
          "name": "Site Public Contact",
          "role": "CONTACT",
          "phone": "864-603-6213",
          "email": "melissa_beckman@bshsi.org"
        },
        { "name": "Jennifer Vogel", "role": "PRINCIPAL_INVESTIGATOR" }
      ],
      "geoPoint": { "lat": 34.85262, "lon": -82.39401 }
    },
    {
      "facility": "Prisma Health Cancer Institute - Eastside",
      "status": "RECRUITING",
      "city": "Greenville",
      "state": "South Carolina",
      "zip": "29615",
      "country": "United States",
      "contacts": [
        {
          "name": "Site Public Contact",
          "role": "CONTACT",
          "phone": "864-241-6251"
        },
        { "name": "Ki Y. Chung", "role": "PRINCIPAL_INVESTIGATOR" }
      ],
      "geoPoint": { "lat": 34.85262, "lon": -82.39401 }
    },
    {
      "facility": "Prisma Health Cancer Institute - Greer",
      "status": "RECRUITING",
      "city": "Greer",
      "state": "South Carolina",
      "zip": "29650",
      "country": "United States",
      "contacts": [
        {
          "name": "Site Public Contact",
          "role": "CONTACT",
          "phone": "864-241-6251"
        },
        { "name": "Ki Y. Chung", "role": "PRINCIPAL_INVESTIGATOR" }
      ],
      "geoPoint": { "lat": 34.93873, "lon": -82.22706 }
    },
    {
      "facility": "Carolina Regional Cancer Center",
      "status": "RECRUITING",
      "city": "Myrtle Beach",
      "state": "South Carolina",
      "zip": "29577",
      "country": "United States",
      "contacts": [
        {
          "name": "Site Public Contact",
          "role": "CONTACT",
          "phone": "877-460-2657"
        },
        { "name": "Frank A. Vicini", "role": "PRINCIPAL_INVESTIGATOR" }
      ],
      "geoPoint": { "lat": 33.68906, "lon": -78.88669 }
    },
    {
      "facility": "Rock Hill Radiation Therapy Center",
      "status": "RECRUITING",
      "city": "Rock Hill",
      "state": "South Carolina",
      "zip": "29730",
      "country": "United States",
      "contacts": [
        {
          "name": "Site Public Contact",
          "role": "CONTACT",
          "phone": "800-804-9376"
        },
        { "name": "Earle F. Burgess", "role": "PRINCIPAL_INVESTIGATOR" }
      ],
      "geoPoint": { "lat": 34.92487, "lon": -81.02508 }
    },
    {
      "facility": "Levine Cancer Institute-Rock Hill",
      "status": "RECRUITING",
      "city": "Rock Hill",
      "state": "South Carolina",
      "zip": "29732",
      "country": "United States",
      "contacts": [
        {
          "name": "Site Public Contact",
          "role": "CONTACT",
          "phone": "800-804-9376"
        },
        { "name": "Earle F. Burgess", "role": "PRINCIPAL_INVESTIGATOR" }
      ],
      "geoPoint": { "lat": 34.92487, "lon": -81.02508 }
    },
    {
      "facility": "Prisma Health Cancer Institute - Seneca",
      "status": "RECRUITING",
      "city": "Seneca",
      "state": "South Carolina",
      "zip": "29672",
      "country": "United States",
      "contacts": [
        {
          "name": "Site Public Contact",
          "role": "CONTACT",
          "phone": "864-241-6251"
        },
        { "name": "Ki Y. Chung", "role": "PRINCIPAL_INVESTIGATOR" }
      ],
      "geoPoint": { "lat": 34.68566, "lon": -82.9532 }
    },
    {
      "facility": "Vanderbilt University/Ingram Cancer Center",
      "status": "RECRUITING",
      "city": "Nashville",
      "state": "Tennessee",
      "zip": "37232",
      "country": "United States",
      "contacts": [
        {
          "name": "Site Public Contact",
          "role": "CONTACT",
          "phone": "800-811-8480"
        },
        { "name": "Kerry R. Schaffer", "role": "PRINCIPAL_INVESTIGATOR" }
      ],
      "geoPoint": { "lat": 36.16589, "lon": -86.78444 }
    },
    {
      "facility": "MD Anderson in The Woodlands",
      "status": "RECRUITING",
      "city": "Conroe",
      "state": "Texas",
      "zip": "77384",
      "country": "United States",
      "contacts": [
        {
          "name": "Site Public Contact",
          "role": "CONTACT",
          "phone": "866-632-6789",
          "email": "askmdanderson@mdanderson.org"
        },
        { "name": "Brian F. Chapin", "role": "PRINCIPAL_INVESTIGATOR" }
      ],
      "geoPoint": { "lat": 30.31188, "lon": -95.45605 }
    },
    {
      "facility": "Parkland Memorial Hospital",
      "status": "RECRUITING",
      "city": "Dallas",
      "state": "Texas",
      "zip": "75235",
      "country": "United States",
      "contacts": [
        {
          "name": "Site Public Contact",
          "role": "CONTACT",
          "phone": "214-590-5582",
          "email": "canceranswerline@UTSouthwestern.edu"
        },
        { "name": "Suzanne M. Cole", "role": "PRINCIPAL_INVESTIGATOR" }
      ],
      "geoPoint": { "lat": 32.78306, "lon": -96.80667 }
    },
    {
      "facility": "UT Southwestern Simmons Cancer Center - RedBird",
      "status": "RECRUITING",
      "city": "Dallas",
      "state": "Texas",
      "zip": "75237",
      "country": "United States",
      "contacts": [
        {
          "name": "Site Public Contact",
          "role": "CONTACT",
          "phone": "214-648-7097",
          "email": "canceranswerline@utsouthwestern.edu"
        },
        { "name": "Suzanne M. Cole", "role": "PRINCIPAL_INVESTIGATOR" }
      ],
      "geoPoint": { "lat": 32.78306, "lon": -96.80667 }
    },
    {
      "facility": "UT Southwestern/Simmons Cancer Center-Dallas",
      "status": "RECRUITING",
      "city": "Dallas",
      "state": "Texas",
      "zip": "75390",
      "country": "United States",
      "contacts": [
        {
          "name": "Site Public Contact",
          "role": "CONTACT",
          "phone": "214-648-7097",
          "email": "canceranswerline@UTSouthwestern.edu"
        },
        { "name": "Suzanne M. Cole", "role": "PRINCIPAL_INVESTIGATOR" }
      ],
      "geoPoint": { "lat": 32.78306, "lon": -96.80667 }
    },
    {
      "facility": "UT Southwestern/Simmons Cancer Center-Fort Worth",
      "status": "RECRUITING",
      "city": "Fort Worth",
      "state": "Texas",
      "zip": "76104",
      "country": "United States",
      "contacts": [
        {
          "name": "Site Public Contact",
          "role": "CONTACT",
          "phone": "214-648-7097",
          "email": "canceranswerline@UTSouthwestern.edu"
        },
        { "name": "Suzanne M. Cole", "role": "PRINCIPAL_INVESTIGATOR" }
      ],
      "geoPoint": { "lat": 32.72541, "lon": -97.32085 }
    },
    {
      "facility": "Lyndon Baines Johnson General Hospital",
      "status": "RECRUITING",
      "city": "Houston",
      "state": "Texas",
      "zip": "77026-1967",
      "country": "United States",
      "contacts": [
        {
          "name": "Site Public Contact",
          "role": "CONTACT",
          "phone": "713-566-5000"
        },
        { "name": "Brian F. Chapin", "role": "PRINCIPAL_INVESTIGATOR" }
      ],
      "geoPoint": { "lat": 29.76328, "lon": -95.36327 }
    },
    {
      "facility": "Baylor College of Medicine/Dan L Duncan Comprehensive Cancer Center",
      "status": "RECRUITING",
      "city": "Houston",
      "state": "Texas",
      "zip": "77030",
      "country": "United States",
      "contacts": [
        {
          "name": "Site Public Contact",
          "role": "CONTACT",
          "phone": "713-798-1354",
          "email": "burton@bcm.edu"
        },
        { "name": "Martha P. Mims", "role": "PRINCIPAL_INVESTIGATOR" }
      ],
      "geoPoint": { "lat": 29.76328, "lon": -95.36327 }
    },
    {
      "facility": "Ben Taub General Hospital",
      "status": "RECRUITING",
      "city": "Houston",
      "state": "Texas",
      "zip": "77030",
      "country": "United States",
      "contacts": [
        {
          "name": "Site Public Contact",
          "role": "CONTACT",
          "phone": "713-873-2000"
        },
        { "name": "Martha P. Mims", "role": "PRINCIPAL_INVESTIGATOR" }
      ],
      "geoPoint": { "lat": 29.76328, "lon": -95.36327 }
    },
    {
      "facility": "Houston Methodist Hospital",
      "status": "ACTIVE_NOT_RECRUITING",
      "city": "Houston",
      "state": "Texas",
      "zip": "77030",
      "country": "United States",
      "geoPoint": { "lat": 29.76328, "lon": -95.36327 }
    },
    {
      "facility": "M D Anderson Cancer Center",
      "status": "RECRUITING",
      "city": "Houston",
      "state": "Texas",
      "zip": "77030",
      "country": "United States",
      "contacts": [
        {
          "name": "Site Public Contact",
          "role": "CONTACT",
          "phone": "877-632-6789",
          "email": "askmdanderson@mdanderson.org"
        },
        { "name": "Brian F. Chapin", "role": "PRINCIPAL_INVESTIGATOR" }
      ],
      "geoPoint": { "lat": 29.76328, "lon": -95.36327 }
    },
    {
      "facility": "Michael E DeBakey VA Medical Center",
      "status": "RECRUITING",
      "city": "Houston",
      "state": "Texas",
      "zip": "77030",
      "country": "United States",
      "contacts": [
        {
          "name": "Site Public Contact",
          "role": "CONTACT",
          "phone": "800-553-2278"
        },
        { "name": "Aihua E. Yen", "role": "PRINCIPAL_INVESTIGATOR" }
      ],
      "geoPoint": { "lat": 29.76328, "lon": -95.36327 }
    },
    {
      "facility": "MD Anderson West Houston",
      "status": "RECRUITING",
      "city": "Houston",
      "state": "Texas",
      "zip": "77079",
      "country": "United States",
      "contacts": [
        {
          "name": "Site Public Contact",
          "role": "CONTACT",
          "phone": "877-632-6789",
          "email": "askmdanderson@mdanderson.org"
        },
        { "name": "Brian F. Chapin", "role": "PRINCIPAL_INVESTIGATOR" }
      ],
      "geoPoint": { "lat": 29.76328, "lon": -95.36327 }
    },
    {
      "facility": "MD Anderson League City",
      "status": "RECRUITING",
      "city": "League City",
      "state": "Texas",
      "zip": "77573",
      "country": "United States",
      "contacts": [
        {
          "name": "Site Public Contact",
          "role": "CONTACT",
          "phone": "877-632-6789",
          "email": "askmdanderson@mdanderson.org"
        },
        { "name": "Brian F. Chapin", "role": "PRINCIPAL_INVESTIGATOR" }
      ],
      "geoPoint": { "lat": 29.50745, "lon": -95.09493 }
    },
    {
      "facility": "UT Southwestern Clinical Center at Richardson/Plano",
      "status": "RECRUITING",
      "city": "Richardson",
      "state": "Texas",
      "zip": "75080",
      "country": "United States",
      "contacts": [
        {
          "name": "Site Public Contact",
          "role": "CONTACT",
          "phone": "972-669-7044",
          "email": "Suzanne.cole@utsouthwestern.edu"
        },
        { "name": "Suzanne M. Cole", "role": "PRINCIPAL_INVESTIGATOR" }
      ],
      "geoPoint": { "lat": 32.94818, "lon": -96.72972 }
    },
    {
      "facility": "Audie L Murphy VA Hospital",
      "status": "RECRUITING",
      "city": "San Antonio",
      "state": "Texas",
      "zip": "78229",
      "country": "United States",
      "contacts": [
        {
          "name": "Site Public Contact",
          "role": "CONTACT",
          "phone": "877-469-5300"
        },
        { "name": "Michael A. Liss", "role": "PRINCIPAL_INVESTIGATOR" }
      ],
      "geoPoint": { "lat": 29.42412, "lon": -98.49363 }
    },
    {
      "facility": "University of Texas Health Science Center at San Antonio",
      "status": "ACTIVE_NOT_RECRUITING",
      "city": "San Antonio",
      "state": "Texas",
      "zip": "78229",
      "country": "United States",
      "geoPoint": { "lat": 29.42412, "lon": -98.49363 }
    },
    {
      "facility": "MD Anderson in Sugar Land",
      "status": "RECRUITING",
      "city": "Sugar Land",
      "state": "Texas",
      "zip": "77478",
      "country": "United States",
      "contacts": [
        {
          "name": "Site Public Contact",
          "role": "CONTACT",
          "phone": "877-632-6789",
          "email": "askmdanderson@mdanderson.org"
        },
        { "name": "Brian F. Chapin", "role": "PRINCIPAL_INVESTIGATOR" }
      ],
      "geoPoint": { "lat": 29.61968, "lon": -95.63495 }
    },
    {
      "facility": "Scott and White Memorial Hospital",
      "status": "ACTIVE_NOT_RECRUITING",
      "city": "Temple",
      "state": "Texas",
      "zip": "76508",
      "country": "United States",
      "geoPoint": { "lat": 31.09823, "lon": -97.34278 }
    },
    {
      "facility": "American Fork Hospital / Huntsman Intermountain Cancer Center",
      "status": "SUSPENDED",
      "city": "American Fork",
      "state": "Utah",
      "zip": "84003",
      "country": "United States",
      "geoPoint": { "lat": 40.3769, "lon": -111.79576 }
    },
    {
      "facility": "Sandra L Maxwell Cancer Center",
      "status": "SUSPENDED",
      "city": "Cedar City",
      "state": "Utah",
      "zip": "84720",
      "country": "United States",
      "geoPoint": { "lat": 37.67748, "lon": -113.06189 }
    },
    {
      "facility": "Logan Regional Hospital",
      "status": "SUSPENDED",
      "city": "Logan",
      "state": "Utah",
      "zip": "84321",
      "country": "United States",
      "geoPoint": { "lat": 41.73549, "lon": -111.83439 }
    },
    {
      "facility": "Intermountain Medical Center",
      "status": "SUSPENDED",
      "city": "Murray",
      "state": "Utah",
      "zip": "84107",
      "country": "United States",
      "geoPoint": { "lat": 40.66689, "lon": -111.88799 }
    },
    {
      "facility": "McKay-Dee Hospital Center",
      "status": "SUSPENDED",
      "city": "Ogden",
      "state": "Utah",
      "zip": "84403",
      "country": "United States",
      "geoPoint": { "lat": 41.223, "lon": -111.97383 }
    },
    {
      "facility": "Utah Valley Regional Medical Center",
      "status": "SUSPENDED",
      "city": "Provo",
      "state": "Utah",
      "zip": "84604",
      "country": "United States",
      "geoPoint": { "lat": 40.23384, "lon": -111.65853 }
    },
    {
      "facility": "Riverton Hospital",
      "status": "SUSPENDED",
      "city": "Riverton",
      "state": "Utah",
      "zip": "84065",
      "country": "United States",
      "geoPoint": { "lat": 40.52189, "lon": -111.9391 }
    },
    {
      "facility": "University of Utah Sugarhouse Health Center",
      "status": "RECRUITING",
      "city": "Salt Lake City",
      "state": "Utah",
      "zip": "84106",
      "country": "United States",
      "contacts": [
        {
          "name": "Site Public Contact",
          "role": "CONTACT",
          "phone": "888-424-2100",
          "email": "cancerinfo@hci.utah.edu"
        },
        { "name": "Alejandro Sanchez", "role": "PRINCIPAL_INVESTIGATOR" }
      ],
      "geoPoint": { "lat": 40.76078, "lon": -111.89105 }
    },
    {
      "facility": "Utah Cancer Specialists-Salt Lake City",
      "status": "SUSPENDED",
      "city": "Salt Lake City",
      "state": "Utah",
      "zip": "84106",
      "country": "United States",
      "geoPoint": { "lat": 40.76078, "lon": -111.89105 }
    },
    {
      "facility": "Huntsman Cancer Institute/University of Utah",
      "status": "RECRUITING",
      "city": "Salt Lake City",
      "state": "Utah",
      "zip": "84112",
      "country": "United States",
      "contacts": [
        {
          "name": "Site Public Contact",
          "role": "CONTACT",
          "phone": "888-424-2100",
          "email": "cancerinfo@hci.utah.edu"
        },
        { "name": "Alejandro Sanchez", "role": "PRINCIPAL_INVESTIGATOR" }
      ],
      "geoPoint": { "lat": 40.76078, "lon": -111.89105 }
    },
    {
      "facility": "LDS Hospital",
      "status": "SUSPENDED",
      "city": "Salt Lake City",
      "state": "Utah",
      "zip": "84143",
      "country": "United States",
      "geoPoint": { "lat": 40.76078, "lon": -111.89105 }
    },
    {
      "facility": "George E Wahlen Department of Veterans Affairs Medical Center",
      "status": "RECRUITING",
      "city": "Salt Lake City",
      "state": "Utah",
      "zip": "84148",
      "country": "United States",
      "contacts": [
        {
          "name": "Site Public Contact",
          "role": "CONTACT",
          "phone": "801-582-1565"
        },
        { "name": "Sumati V. Gupta", "role": "PRINCIPAL_INVESTIGATOR" }
      ],
      "geoPoint": { "lat": 40.76078, "lon": -111.89105 }
    },
    {
      "facility": "Saint George Regional Medical Center",
      "status": "SUSPENDED",
      "city": "St. George",
      "state": "Utah",
      "zip": "84770",
      "country": "United States",
      "geoPoint": { "lat": 37.10415, "lon": -113.58412 }
    },
    {
      "facility": "Central Vermont Medical Center/National Life Cancer Treatment",
      "status": "RECRUITING",
      "city": "Berlin Corners",
      "state": "Vermont",
      "zip": "05602",
      "country": "United States",
      "contacts": [
        {
          "name": "Site Public Contact",
          "role": "CONTACT",
          "phone": "802-225-5400"
        },
        {
          "name": "Nataniel H. Lester-Coll",
          "role": "PRINCIPAL_INVESTIGATOR"
        }
      ],
      "geoPoint": { "lat": 44.21006, "lon": -72.57594 }
    },
    {
      "facility": "University of Vermont Medical Center",
      "status": "RECRUITING",
      "city": "Burlington",
      "state": "Vermont",
      "zip": "05401",
      "country": "United States",
      "contacts": [
        {
          "name": "Site Public Contact",
          "role": "CONTACT",
          "phone": "802-656-4101",
          "email": "rpo@uvm.edu"
        },
        {
          "name": "Nataniel H. Lester-Coll",
          "role": "PRINCIPAL_INVESTIGATOR"
        }
      ],
      "geoPoint": { "lat": 44.47588, "lon": -73.21207 }
    },
    {
      "facility": "Bon Secours Saint Francis Medical Center",
      "status": "RECRUITING",
      "city": "Midlothian",
      "state": "Virginia",
      "zip": "23114",
      "country": "United States",
      "contacts": [
        {
          "name": "Site Public Contact",
          "role": "CONTACT",
          "phone": "804-893-8978",
          "email": "anne_carmellat@bshsi.org"
        },
        { "name": "William J. Irvin", "role": "PRINCIPAL_INVESTIGATOR" }
      ],
      "geoPoint": { "lat": 37.50598, "lon": -77.64916 }
    },
    {
      "facility": "Bon Secours Cancer Institute at Reynolds Crossing",
      "status": "RECRUITING",
      "city": "Richmond",
      "state": "Virginia",
      "zip": "23230",
      "country": "United States",
      "contacts": [
        {
          "name": "Site Public Contact",
          "role": "CONTACT",
          "phone": "804-893-8978",
          "email": "Anne_caramella@bshsi.org"
        },
        { "name": "William J. Irvin", "role": "PRINCIPAL_INVESTIGATOR" }
      ],
      "geoPoint": { "lat": 37.55376, "lon": -77.46026 }
    },
    {
      "facility": "VCU Massey Cancer Center at Stony Point",
      "status": "RECRUITING",
      "city": "Richmond",
      "state": "Virginia",
      "zip": "23235",
      "country": "United States",
      "contacts": [
        {
          "name": "Site Public Contact",
          "role": "CONTACT",
          "email": "ctoclinops@vcu.edu"
        },
        { "name": "Asit K. Paul", "role": "PRINCIPAL_INVESTIGATOR" }
      ],
      "geoPoint": { "lat": 37.55376, "lon": -77.46026 }
    },
    {
      "facility": "Virginia Commonwealth University/Massey Cancer Center",
      "status": "RECRUITING",
      "city": "Richmond",
      "state": "Virginia",
      "zip": "23298",
      "country": "United States",
      "contacts": [
        {
          "name": "Site Public Contact",
          "role": "CONTACT",
          "email": "CTOclinops@vcu.edu"
        },
        { "name": "Asit K. Paul", "role": "PRINCIPAL_INVESTIGATOR" }
      ],
      "geoPoint": { "lat": 37.55376, "lon": -77.46026 }
    },
    {
      "facility": "VCU Community Memorial Health Center",
      "status": "RECRUITING",
      "city": "South Hill",
      "state": "Virginia",
      "zip": "23970",
      "country": "United States",
      "contacts": [
        {
          "name": "Site Public Contact",
          "role": "CONTACT",
          "email": "nemer.elmouallem@vcuhealth.org"
        },
        { "name": "Asit K. Paul", "role": "PRINCIPAL_INVESTIGATOR" }
      ],
      "geoPoint": { "lat": 36.72653, "lon": -78.12889 }
    },
    {
      "facility": "FHCC Overlake",
      "status": "RECRUITING",
      "city": "Bellevue",
      "state": "Washington",
      "zip": "98004",
      "country": "United States",
      "contacts": [
        {
          "name": "Site Public Contact",
          "role": "CONTACT",
          "phone": "425-454-2148"
        },
        { "name": "Jason Comer", "role": "PRINCIPAL_INVESTIGATOR" }
      ],
      "geoPoint": { "lat": 47.61038, "lon": -122.20068 }
    },
    {
      "facility": "Seattle Cancer Care Alliance at EvergreenHealth",
      "status": "RECRUITING",
      "city": "Kirkland",
      "state": "Washington",
      "zip": "98034",
      "country": "United States",
      "contacts": [
        {
          "name": "Site Public Contact",
          "role": "CONTACT",
          "phone": "425-899-6000"
        },
        { "name": "Eric W. Dean", "role": "PRINCIPAL_INVESTIGATOR" }
      ],
      "geoPoint": { "lat": 47.68149, "lon": -122.20874 }
    },
    {
      "facility": "FHCC South Lake Union",
      "status": "RECRUITING",
      "city": "Seattle",
      "state": "Washington",
      "zip": "98109",
      "country": "United States",
      "contacts": [
        {
          "name": "Site Public Contact",
          "role": "CONTACT",
          "phone": "800-804-8824"
        },
        { "name": "Daniel W. Lin", "role": "PRINCIPAL_INVESTIGATOR" }
      ],
      "geoPoint": { "lat": 47.60621, "lon": -122.33207 }
    },
    {
      "facility": "FHCC at Northwest Hospital",
      "status": "RECRUITING",
      "city": "Seattle",
      "state": "Washington",
      "zip": "98133",
      "country": "United States",
      "contacts": [
        {
          "name": "Site Public Contact",
          "role": "CONTACT",
          "phone": "206-606-5800"
        },
        { "name": "Nikhil V. Kamat", "role": "PRINCIPAL_INVESTIGATOR" }
      ],
      "geoPoint": { "lat": 47.60621, "lon": -122.33207 }
    },
    {
      "facility": "University of Washington Medical Center - Montlake",
      "status": "RECRUITING",
      "city": "Seattle",
      "state": "Washington",
      "zip": "98195",
      "country": "United States",
      "contacts": [
        {
          "name": "Site Public Contact",
          "role": "CONTACT",
          "phone": "800-804-8824"
        },
        { "name": "Daniel W. Lin", "role": "PRINCIPAL_INVESTIGATOR" }
      ],
      "geoPoint": { "lat": 47.60621, "lon": -122.33207 }
    },
    {
      "facility": "Legacy Salmon Creek Hospital",
      "status": "ACTIVE_NOT_RECRUITING",
      "city": "Vancouver",
      "state": "Washington",
      "zip": "98686",
      "country": "United States",
      "geoPoint": { "lat": 45.63873, "lon": -122.66149 }
    },
    {
      "facility": "West Virginia University Healthcare",
      "status": "RECRUITING",
      "city": "Morgantown",
      "state": "West Virginia",
      "zip": "26506",
      "country": "United States",
      "contacts": [
        {
          "name": "Site Public Contact",
          "role": "CONTACT",
          "phone": "304-293-7374",
          "email": "cancertrialsinfo@hsc.wvu.edu"
        },
        { "name": "Danh C. Pham", "role": "PRINCIPAL_INVESTIGATOR" }
      ],
      "geoPoint": { "lat": 39.62953, "lon": -79.9559 }
    },
    {
      "facility": "Langlade Hospital and Cancer Center",
      "status": "RECRUITING",
      "city": "Antigo",
      "state": "Wisconsin",
      "zip": "54409",
      "country": "United States",
      "contacts": [
        {
          "name": "Site Public Contact",
          "role": "CONTACT",
          "phone": "715-623-9869",
          "email": "Juli.Alford@aspirus.org"
        },
        {
          "name": "Christopher S. Platta",
          "role": "PRINCIPAL_INVESTIGATOR"
        }
      ],
      "geoPoint": { "lat": 45.14025, "lon": -89.15234 }
    },
    {
      "facility": "Marshfield Medical Center-EC Cancer Center",
      "status": "RECRUITING",
      "city": "Eau Claire",
      "state": "Wisconsin",
      "zip": "54701",
      "country": "United States",
      "contacts": [
        {
          "name": "Site Public Contact",
          "role": "CONTACT",
          "phone": "800-782-8581",
          "email": "oncology.clinical.trials@marshfieldresearch.org"
        },
        { "name": "Seth O. Fagbemi", "role": "PRINCIPAL_INVESTIGATOR" }
      ],
      "geoPoint": { "lat": 44.81135, "lon": -91.49849 }
    },
    {
      "facility": "Mayo Clinic Health System-Franciscan Healthcare",
      "status": "ACTIVE_NOT_RECRUITING",
      "city": "La Crosse",
      "state": "Wisconsin",
      "zip": "54601",
      "country": "United States",
      "geoPoint": { "lat": 43.80136, "lon": -91.23958 }
    },
    {
      "facility": "Marshfield Medical Center-Marshfield",
      "status": "RECRUITING",
      "city": "Marshfield",
      "state": "Wisconsin",
      "zip": "54449",
      "country": "United States",
      "contacts": [
        {
          "name": "Site Public Contact",
          "role": "CONTACT",
          "phone": "800-782-8581",
          "email": "oncology.clinical.trials@marshfieldresearch.org"
        },
        { "name": "Seth O. Fagbemi", "role": "PRINCIPAL_INVESTIGATOR" }
      ],
      "geoPoint": { "lat": 44.66885, "lon": -90.1718 }
    },
    {
      "facility": "Froedtert Menomonee Falls Hospital",
      "status": "RECRUITING",
      "city": "Menomonee Falls",
      "state": "Wisconsin",
      "zip": "53051",
      "country": "United States",
      "contacts": [
        {
          "name": "Site Public Contact",
          "role": "CONTACT",
          "phone": "262-257-5100"
        },
        { "name": "Scott Johnson", "role": "PRINCIPAL_INVESTIGATOR" }
      ],
      "geoPoint": { "lat": 43.1789, "lon": -88.11731 }
    },
    {
      "facility": "Medical College of Wisconsin",
      "status": "RECRUITING",
      "city": "Milwaukee",
      "state": "Wisconsin",
      "zip": "53226",
      "country": "United States",
      "contacts": [
        {
          "name": "Site Public Contact",
          "role": "CONTACT",
          "phone": "414-805-3666"
        },
        { "name": "Scott Johnson", "role": "PRINCIPAL_INVESTIGATOR" }
      ],
      "geoPoint": { "lat": 43.0389, "lon": -87.90647 }
    },
    {
      "facility": "Zablocki Veterans Administration Medical Center",
      "status": "RECRUITING",
      "city": "Milwaukee",
      "state": "Wisconsin",
      "zip": "53295",
      "country": "United States",
      "contacts": [
        {
          "name": "Site Public Contact",
          "role": "CONTACT",
          "phone": "888-469-6614"
        },
        { "name": "Elizabeth M. Gore", "role": "PRINCIPAL_INVESTIGATOR" }
      ],
      "geoPoint": { "lat": 43.0389, "lon": -87.90647 }
    },
    {
      "facility": "Marshfield Clinic-Minocqua Center",
      "status": "RECRUITING",
      "city": "Minocqua",
      "state": "Wisconsin",
      "zip": "54548",
      "country": "United States",
      "contacts": [
        {
          "name": "Site Public Contact",
          "role": "CONTACT",
          "phone": "800-782-8581",
          "email": "oncology.clinical.trials@marshfieldresearch.org"
        },
        { "name": "Seth O. Fagbemi", "role": "PRINCIPAL_INVESTIGATOR" }
      ],
      "geoPoint": { "lat": 45.87134, "lon": -89.71098 }
    },
    {
      "facility": "Cancer Center of Western Wisconsin",
      "status": "RECRUITING",
      "city": "New Richmond",
      "state": "Wisconsin",
      "zip": "54017",
      "country": "United States",
      "contacts": [
        {
          "name": "Site Public Contact",
          "role": "CONTACT",
          "phone": "952-993-1517",
          "email": "mmcorc@healthpartners.com"
        },
        { "name": "David M. King", "role": "PRINCIPAL_INVESTIGATOR" }
      ],
      "geoPoint": { "lat": 45.12302, "lon": -92.53659 }
    },
    {
      "facility": "Drexel Town Square Health Center",
      "status": "RECRUITING",
      "city": "Oak Creek",
      "state": "Wisconsin",
      "zip": "53154",
      "country": "United States",
      "contacts": [
        {
          "name": "Site Public Contact",
          "role": "CONTACT",
          "phone": "414-805-0505"
        },
        { "name": "Scott Johnson", "role": "PRINCIPAL_INVESTIGATOR" }
      ],
      "geoPoint": { "lat": 42.88585, "lon": -87.86314 }
    },
    {
      "facility": "Marshfield Medical Center-Rice Lake",
      "status": "RECRUITING",
      "city": "Rice Lake",
      "state": "Wisconsin",
      "zip": "54868",
      "country": "United States",
      "contacts": [
        {
          "name": "Site Public Contact",
          "role": "CONTACT",
          "phone": "800-782-8581",
          "email": "oncology.clinical.trials@marshfieldresearch.org"
        },
        { "name": "Seth O. Fagbemi", "role": "PRINCIPAL_INVESTIGATOR" }
      ],
      "geoPoint": { "lat": 45.50607, "lon": -91.73823 }
    },
    {
      "facility": "Ascension Saint Michael's Hospital",
      "status": "RECRUITING",
      "city": "Stevens Point",
      "state": "Wisconsin",
      "zip": "54481",
      "country": "United States",
      "contacts": [
        {
          "name": "Site Public Contact",
          "role": "CONTACT",
          "phone": "715-847-2353",
          "email": "Beth.Knetter@aspirus.org"
        },
        {
          "name": "Christopher S. Platta",
          "role": "PRINCIPAL_INVESTIGATOR"
        }
      ],
      "geoPoint": { "lat": 44.52358, "lon": -89.57456 }
    },
    {
      "facility": "Marshfield Medical Center-River Region at Stevens Point",
      "status": "RECRUITING",
      "city": "Stevens Point",
      "state": "Wisconsin",
      "zip": "54482",
      "country": "United States",
      "contacts": [
        {
          "name": "Site Public Contact",
          "role": "CONTACT",
          "phone": "800-782-8581",
          "email": "oncology.clinical.trials@marshfieldresearch.org"
        },
        { "name": "Seth O. Fagbemi", "role": "PRINCIPAL_INVESTIGATOR" }
      ],
      "geoPoint": { "lat": 44.52358, "lon": -89.57456 }
    },
    {
      "facility": "Aspirus Regional Cancer Center",
      "status": "RECRUITING",
      "city": "Wausau",
      "state": "Wisconsin",
      "zip": "54401",
      "country": "United States",
      "contacts": [
        {
          "name": "Site Public Contact",
          "role": "CONTACT",
          "phone": "877-405-6866"
        },
        {
          "name": "Christopher S. Platta",
          "role": "PRINCIPAL_INVESTIGATOR"
        }
      ],
      "geoPoint": { "lat": 44.95914, "lon": -89.63012 }
    },
    {
      "facility": "Froedtert West Bend Hospital/Kraemer Cancer Center",
      "status": "RECRUITING",
      "city": "West Bend",
      "state": "Wisconsin",
      "zip": "53095",
      "country": "United States",
      "contacts": [
        {
          "name": "Site Public Contact",
          "role": "CONTACT",
          "phone": "414-805-0505"
        },
        { "name": "Scott Johnson", "role": "PRINCIPAL_INVESTIGATOR" }
      ],
      "geoPoint": { "lat": 43.42528, "lon": -88.18343 }
    },
    {
      "facility": "Diagnostic and Treatment Center",
      "status": "RECRUITING",
      "city": "Weston",
      "state": "Wisconsin",
      "zip": "54476",
      "country": "United States",
      "contacts": [
        {
          "name": "Site Public Contact",
          "role": "CONTACT",
          "phone": "888-799-3989",
          "email": "oncology.clinical.trials@marshfieldresearch.org"
        },
        { "name": "Seth O. Fagbemi", "role": "PRINCIPAL_INVESTIGATOR" }
      ],
      "geoPoint": { "lat": 44.8908, "lon": -89.54762 }
    },
    {
      "facility": "Marshfield Medical Center - Weston",
      "status": "RECRUITING",
      "city": "Weston",
      "state": "Wisconsin",
      "zip": "54476",
      "country": "United States",
      "contacts": [
        {
          "name": "Site Public Contact",
          "role": "CONTACT",
          "phone": "800-782-8581",
          "email": "oncology.clinical.trials@marshfieldresearch.org"
        },
        { "name": "Seth O. Fagbemi", "role": "PRINCIPAL_INVESTIGATOR" }
      ],
      "geoPoint": { "lat": 44.8908, "lon": -89.54762 }
    },
    {
      "facility": "Aspirus Cancer Care - Wisconsin Rapids",
      "status": "RECRUITING",
      "city": "Wisconsin Rapids",
      "state": "Wisconsin",
      "zip": "54494",
      "country": "United States",
      "contacts": [
        {
          "name": "Site Public Contact",
          "role": "CONTACT",
          "phone": "715-422-7718"
        },
        {
          "name": "Christopher S. Platta",
          "role": "PRINCIPAL_INVESTIGATOR"
        }
      ],
      "geoPoint": { "lat": 44.38358, "lon": -89.81735 }
    },
    {
      "facility": "Instituto Nacional del Cancer",
      "status": "RECRUITING",
      "city": "Independence",
      "zip": "8380455",
      "country": "Chile",
      "contacts": [
        {
          "name": "Site Public Contact",
          "role": "CONTACT",
          "email": "info@incancer.cl"
        },
        {
          "name": "Annerleim Walton-diaz",
          "role": "PRINCIPAL_INVESTIGATOR"
        }
      ]
    },
    {
      "facility": "Instituto Nacional De Cancerologia",
      "status": "RECRUITING",
      "city": "Bogot",
      "zip": "99999",
      "country": "Colombia",
      "contacts": [
        {
          "name": "Site Public Contact",
          "role": "CONTACT",
          "phone": "57 1 3341111"
        },
        { "name": "Marino Cabrera", "role": "PRINCIPAL_INVESTIGATOR" }
      ],
      "geoPoint": { "lat": 4.60971, "lon": -74.08175 }
    },
    {
      "facility": "Instituto Nacional De Cancerologia de Mexico",
      "status": "RECRUITING",
      "city": "Mexico City",
      "state": "Tlalpan",
      "zip": "14080",
      "country": "Mexico",
      "contacts": [
        {
          "name": "Site Public Contact",
          "role": "CONTACT",
          "phone": "(52) 5628-0400"
        },
        {
          "name": "Miguel A. Jimenez-Rios",
          "role": "PRINCIPAL_INVESTIGATOR"
        }
      ],
      "geoPoint": { "lat": 19.42847, "lon": -99.12766 }
    },
    {
      "facility": "Kantonsspital Aarau",
      "status": "RECRUITING",
      "city": "Aarau",
      "zip": "5001",
      "country": "Switzerland",
      "contacts": [
        {
          "name": "Site Public Contact",
          "role": "CONTACT",
          "phone": "41 62 838 60 50"
        },
        { "name": "Oliver Riesterer", "role": "PRINCIPAL_INVESTIGATOR" }
      ],
      "geoPoint": { "lat": 47.39254, "lon": 8.04422 }
    }
  ],
  "key_inclusion_summary": [
    "Histologically or cytologically proven diagnosis of adenocarcinoma of the prostate.",
    "Must have evidence of metastatic disease.",
    "Must have an intact prostate with no prior local therapy for prostate cancer.",
    "Must have received between 22 and 28 weeks of standard systemic therapy (SST) without disease progression.",
    "Zubrod performance status of 0-1."
  ],
  "key_exclusion_summary": [
    "Pure small cell carcinoma, sarcomatoid, or squamous cell carcinoma.",
    "Known brain metastases.",
    "Prior malignancy unless disease free for three years (with exceptions).",
    "Evidence of disease progression during the initial 22-28 weeks of SST.",
    "Testosterone level must be < 50 ng/dL prior to randomization."
  ]
}
