{"protocolSection":{"identificationModule":{"nctId":"NCT04427384","orgStudyIdInfo":{"id":"GTM-101"},"organization":{"fullName":"GT Medical Technologies, Inc.","class":"INDUSTRY"},"briefTitle":"Registry of Patients With Brain Tumors Treated With STaRT (GammaTiles)","officialTitle":"A Multicenter Observational Study of GammaTileâ„¢ Surgically Targeted Radiation Therapy (STaRT) in Intracranial Brain Neoplasms"},"statusModule":{"statusVerifiedDate":"2025-10","overallStatus":"RECRUITING","expandedAccessInfo":{"hasExpandedAccess":false},"startDateStruct":{"date":"2020-09-11","type":"ACTUAL"},"primaryCompletionDateStruct":{"date":"2028-10-31","type":"ESTIMATED"},"completionDateStruct":{"date":"2028-12-31","type":"ESTIMATED"},"studyFirstSubmitDate":"2020-06-05","studyFirstSubmitQcDate":"2020-06-09","studyFirstPostDateStruct":{"date":"2020-06-11","type":"ACTUAL"},"lastUpdateSubmitDate":"2025-10-13","lastUpdatePostDateStruct":{"date":"2025-10-15","type":"ESTIMATED"}},"sponsorCollaboratorsModule":{"responsibleParty":{"type":"SPONSOR"},"leadSponsor":{"name":"GT Medical Technologies, Inc.","class":"INDUSTRY"}},"oversightModule":{"oversightHasDmc":false,"isFdaRegulatedDrug":false,"isFdaRegulatedDevice":true,"isUsExport":false},"descriptionModule":{"briefSummary":"The objectives of this registry study are to evaluate real-world clinical outcomes and patient reported outcomes that measure the effectiveness and safety of STaRT.","detailedDescription":"Patients (N=600) with surgically resected (R) brain tumors of any pathology who have undergone STaRT are eligible. Data collected will include local control, overall survival, QOL, neurocognition, functional decline, and surgical and radiation associated AE's. Data will be collected at 1, 3, 6, 9,12, 18 and 24 months, then every 6 months through 5 years. RESULT: Data will be used to benchmark clinical outcomes of STaRT therapy and allow for comparisons to existing standard-of-care treatments. This will be the first observational registry study of R+STaRT, delivered by Cs-131 sources in permanently implanted resorbable collagen tile carriers. The outcome measures captured will allow for evaluation of the potential risks and benefits of this treatment approach for patients in a real-world setting."},"conditionsModule":{"conditions":["Brain Tumor, Recurrent","Brain Tumor","Brain Tumor, Primary","Brain Tumor - Metastatic","Brain Tumor, Adult: Glioblastoma","Brain Tumor, Adult Meningioma"]},"designModule":{"studyType":"OBSERVATIONAL","patientRegistry":true,"targetDuration":"5 Years","designInfo":{"observationalModel":"COHORT","timePerspective":"PROSPECTIVE"},"enrollmentInfo":{"count":600,"type":"ESTIMATED"}},"armsInterventionsModule":{"armGroups":[{"label":"GammaTile","description":"Patients who have received permanent implants of GammaTile radiation therapy immediately following brain tumor resection.","interventionNames":["Device: GammaTile"]}],"interventions":[{"type":"DEVICE","name":"GammaTile","description":"Surgically Targeted Radiation Therapy","armGroupLabels":["GammaTile"]}]},"outcomesModule":{"primaryOutcomes":[{"measure":"Surgical Bed-Recurrence Free Survival in Metastatic Tumor Subjects","description":"No contrast enhancement in the area of the surgical bed","timeFrame":"12 months"},{"measure":"Surgical Bed-Recurrence Free Survival in Meningioma Tumor Subjects","description":"No contrast enhancement in the area of the surgical bed","timeFrame":"3 years"},{"measure":"Overall Survival in High Grade Glioma Subjects","description":"Median duration of survival of subjects following surgical resection of tumor","timeFrame":"9 months"}]},"eligibilityModule":{"eligibilityCriteria":"Inclusion Criteria:\n\n1. Patients who undergo maximum safe resection of intracranial neoplasm(s) AND implantation of GammaTiles.\n2. Willing and able to provide informed consent and to participate in all evaluations.\n\nExclusion Criteria:\n\n1. Inability to undergo pre-operative and post-operative imaging for disease and implant assessment.\n2. Major medical or psychiatric illness, which, in the investigator's opinion would prevent completion of treatment, ability to complete assessments at the time of enrollment, and/or interfere with follow ups.\n3. Subjects who, in the investigator's opinion, are unable to understand the protocol or to give informed consent, have a history of poor cooperation, noncompliance with medical treatment, or difficulty in returning for follow up care. A legally authorized representative may provide consent if the potential subject lacks the capacity to provide consent themselves.","healthyVolunteers":false,"sex":"ALL","stdAges":["CHILD","ADULT","OLDER_ADULT"],"studyPopulation":"Patients who received STaRT (GammaTile) intraoperatively.","samplingMethod":"NON_PROBABILITY_SAMPLE"},"contactsLocationsModule":{"centralContacts":[{"name":"Michael A. Garcia, MD, MS","role":"CONTACT","phone":"(833) 662-0044","email":"mgarcia@gtmedtech.com"},{"name":"Sita Patel, PhD, PharmD","role":"CONTACT","phone":"(833)662-0044","email":"spatel@gtmedtech.com"}],"overallOfficials":[{"name":"Michael A. Garcia, MD, MS","affiliation":"GT Medical Technologies","role":"STUDY_DIRECTOR"}],"locations":[{"facility":"HonorHeath Scottsdale Osborn Medical Center","status":"RECRUITING","city":"Phoenix","state":"Arizona","zip":"85027","country":"United States","contacts":[{"name":"John Wanebo, MD","role":"CONTACT"},{"name":"John Wanebo, MD","role":"PRINCIPAL_INVESTIGATOR"}],"geoPoint":{"lat":33.44838,"lon":-112.07404}},{"facility":"University of Arkansas Medical Center","status":"RECRUITING","city":"Little Rock","state":"Arkansas","zip":"72205","country":"United States","contacts":[{"name":"Analiz Rodriguez, MD, PhD","role":"CONTACT","phone":"501-296-1138"}],"geoPoint":{"lat":34.74648,"lon":-92.28959}},{"facility":"Eden Medical Center","status":"RECRUITING","city":"Castro Valley","state":"California","zip":"94546","country":"United States","contacts":[{"name":"Lawrence Dickinson, MD","role":"CONTACT","phone":"925-884-2360"},{"name":"Lawrence Dickinson, MD","role":"PRINCIPAL_INVESTIGATOR"}],"geoPoint":{"lat":37.6941,"lon":-122.08635}},{"facility":"UCSD Moores Cancer Center","status":"RECRUITING","city":"La Jolla","state":"California","zip":"92093","country":"United States","contacts":[{"name":"David Piccioni, MD, PhD","role":"CONTACT"},{"name":"David Piccioni, MD, PhD","role":"PRINCIPAL_INVESTIGATOR"}],"geoPoint":{"lat":32.84727,"lon":-117.2742}},{"facility":"MemorialCare Health System","status":"RECRUITING","city":"Laguna Hills","state":"California","zip":"92653","country":"United States","contacts":[{"name":"Linda Chan, MD","role":"CONTACT","phone":"562-933-0900","email":"lchan@memorialcare.org"},{"name":"Linda Chan, MD","role":"PRINCIPAL_INVESTIGATOR"}],"geoPoint":{"lat":33.61252,"lon":-117.71283}},{"facility":"Desert Regional Medical Center","status":"RECRUITING","city":"Palm Springs","state":"California","zip":"92262","country":"United States","contacts":[{"name":"Amir Lavaf, MD","role":"CONTACT","phone":"760-416-4770"},{"name":"Amir Lavaf, MD","role":"PRINCIPAL_INVESTIGATOR"}],"geoPoint":{"lat":33.8303,"lon":-116.54529}},{"facility":"California Pacific Medical Center, Sutter health","status":"RECRUITING","city":"San Francisco","state":"California","zip":"94109","country":"United States","contacts":[{"name":"Lewis Leng, MD","role":"CONTACT","phone":"415-600-0528"},{"name":"Lewis Leng, MD","role":"PRINCIPAL_INVESTIGATOR"}],"geoPoint":{"lat":37.77493,"lon":-122.41942}},{"facility":"Centura","status":"NOT_YET_RECRUITING","city":"Denver","state":"Colorado","zip":"80201","country":"United States","contacts":[{"name":"Angela Bohnen, MD","role":"CONTACT"}],"geoPoint":{"lat":39.73915,"lon":-104.9847}},{"facility":"Colorado Brain & Spine Institute: Swedish Campus","status":"RECRUITING","city":"Englewood","state":"Colorado","zip":"80113","country":"United States","contacts":[{"name":"Vadim Tsvankin, MD","role":"CONTACT","phone":"303-783-8844"}],"geoPoint":{"lat":39.64777,"lon":-104.98776}},{"facility":"BayCare Health","status":"RECRUITING","city":"Clearwater","state":"Florida","zip":"33756","country":"United States","contacts":[{"name":"Devon Haydon, MD","role":"CONTACT"}],"geoPoint":{"lat":27.96585,"lon":-82.8001}},{"facility":"Miami Cancer Institute, Baptist Health South Florida","status":"RECRUITING","city":"Miami","state":"Florida","zip":"33176","country":"United States","contacts":[{"name":"Rupesh Kotecha, MD","role":"CONTACT"}],"geoPoint":{"lat":25.77427,"lon":-80.19366}},{"facility":"Advent Health Orlando","status":"RECRUITING","city":"Orlando","state":"Florida","zip":"32803","country":"United States","contacts":[{"name":"Imran Mohiuddin, MD","role":"CONTACT","phone":"407-303-2030"},{"name":"Imran Mohiuddin, MD","role":"PRINCIPAL_INVESTIGATOR"}],"geoPoint":{"lat":28.53834,"lon":-81.37924}},{"facility":"Orlando Health","status":"RECRUITING","city":"Orlando","state":"Florida","zip":"32806","country":"United States","contacts":[{"name":"Catherine Mercado, MD","role":"CONTACT"}],"geoPoint":{"lat":28.53834,"lon":-81.37924}},{"facility":"Florida Health Sciences Center, Inc. d/b/a Tampa General Hospital","status":"RECRUITING","city":"Tampa","state":"Florida","zip":"33606","country":"United States","contacts":[{"name":"Tulika Ranjan, MD","role":"CONTACT"},{"role":"CONTACT","phone":"813-844-7585"}],"geoPoint":{"lat":27.94752,"lon":-82.45843}},{"facility":"Cleveland Clinic Florida- Weston","status":"RECRUITING","city":"Weston","state":"Florida","zip":"33331","country":"United States","contacts":[{"name":"Surabhi Ranjan, MD, FACP","role":"CONTACT","phone":"954-659-5670"},{"name":"Surabhi Ranjan, MD, FACP","role":"PRINCIPAL_INVESTIGATOR"}],"geoPoint":{"lat":26.10037,"lon":-80.39977}},{"facility":"Piedmont Healthcare","status":"RECRUITING","city":"Atlanta","state":"Georgia","zip":"30309","country":"United States","contacts":[{"name":"Adam Nowlan, MD","role":"CONTACT"}],"geoPoint":{"lat":33.749,"lon":-84.38798}},{"facility":"Winship Cancer Institute of Emory University","status":"RECRUITING","city":"Atlanta","state":"Georgia","zip":"30322","country":"United States","contacts":[{"name":"Kimberly Bojanowski","role":"CONTACT"}],"geoPoint":{"lat":33.749,"lon":-84.38798}},{"facility":"St. Alphonsus Regional Medical Center","status":"RECRUITING","city":"Boise","state":"Idaho","zip":"83704","country":"United States","contacts":[{"name":"Ondrej Choutka","role":"CONTACT"}],"geoPoint":{"lat":43.6135,"lon":-116.20345}},{"facility":"Indiana University, IU Health Methodist Hospital","status":"RECRUITING","city":"Indianapolis","state":"Indiana","zip":"46202","country":"United States","contacts":[{"name":"Mitesh Shah","role":"CONTACT"}],"geoPoint":{"lat":39.76838,"lon":-86.15804}},{"facility":"KUMC Dept of Neurosurgery","status":"RECRUITING","city":"Kansas City","state":"Kansas","zip":"66160","country":"United States","contacts":[{"name":"Kushal Shah","role":"CONTACT"}],"geoPoint":{"lat":39.11417,"lon":-94.62746}},{"facility":"Univeristy of Louisville Health","status":"RECRUITING","city":"Louisville","state":"Kentucky","zip":"40202","country":"United States","contacts":[{"name":"Akshitkumar Mistry, MD","role":"CONTACT","phone":"502-588-2160"},{"name":"Akshitkumar Mistry, MD","role":"PRINCIPAL_INVESTIGATOR"}],"geoPoint":{"lat":38.25424,"lon":-85.75941}},{"facility":"Norton Cancer Institute","status":"RECRUITING","city":"Louisville","state":"Kentucky","zip":"40241","country":"United States","contacts":[{"name":"Parag Sevak, MD","role":"CONTACT","email":"Parag.Sevak@nortonhealthcare.org"},{"name":"Parag Sevak, MD","role":"PRINCIPAL_INVESTIGATOR"}],"geoPoint":{"lat":38.25424,"lon":-85.75941}},{"facility":"Willis-Knighton Medical Center","status":"WITHDRAWN","city":"Shreveport","state":"Louisiana","zip":"71103","country":"United States","geoPoint":{"lat":32.52515,"lon":-93.75018}},{"facility":"Beth Israel Deaconess Medical Center","status":"RECRUITING","city":"Boston","state":"Massachusetts","zip":"02215","country":"United States","contacts":[{"name":"Stephen Duggan","role":"CONTACT"},{"name":"Rafael Vega, MD","role":"PRINCIPAL_INVESTIGATOR"}],"geoPoint":{"lat":42.35843,"lon":-71.05977}},{"facility":"Beth Israel Deaconess Medical Center","status":"RECRUITING","city":"Boston","state":"Massachusetts","zip":"02215","country":"United States","contacts":[{"name":"Rafael Vega, MD","role":"CONTACT","email":"rvega@bidmc.harvard.edu"},{"name":"Rafael Vega, MD","role":"PRINCIPAL_INVESTIGATOR"}],"geoPoint":{"lat":42.35843,"lon":-71.05977}},{"facility":"Henry Ford Health System","status":"RECRUITING","city":"Detroit","state":"Michigan","zip":"48202","country":"United States","contacts":[{"name":"Adam M Robin, MD","role":"CONTACT"}],"geoPoint":{"lat":42.33143,"lon":-83.04575}},{"facility":"Abbott Northwestern Hospital","status":"RECRUITING","city":"Minneapolis","state":"Minnesota","zip":"55407","country":"United States","contacts":[{"name":"John Trusheim, MD","role":"CONTACT"}],"geoPoint":{"lat":44.97997,"lon":-93.26384}},{"facility":"University of Minnesota","status":"RECRUITING","city":"Minneapolis","state":"Minnesota","zip":"55414","country":"United States","contacts":[{"name":"Lindsey Sloan, MD, PhD","role":"CONTACT"},{"name":"Lindsey Sloan, MD, PhD","role":"PRINCIPAL_INVESTIGATOR"}],"geoPoint":{"lat":44.97997,"lon":-93.26384}},{"facility":"University of Nebraska","status":"RECRUITING","city":"Omaha","state":"Nebraska","zip":"68198","country":"United States","contacts":[{"name":"Michele Aizenberg, MD","role":"CONTACT","phone":"402-559-6704"}],"geoPoint":{"lat":41.25626,"lon":-95.94043}},{"facility":"Clinical Research dep. Davison Place. Englewood Health","status":"NOT_YET_RECRUITING","city":"Englewood","state":"New Jersey","zip":"07631","country":"United States","contacts":[{"name":"Kevin Yao, MD","role":"CONTACT"},{"name":"Dubin David, MD","role":"CONTACT"}],"geoPoint":{"lat":40.89288,"lon":-73.97264}},{"facility":"Albany Medical Center","status":"RECRUITING","city":"Albany","state":"New York","zip":"12208","country":"United States","contacts":[{"name":"Tuba Ahmed","role":"CONTACT","phone":"518-262-5088"},{"name":"Alexandra Paul, MD","role":"PRINCIPAL_INVESTIGATOR"}],"geoPoint":{"lat":42.65258,"lon":-73.75623}},{"facility":"Mount Sinai Hospital","status":"ACTIVE_NOT_RECRUITING","city":"New York","state":"New York","zip":"10029","country":"United States","geoPoint":{"lat":40.71427,"lon":-74.00597}},{"facility":"SUNY Upstate Medical Center","status":"RECRUITING","city":"Syracuse","state":"New York","zip":"13210","country":"United States","contacts":[{"name":"Harish Babu, MD","role":"CONTACT","phone":"315-464-4470"},{"name":"Harish Babu, MD","role":"PRINCIPAL_INVESTIGATOR"}],"geoPoint":{"lat":43.04812,"lon":-76.14742}},{"facility":"Montefiore Einstein","status":"RECRUITING","city":"The Bronx","state":"New York","zip":"10467","country":"United States","contacts":[{"name":"Genesis Liriano","role":"CONTACT","phone":"718-920-4321"},{"name":"Vijay Agarwal, MD","role":"PRINCIPAL_INVESTIGATOR"}],"geoPoint":{"lat":40.84985,"lon":-73.86641}},{"facility":"Westchester Medical Center","status":"RECRUITING","city":"Valhalla","state":"New York","zip":"10595","country":"United States","contacts":[{"name":"Simon Hanft","role":"CONTACT"}],"geoPoint":{"lat":41.07482,"lon":-73.77513}},{"facility":"University of North Carolina Health","status":"RECRUITING","city":"Chapel Hill","state":"North Carolina","zip":"27599","country":"United States","contacts":[{"name":"Colette Shen, MD","role":"CONTACT"}],"geoPoint":{"lat":35.9132,"lon":-79.05584}},{"facility":"Vidant Heath - ECU Medical Center","status":"RECRUITING","city":"Greenville","state":"North Carolina","zip":"27834","country":"United States","contacts":[{"name":"Stuart Lee, MD","role":"CONTACT","phone":"252-847-1550"}],"geoPoint":{"lat":35.61266,"lon":-77.36635}},{"facility":"Atlantic Brain & Spine","status":"RECRUITING","city":"Wilmington","state":"North Carolina","zip":"28401","country":"United States","contacts":[{"name":"Bridgette Smith","role":"CONTACT","email":"b.smith@atlanticbrainandspine.com"},{"name":"Jeffrey Beecher, DO","role":"PRINCIPAL_INVESTIGATOR"}],"geoPoint":{"lat":34.23556,"lon":-77.94604}},{"facility":"Mayfield Brain and Spine","status":"RECRUITING","city":"Cincinnati","state":"Ohio","zip":"45209","country":"United States","contacts":[{"name":"Vincent DiNapoli, MD","role":"CONTACT","phone":"513-888-7564"}],"geoPoint":{"lat":39.12711,"lon":-84.51439}},{"facility":"Kettering Health","status":"RECRUITING","city":"Kettering","state":"Ohio","zip":"45429","country":"United States","contacts":[{"name":"Mark Hoeprich, MD","role":"CONTACT","phone":"937-298-4331"},{"name":"Mark Hoeprich, MD","role":"PRINCIPAL_INVESTIGATOR"}],"geoPoint":{"lat":39.6895,"lon":-84.16883}},{"facility":"St Luke's University Health, Sacred Heart Campus","status":"RECRUITING","city":"Allentown","state":"Pennsylvania","zip":"18102","country":"United States","contacts":[{"name":"William Smith, MD","role":"CONTACT"},{"name":"William Smith, MD","role":"PRINCIPAL_INVESTIGATOR"}],"geoPoint":{"lat":40.60843,"lon":-75.49018}},{"facility":"Penn State Health","status":"RECRUITING","city":"Hershey","state":"Pennsylvania","zip":"17033","country":"United States","contacts":[{"name":"Rachel Horstman","role":"CONTACT"},{"name":"Sean Mahase, MD","role":"PRINCIPAL_INVESTIGATOR"}],"geoPoint":{"lat":40.28592,"lon":-76.65025}},{"facility":"Allegheny Health Network","status":"RECRUITING","city":"Pittsburgh","state":"Pennsylvania","zip":"15212","country":"United States","contacts":[{"name":"Sarah Kimutis","role":"CONTACT","phone":"412-359-3565","email":"sarah.kimutis@ahn.org"},{"name":"Matthew Shepard, MD","role":"PRINCIPAL_INVESTIGATOR"}],"geoPoint":{"lat":40.44062,"lon":-79.99589}},{"facility":"Brown University Health","status":"RECRUITING","city":"Providence","state":"Rhode Island","zip":"02906","country":"United States","contacts":[{"name":"Clarck Chen, MD, PhD","role":"CONTACT","phone":"401-793-9166","email":"clark.chen@lifespan.org"},{"name":"Clark Chen, MD, PhD","role":"PRINCIPAL_INVESTIGATOR"}],"geoPoint":{"lat":41.82399,"lon":-71.41283}},{"facility":"CHI Memorial Hospital, CommonSpirit","status":"RECRUITING","city":"Chattanooga","state":"Tennessee","zip":"37404","country":"United States","contacts":[{"name":"Ginger Whisman","role":"CONTACT","email":"ginger.whisman@commonspirit.org"},{"name":"Ranjith Babu, MD","role":"PRINCIPAL_INVESTIGATOR"}],"geoPoint":{"lat":35.04563,"lon":-85.30968}},{"facility":"UT Southwestern Simmons Cancer Center","status":"RECRUITING","city":"Dallas","state":"Texas","zip":"75235","country":"United States","contacts":[{"name":"Toral Patel, MD","role":"CONTACT"}],"geoPoint":{"lat":32.78306,"lon":-96.80667}},{"facility":"Baylor St. Luke's Medical Center | Baylor College of Medicine","status":"RECRUITING","city":"Houston","state":"Texas","zip":"77030","country":"United States","contacts":[{"name":"Akash Patel, MD","role":"CONTACT","phone":"713-798-8810"}],"geoPoint":{"lat":29.76328,"lon":-95.36327}},{"facility":"Houston Methodist Hospital","status":"RECRUITING","city":"Houston","state":"Texas","zip":"77030","country":"United States","contacts":[{"name":"David Baskin, MD","role":"CONTACT"}],"geoPoint":{"lat":29.76328,"lon":-95.36327}},{"facility":"University of Texas Health Science Center of San Antonio","status":"RECRUITING","city":"San Antonio","state":"Texas","zip":"78229","country":"United States","contacts":[{"name":"John Floyd, MD","role":"CONTACT"}],"geoPoint":{"lat":29.42412,"lon":-98.49363}},{"facility":"Texas Oncology-The Woodlands","status":"RECRUITING","city":"The Woodlands","state":"Texas","zip":"77380","country":"United States","contacts":[{"name":"James Zhu, M.D., Ph.D.","role":"CONTACT","email":"james.zhu@usoncology.com"},{"name":"James Zhu, M.D., Ph.D","role":"PRINCIPAL_INVESTIGATOR"}],"geoPoint":{"lat":30.15799,"lon":-95.48938}},{"facility":"INOVA Health","status":"RECRUITING","city":"Fairfax","state":"Virginia","zip":"22031","country":"United States","contacts":[{"name":"Daniel Kim, MD","role":"CONTACT","phone":"571-472-0606"},{"name":"Daniel Kim, MD","role":"PRINCIPAL_INVESTIGATOR"}],"geoPoint":{"lat":38.84622,"lon":-77.30637}},{"facility":"Virginia Mason","status":"RECRUITING","city":"Seattle","state":"Washington","zip":"98101","country":"United States","contacts":[{"name":"Huong Pham, MD","role":"CONTACT","phone":"206-287-6278"},{"name":"Huong Pham, MD","role":"PRINCIPAL_INVESTIGATOR"},{"name":"Roby Ryan, MD","role":"PRINCIPAL_INVESTIGATOR"}],"geoPoint":{"lat":47.60621,"lon":-122.33207}}]},"ipdSharingStatementModule":{"ipdSharing":"NO"}},"derivedSection":{"miscInfoModule":{"versionHolder":"2025-11-04"},"conditionBrowseModule":{"meshes":[{"id":"D001932","term":"Brain Neoplasms"},{"id":"D008579","term":"Meningioma"}],"ancestors":[{"id":"D016543","term":"Central Nervous System Neoplasms"},{"id":"D009423","term":"Nervous System Neoplasms"},{"id":"D009371","term":"Neoplasms by Site"},{"id":"D009369","term":"Neoplasms"},{"id":"D001927","term":"Brain Diseases"},{"id":"D002493","term":"Central Nervous System Diseases"},{"id":"D009422","term":"Nervous System Diseases"},{"id":"D009380","term":"Neoplasms, Nerve Tissue"},{"id":"D009370","term":"Neoplasms by Histologic Type"},{"id":"D009383","term":"Neoplasms, Vascular Tissue"},{"id":"D008577","term":"Meningeal Neoplasms"}]}},"hasResults":false}