{
    "nct_id": "NCT04892173",
    "official_title": "A Phase 3 Study of NBTXR3 Activated by Investigator's Choice of Radiotherapy Alone or Radiotherapy in Combination With Cetuximab for Platinum-based Chemotherapy-Ineligible Elderly Patients With LA-HNSCC",
    "brief_title": "JNJ-90301900 (NBTXR3) Activated by Radiotherapy With or Without Cetuximab in LA-HNSCC",
    "cancer_type_display": "A study for treatment-naïve, platinum-ineligible, elderly patients with locally advanced head and neck squamous cell carcinoma (LA-HNSCC).",
    "cancer_tags": [
      "Locally Advanced Head and Neck Squamous Cell Carcinoma",
      "Aged"
    ],
    "link_to_trial": "https://clinicaltrials.gov/study/NCT04892173",
    "phase": "Phase 3",
    "recruitment_status": "RECRUITING",
    "last_update_date": "2025-09-17",
    "enrollment": 500,
    "min_age": 60,
    "max_age": null,
    "sex": "ALL",
    "is_metastatic_allowed": false,
    "performance_status_scale": "ECOG",
    "performance_status_values": [
      2
    ],
    "min_prior_lines": null,
    "max_prior_lines": null,
    "prior_treatments_required": null,
    "prior_treatments_excluded": [
      "surgery",
      "radiation therapy",
      "chemotherapy"
    ],
    "principal_investigator": "Johnson & Johnson Enterprise Innovation Inc Clinical trial",
    "site_name": "City of Hope",
    "contact_email": "Participate-In-This-Study1@its.jnj.com",
    "contact_phone": "844-434-4210",
    "locations": [
      {
        "facility": "City of Hope",
        "status": "RECRUITING",
        "city": "Duarte",
        "state": "California",
        "zip": "91010",
        "country": "United States",
        "geoPoint": {
          "lat": 34.13945,
          "lon": -117.97729
        }
      },
      {
        "facility": "Memorial Radiation Oncology Medical Group Laguna Hills",
        "status": "COMPLETED",
        "city": "Laguna Hills",
        "state": "California",
        "zip": "92653",
        "country": "United States",
        "geoPoint": {
          "lat": 33.61252,
          "lon": -117.71283
        }
      },
      {
        "facility": "UCLA Hematology Oncology",
        "status": "RECRUITING",
        "city": "Los Angeles",
        "state": "California",
        "zip": "90095",
        "country": "United States",
        "geoPoint": {
          "lat": 34.05223,
          "lon": -118.24368
        }
      },
      {
        "facility": "Hoag Memorial Hospital",
        "status": "RECRUITING",
        "city": "Newport Beach",
        "state": "California",
        "zip": "92663",
        "country": "United States",
        "geoPoint": {
          "lat": 33.61891,
          "lon": -117.92895
        }
      },
      {
        "facility": "University of California San Francisco",
        "status": "RECRUITING",
        "city": "San Francisco",
        "state": "California",
        "zip": "94158",
        "country": "United States",
        "geoPoint": {
          "lat": 37.77493,
          "lon": -122.41942
        }
      },
      {
        "facility": "Moffitt Cancer Center",
        "status": "RECRUITING",
        "city": "Tampa",
        "state": "Florida",
        "zip": "33612",
        "country": "United States",
        "geoPoint": {
          "lat": 27.94752,
          "lon": -82.45843
        }
      },
      {
        "facility": "Emory University Hospital Midtown",
        "status": "RECRUITING",
        "city": "Atlanta",
        "state": "Georgia",
        "zip": "30308",
        "country": "United States",
        "geoPoint": {
          "lat": 33.749,
          "lon": -84.38798
        }
      },
      {
        "facility": "Christus St. Vincent Regional Cancer Center",
        "status": "RECRUITING",
        "city": "Santa Fe",
        "state": "New Mexico",
        "zip": "87505",
        "country": "United States",
        "geoPoint": {
          "lat": 35.68698,
          "lon": -105.9378
        }
      },
      {
        "facility": "Herbert Irving Comprehensive Cancer Center Columbia University Medical Center",
        "status": "COMPLETED",
        "city": "New York",
        "state": "New York",
        "zip": "10032",
        "country": "United States",
        "geoPoint": {
          "lat": 40.71427,
          "lon": -74.00597
        }
      },
      {
        "facility": "Richmond University Medical Center",
        "status": "RECRUITING",
        "city": "Staten Island",
        "state": "New York",
        "zip": "10310",
        "country": "United States",
        "geoPoint": {
          "lat": 40.56233,
          "lon": -74.13986
        }
      },
      {
        "facility": "Montefiore Medical Center",
        "status": "RECRUITING",
        "city": "The Bronx",
        "state": "New York",
        "zip": "10467",
        "country": "United States",
        "geoPoint": {
          "lat": 40.84985,
          "lon": -73.86641
        }
      },
      {
        "facility": "University of North Carolina at Chapel Hill",
        "status": "RECRUITING",
        "city": "Chapel Hill",
        "state": "North Carolina",
        "zip": "27514",
        "country": "United States",
        "geoPoint": {
          "lat": 35.9132,
          "lon": -79.05584
        }
      },
      {
        "facility": "University of Cincinnati",
        "status": "RECRUITING",
        "city": "Cincinnati",
        "state": "Ohio",
        "zip": "45219",
        "country": "United States",
        "geoPoint": {
          "lat": 39.12711,
          "lon": -84.51439
        }
      },
      {
        "facility": "Stephenson Cancer Center",
        "status": "RECRUITING",
        "city": "Oklahoma City",
        "state": "Oklahoma",
        "zip": "73104",
        "country": "United States",
        "geoPoint": {
          "lat": 35.46756,
          "lon": -97.51643
        }
      },
      {
        "facility": "University of Pennsylvania Perelman Center for Advanced Medicine",
        "status": "RECRUITING",
        "city": "Philadelphia",
        "state": "Pennsylvania",
        "zip": "19104",
        "country": "United States",
        "geoPoint": {
          "lat": 39.95238,
          "lon": -75.16362
        }
      },
      {
        "facility": "Medizinische Universitat Graz",
        "status": "RECRUITING",
        "city": "Graz",
        "zip": "8036",
        "country": "Austria",
        "geoPoint": {
          "lat": 47.06733,
          "lon": 15.44197
        }
      },
      {
        "facility": "Ordensklinikum Linz GmbH Barmherzige Schwestern",
        "status": "RECRUITING",
        "city": "Linz",
        "zip": "4010",
        "country": "Austria",
        "geoPoint": {
          "lat": 48.30639,
          "lon": 14.28611
        }
      },
      {
        "facility": "Medizinische Universitaet Wien",
        "status": "RECRUITING",
        "city": "Vienna",
        "zip": "1090",
        "country": "Austria",
        "geoPoint": {
          "lat": 48.20849,
          "lon": 16.37208
        }
      },
      {
        "facility": "Cliniques Universitaires Saint Luc",
        "status": "RECRUITING",
        "city": "Brussels",
        "zip": "1200",
        "country": "Belgium",
        "geoPoint": {
          "lat": 50.85045,
          "lon": 4.34878
        }
      },
      {
        "facility": "Grand Hopital De Charleroi Site Les Viviers",
        "status": "RECRUITING",
        "city": "Charleroi",
        "zip": "6060",
        "country": "Belgium",
        "geoPoint": {
          "lat": 50.41136,
          "lon": 4.44448
        }
      },
      {
        "facility": "Universitair Ziekenhuis Leuven",
        "status": "RECRUITING",
        "city": "Leuven",
        "zip": "3000",
        "country": "Belgium",
        "geoPoint": {
          "lat": 50.87959,
          "lon": 4.70093
        }
      },
      {
        "facility": "Fundacao Pio Xii - Hospital De Cancer De Barretos",
        "status": "RECRUITING",
        "city": "Barretos",
        "zip": "14784",
        "country": "Brazil",
        "geoPoint": {
          "lat": -20.55722,
          "lon": -48.56778
        }
      },
      {
        "facility": "Nucleo de Ensino e Pesquisa do Instituto Mario Penna",
        "status": "RECRUITING",
        "city": "Belo Horizonte",
        "zip": "30380 472",
        "country": "Brazil",
        "geoPoint": {
          "lat": -19.92083,
          "lon": -43.93778
        }
      },
      {
        "facility": "Centro Regional Integrado de Oncologia CRIO",
        "status": "RECRUITING",
        "city": "Fortaleza",
        "zip": "60336 232",
        "country": "Brazil",
        "geoPoint": {
          "lat": -3.71722,
          "lon": -38.54306
        }
      },
      {
        "facility": "Hospital Haroldo Juaçaba - Instituto do Câncer do Ceará",
        "status": "RECRUITING",
        "city": "Fortaleza",
        "zip": "60430-230",
        "country": "Brazil",
        "geoPoint": {
          "lat": -3.71722,
          "lon": -38.54306
        }
      },
      {
        "facility": "Fundacao Sao Francisco Xavier",
        "status": "RECRUITING",
        "city": "Ipatinga",
        "zip": "35160 158",
        "country": "Brazil",
        "geoPoint": {
          "lat": -19.46833,
          "lon": -42.53667
        }
      },
      {
        "facility": "Hospital Amaral Carvalho",
        "status": "RECRUITING",
        "city": "Jaú",
        "zip": "17210120",
        "country": "Brazil",
        "geoPoint": {
          "lat": -22.29639,
          "lon": -48.55778
        }
      },
      {
        "facility": "Hospital do Cancer de Londrina",
        "status": "RECRUITING",
        "city": "Londrina",
        "zip": "86015 520",
        "country": "Brazil",
        "geoPoint": {
          "lat": -23.31028,
          "lon": -51.16278
        }
      },
      {
        "facility": "Hospital Sao Lucas da PUCRS",
        "status": "RECRUITING",
        "city": "Porto Alegre",
        "zip": "90610-000",
        "country": "Brazil",
        "geoPoint": {
          "lat": -30.03283,
          "lon": -51.23019
        }
      },
      {
        "facility": "Hospital Nossa Senhora da Conceicao",
        "status": "RECRUITING",
        "city": "Porto Alegre",
        "zip": "91350-200",
        "country": "Brazil",
        "geoPoint": {
          "lat": -30.03283,
          "lon": -51.23019
        }
      },
      {
        "facility": "Grupo Oncoclinicas - Botafogo",
        "status": "RECRUITING",
        "city": "Rio de Janeiro",
        "zip": "22250-905",
        "country": "Brazil",
        "geoPoint": {
          "lat": -22.90642,
          "lon": -43.18223
        }
      },
      {
        "facility": "Hospital de Base de Sao Jose do Rio Preto",
        "status": "RECRUITING",
        "city": "São José do Rio Preto",
        "zip": "15090-000",
        "country": "Brazil",
        "geoPoint": {
          "lat": -20.81972,
          "lon": -49.37944
        }
      },
      {
        "facility": "Hospital Sirio Libanes Sao Paulo",
        "status": "RECRUITING",
        "city": "São Paulo",
        "zip": "01308-050",
        "country": "Brazil",
        "geoPoint": {
          "lat": -23.5475,
          "lon": -46.63611
        }
      },
      {
        "facility": "Irmandade da Santa Casa de Misericordia de Porto Alegre",
        "status": "RECRUITING",
        "city": "São Paulo",
        "zip": "90050-170",
        "country": "Brazil",
        "geoPoint": {
          "lat": -23.5475,
          "lon": -46.63611
        }
      },
      {
        "facility": "Associacao Feminina de Educacao e Combate ao Cancer Hospital Santa Rita de Cassia",
        "status": "RECRUITING",
        "city": "Vitória",
        "zip": "29043 260",
        "country": "Brazil",
        "geoPoint": {
          "lat": -20.31944,
          "lon": -40.33778
        }
      },
      {
        "facility": "MHAT Uni Hospital",
        "status": "COMPLETED",
        "city": "Panagyurishte",
        "zip": "4500",
        "country": "Bulgaria",
        "geoPoint": {
          "lat": 42.49518,
          "lon": 24.19021
        }
      },
      {
        "facility": "Specialized Hospital for Active Treatment in Oncology",
        "status": "COMPLETED",
        "city": "Sofia",
        "zip": "1756",
        "country": "Bulgaria",
        "geoPoint": {
          "lat": 42.69751,
          "lon": 23.32415
        }
      },
      {
        "facility": "The Affiliated Hospital of Bengbu Medical College",
        "status": "COMPLETED",
        "city": "Bengbu",
        "zip": "233004",
        "country": "China",
        "geoPoint": {
          "lat": 32.94083,
          "lon": 117.36083
        }
      },
      {
        "facility": "Xiangya Hospital Central South University",
        "status": "COMPLETED",
        "city": "Changsha",
        "zip": "410008",
        "country": "China",
        "geoPoint": {
          "lat": 28.19874,
          "lon": 112.97087
        }
      },
      {
        "facility": "Hunan Cancer hospital",
        "status": "RECRUITING",
        "city": "Changsha",
        "zip": "410013",
        "country": "China",
        "geoPoint": {
          "lat": 28.19874,
          "lon": 112.97087
        }
      },
      {
        "facility": "Sichuan Cancer Hospital",
        "status": "RECRUITING",
        "city": "Chengdu",
        "zip": "610041",
        "country": "China",
        "geoPoint": {
          "lat": 30.66667,
          "lon": 104.06667
        }
      },
      {
        "facility": "Dongguan People s Hospital",
        "status": "RECRUITING",
        "city": "Dongguan",
        "zip": "523109",
        "country": "China",
        "geoPoint": {
          "lat": 23.01797,
          "lon": 113.74866
        }
      },
      {
        "facility": "Fujian Medical University Union Hospital",
        "status": "COMPLETED",
        "city": "Fuzhou",
        "zip": "350001",
        "country": "China",
        "geoPoint": {
          "lat": 26.06139,
          "lon": 119.30611
        }
      },
      {
        "facility": "The First Affiliated Hospital of Fujian Medical University",
        "status": "RECRUITING",
        "city": "Fuzhou",
        "zip": "350005",
        "country": "China",
        "geoPoint": {
          "lat": 26.06139,
          "lon": 119.30611
        }
      },
      {
        "facility": "Fujian Medical University Fujian Provincial Cancer Hospital",
        "status": "RECRUITING",
        "city": "Fuzhou",
        "zip": "350014",
        "country": "China",
        "geoPoint": {
          "lat": 26.06139,
          "lon": 119.30611
        }
      },
      {
        "facility": "The First Affiliated Hospital of Guangdong Pharmaceutical University",
        "status": "RECRUITING",
        "city": "Guangzhou",
        "zip": "510080",
        "country": "China",
        "geoPoint": {
          "lat": 23.11667,
          "lon": 113.25
        }
      },
      {
        "facility": "Guangzhou Medical University Affiliated Oncology Hospital",
        "status": "RECRUITING",
        "city": "Guangzhou",
        "zip": "510095",
        "country": "China",
        "geoPoint": {
          "lat": 23.11667,
          "lon": 113.25
        }
      },
      {
        "facility": "Guangzhou First Municipal People's Hospital",
        "status": "RECRUITING",
        "city": "Guangzhou",
        "zip": "510180",
        "country": "China",
        "geoPoint": {
          "lat": 23.11667,
          "lon": 113.25
        }
      },
      {
        "facility": "Qilu Hospital of Shandong University",
        "status": "RECRUITING",
        "city": "Jinan",
        "zip": "250012",
        "country": "China",
        "geoPoint": {
          "lat": 36.66833,
          "lon": 116.99722
        }
      },
      {
        "facility": "Shandong Cancer Hospital",
        "status": "RECRUITING",
        "city": "Jinan",
        "zip": "250117",
        "country": "China",
        "geoPoint": {
          "lat": 36.66833,
          "lon": 116.99722
        }
      },
      {
        "facility": "Linyi Cancer Hospital",
        "status": "RECRUITING",
        "city": "Linyi",
        "zip": "276002",
        "country": "China",
        "geoPoint": {
          "lat": 35.06306,
          "lon": 118.34278
        }
      },
      {
        "facility": "Liuzhou people's Hospital",
        "status": "RECRUITING",
        "city": "Liuzhou",
        "zip": "545006",
        "country": "China",
        "geoPoint": {
          "lat": 24.32405,
          "lon": 109.40698
        }
      },
      {
        "facility": "Jiangxi Cancer Hospital",
        "status": "COMPLETED",
        "city": "Nanchang",
        "zip": "330029",
        "country": "China",
        "geoPoint": {
          "lat": 28.68396,
          "lon": 115.85306
        }
      },
      {
        "facility": "Jiangsu Cancer Hospital",
        "status": "COMPLETED",
        "city": "Nanjing",
        "zip": "210009",
        "country": "China",
        "geoPoint": {
          "lat": 32.06167,
          "lon": 118.77778
        }
      },
      {
        "facility": "Nanjing Drum Tower Hospital The Affiliated Hospital of Nanjing University Medical School",
        "status": "RECRUITING",
        "city": "Nanjing",
        "zip": "223800",
        "country": "China",
        "geoPoint": {
          "lat": 32.06167,
          "lon": 118.77778
        }
      },
      {
        "facility": "Wuming Hospital of Guangxi Medical University",
        "status": "RECRUITING",
        "city": "Nanning",
        "zip": "530000",
        "country": "China",
        "geoPoint": {
          "lat": 22.81667,
          "lon": 108.31667
        }
      },
      {
        "facility": "The Cancer Hospital Affiliated to Guangxi Medical University",
        "status": "RECRUITING",
        "city": "Nanning",
        "zip": "530021",
        "country": "China",
        "geoPoint": {
          "lat": 22.81667,
          "lon": 108.31667
        }
      },
      {
        "facility": "The Affiliated Hospital of Medical College Qingdao University",
        "status": "RECRUITING",
        "city": "Qingdao",
        "zip": "266003",
        "country": "China",
        "geoPoint": {
          "lat": 36.06488,
          "lon": 120.38042
        }
      },
      {
        "facility": "Fudan University Shanghai Cancer Center",
        "status": "COMPLETED",
        "city": "Shanghai",
        "zip": "200032",
        "country": "China",
        "geoPoint": {
          "lat": 31.22222,
          "lon": 121.45806
        }
      },
      {
        "facility": "Liaoning Cancer Hospital and Institute",
        "status": "COMPLETED",
        "city": "Shenyang",
        "zip": "110042",
        "country": "China",
        "geoPoint": {
          "lat": 41.79222,
          "lon": 123.43278
        }
      },
      {
        "facility": "Peking University Shenzhen Hospital",
        "status": "RECRUITING",
        "city": "Shenzhen",
        "zip": "518036",
        "country": "China",
        "geoPoint": {
          "lat": 22.54554,
          "lon": 114.0683
        }
      },
      {
        "facility": "The Fourth Hospital of Hebei Medical University",
        "status": "RECRUITING",
        "city": "Shijiazhuang",
        "zip": "50011",
        "country": "China",
        "geoPoint": {
          "lat": 38.04139,
          "lon": 114.47861
        }
      },
      {
        "facility": "Second Affiliated Hospital, SooChow University",
        "status": "COMPLETED",
        "city": "Suzhou",
        "zip": "215004",
        "country": "China",
        "geoPoint": {
          "lat": 31.30408,
          "lon": 120.59538
        }
      },
      {
        "facility": "Shanxi Provincial Cancer hospital",
        "status": "RECRUITING",
        "city": "Taiyuan",
        "zip": "30013",
        "country": "China",
        "geoPoint": {
          "lat": 37.86944,
          "lon": 112.56028
        }
      },
      {
        "facility": "Tianjin Medical University Cancer Institute and Hospital",
        "status": "COMPLETED",
        "city": "Tianjin",
        "zip": "300060",
        "country": "China",
        "geoPoint": {
          "lat": 39.14222,
          "lon": 117.17667
        }
      },
      {
        "facility": "Union Hospital Tongji Medical College of Huazhong University of Science and Technology",
        "status": "RECRUITING",
        "city": "Wuhan",
        "zip": "430022",
        "country": "China",
        "geoPoint": {
          "lat": 30.58333,
          "lon": 114.26667
        }
      },
      {
        "facility": "Tongji Hospital Tongji Medical College of Huazhong University of Science and Technology",
        "status": "RECRUITING",
        "city": "Wuhan",
        "zip": "430030",
        "country": "China",
        "geoPoint": {
          "lat": 30.58333,
          "lon": 114.26667
        }
      },
      {
        "facility": "Hubei Cancer Hospital",
        "status": "RECRUITING",
        "city": "Wuhan",
        "zip": "430079",
        "country": "China",
        "geoPoint": {
          "lat": 30.58333,
          "lon": 114.26667
        }
      },
      {
        "facility": "The first affiliated hospital of xiamen university",
        "status": "COMPLETED",
        "city": "Xiamen",
        "zip": "361003",
        "country": "China",
        "geoPoint": {
          "lat": 24.47979,
          "lon": 118.08187
        }
      },
      {
        "facility": "The Affiliated Hospital of Xuzhou Medical University",
        "status": "COMPLETED",
        "city": "Xuzhou",
        "zip": "221000",
        "country": "China",
        "geoPoint": {
          "lat": 34.20442,
          "lon": 117.28386
        }
      },
      {
        "facility": "Henan Cancer Hospital",
        "status": "COMPLETED",
        "city": "Zhengzhou",
        "zip": "450008",
        "country": "China",
        "geoPoint": {
          "lat": 34.75778,
          "lon": 113.64861
        }
      },
      {
        "facility": "The Fifth Affiliated Hospital Sun Yat Sen University",
        "status": "RECRUITING",
        "city": "Zhuhai",
        "zip": "519000",
        "country": "China",
        "geoPoint": {
          "lat": 22.27694,
          "lon": 113.56778
        }
      },
      {
        "facility": "Klinicki bolnicki centar Zagreb",
        "status": "COMPLETED",
        "city": "Zagreb",
        "zip": "10000",
        "country": "Croatia",
        "geoPoint": {
          "lat": 45.81444,
          "lon": 15.97798
        }
      },
      {
        "facility": "Fakultni nemocnice Olomouc",
        "status": "RECRUITING",
        "city": "Olomouc",
        "zip": "779 00",
        "country": "Czechia",
        "geoPoint": {
          "lat": 49.59552,
          "lon": 17.25175
        }
      },
      {
        "facility": "Nemocnice Bulovka",
        "status": "RECRUITING",
        "city": "Prague",
        "zip": "180 81",
        "country": "Czechia",
        "geoPoint": {
          "lat": 50.08804,
          "lon": 14.42076
        }
      },
      {
        "facility": "Tampereen Yliopistollinen Sairaala",
        "status": "COMPLETED",
        "city": "Tampere",
        "zip": "33520",
        "country": "Finland",
        "geoPoint": {
          "lat": 61.49911,
          "lon": 23.78712
        }
      },
      {
        "facility": "CHU Amiens Picardie",
        "status": "RECRUITING",
        "city": "Amiens",
        "zip": "80000",
        "country": "France",
        "geoPoint": {
          "lat": 49.9,
          "lon": 2.3
        }
      },
      {
        "facility": "CHU Brest",
        "status": "RECRUITING",
        "city": "Brest",
        "zip": "29609",
        "country": "France",
        "geoPoint": {
          "lat": 48.39029,
          "lon": -4.48628
        }
      },
      {
        "facility": "Centre Francois Baclesse",
        "status": "RECRUITING",
        "city": "Caen",
        "zip": "14076",
        "country": "France",
        "geoPoint": {
          "lat": 49.18585,
          "lon": -0.35912
        }
      },
      {
        "facility": "Centre de Lutte contre le Cancer Centre Oscar Lambret",
        "status": "RECRUITING",
        "city": "Lille",
        "zip": "59020",
        "country": "France",
        "geoPoint": {
          "lat": 50.63391,
          "lon": 3.05512
        }
      },
      {
        "facility": "Centre Leon Berard",
        "status": "COMPLETED",
        "city": "Lyon",
        "zip": "69008",
        "country": "France",
        "geoPoint": {
          "lat": 45.74906,
          "lon": 4.84789
        }
      },
      {
        "facility": "Hopital de la Timone",
        "status": "RECRUITING",
        "city": "Marseille",
        "zip": "13385",
        "country": "France",
        "geoPoint": {
          "lat": 43.29695,
          "lon": 5.38107
        }
      },
      {
        "facility": "Clinique Ambroise Pare",
        "status": "RECRUITING",
        "city": "Neuilly-sur-Seine",
        "zip": "92200",
        "country": "France",
        "geoPoint": {
          "lat": 48.8846,
          "lon": 2.26965
        }
      },
      {
        "facility": "Hopital Europeen Georges Pompidou",
        "status": "RECRUITING",
        "city": "Paris",
        "zip": "75015",
        "country": "France",
        "geoPoint": {
          "lat": 48.85341,
          "lon": 2.3488
        }
      },
      {
        "facility": "Institut Curie",
        "status": "RECRUITING",
        "city": "Paris",
        "zip": "75248",
        "country": "France",
        "geoPoint": {
          "lat": 48.85341,
          "lon": 2.3488
        }
      },
      {
        "facility": "Hopital Tenon",
        "status": "RECRUITING",
        "city": "Paris",
        "zip": "75970",
        "country": "France",
        "geoPoint": {
          "lat": 48.85341,
          "lon": 2.3488
        }
      },
      {
        "facility": "Hopital Haut Leveque",
        "status": "RECRUITING",
        "city": "Pessac",
        "zip": "33604",
        "country": "France",
        "geoPoint": {
          "lat": 44.80565,
          "lon": -0.6324
        }
      },
      {
        "facility": "Hopital Pontchaillou",
        "status": "RECRUITING",
        "city": "Rennes",
        "zip": "35000",
        "country": "France",
        "geoPoint": {
          "lat": 48.11109,
          "lon": -1.67431
        }
      },
      {
        "facility": "CLCC - Centre Henri Becquerel",
        "status": "RECRUITING",
        "city": "Rouen",
        "zip": "76038",
        "country": "France",
        "geoPoint": {
          "lat": 49.44313,
          "lon": 1.09932
        }
      },
      {
        "facility": "CHU Saint Etienne",
        "status": "RECRUITING",
        "city": "Saint-Etienne",
        "zip": "42055",
        "country": "France",
        "geoPoint": {
          "lat": 45.43389,
          "lon": 4.39
        }
      },
      {
        "facility": "Centre Hospitalier de Valenciennes Hopital Jean Bernard",
        "status": "COMPLETED",
        "city": "Valenciennes",
        "zip": "59322",
        "country": "France",
        "geoPoint": {
          "lat": 50.35909,
          "lon": 3.52506
        }
      },
      {
        "facility": "Institut de Cancerologie de Lorraine",
        "status": "RECRUITING",
        "city": "Vandœuvre-lès-Nancy",
        "zip": "54500",
        "country": "France",
        "geoPoint": {
          "lat": 48.66115,
          "lon": 6.17114
        }
      },
      {
        "facility": "Gustave Roussy",
        "status": "RECRUITING",
        "city": "Villejuif",
        "zip": "94805",
        "country": "France",
        "geoPoint": {
          "lat": 48.7939,
          "lon": 2.35992
        }
      },
      {
        "facility": "High Technology Hospital MedCenter Ltd Batumi",
        "status": "RECRUITING",
        "city": "Batumi",
        "zip": "6000",
        "country": "Georgia",
        "geoPoint": {
          "lat": 41.64077,
          "lon": 41.6306
        }
      },
      {
        "facility": "JSC Vian Kutaisi Referral Hospital",
        "status": "RECRUITING",
        "city": "Kutaisi",
        "zip": "4600",
        "country": "Georgia",
        "geoPoint": {
          "lat": 42.26791,
          "lon": 42.69459
        }
      },
      {
        "facility": "Todua Clinic",
        "status": "COMPLETED",
        "city": "Tbilisi",
        "zip": "0112",
        "country": "Georgia",
        "geoPoint": {
          "lat": 41.69143,
          "lon": 44.83412
        }
      },
      {
        "facility": "Ltd Tbilisi State Medical University and Ingorokva High Medical Technology University Clinic",
        "status": "RECRUITING",
        "city": "Tbilisi",
        "zip": "144",
        "country": "Georgia",
        "geoPoint": {
          "lat": 41.69143,
          "lon": 44.83412
        }
      },
      {
        "facility": "Universitaetsklinikum Giessen und Marburg GmbH",
        "status": "RECRUITING",
        "city": "Giessen",
        "zip": "35392",
        "country": "Germany",
        "geoPoint": {
          "lat": 50.58727,
          "lon": 8.67554
        }
      },
      {
        "facility": "Universitatsklinikum Jena",
        "status": "RECRUITING",
        "city": "Jena",
        "zip": "07747",
        "country": "Germany",
        "geoPoint": {
          "lat": 50.92878,
          "lon": 11.5899
        }
      },
      {
        "facility": "Klinikum rechts der Isar an der Technischen Universitat Munchen",
        "status": "RECRUITING",
        "city": "München",
        "zip": "81675",
        "country": "Germany",
        "geoPoint": {
          "lat": 51.60698,
          "lon": 13.31243
        }
      },
      {
        "facility": "Universitaetsmedizin Rostock",
        "status": "RECRUITING",
        "city": "Rostock",
        "zip": "18059",
        "country": "Germany",
        "geoPoint": {
          "lat": 54.0887,
          "lon": 12.14049
        }
      },
      {
        "facility": "General Hospital of Athens Attikon",
        "status": "RECRUITING",
        "city": "Athens",
        "zip": "124 62",
        "country": "Greece",
        "geoPoint": {
          "lat": 37.98376,
          "lon": 23.72784
        }
      },
      {
        "facility": "University Hospital Of Larissa",
        "status": "RECRUITING",
        "city": "Larissa",
        "zip": "41110",
        "country": "Greece",
        "geoPoint": {
          "lat": 39.62847,
          "lon": 22.42112
        }
      },
      {
        "facility": "Athens Medical Center S A Interbalkan Medical Center of Thessaloniki",
        "status": "RECRUITING",
        "city": "Thessaloniki",
        "zip": "54639",
        "country": "Greece",
        "geoPoint": {
          "lat": 40.64072,
          "lon": 22.93493
        }
      },
      {
        "facility": "Interbalkan Medical Center of Thessaloniki",
        "status": "COMPLETED",
        "city": "Thessaloniki",
        "zip": "57001",
        "country": "Greece",
        "geoPoint": {
          "lat": 40.64072,
          "lon": 22.93493
        }
      },
      {
        "facility": "Eszak Pesti Centrumkorhaz Honvedkorhaz",
        "status": "RECRUITING",
        "city": "Budapest",
        "zip": "1062",
        "country": "Hungary",
        "geoPoint": {
          "lat": 47.49835,
          "lon": 19.04045
        }
      },
      {
        "facility": "Orszagos Onkologiai Intezet",
        "status": "RECRUITING",
        "city": "Budapest",
        "zip": "1122",
        "country": "Hungary",
        "geoPoint": {
          "lat": 47.49835,
          "lon": 19.04045
        }
      },
      {
        "facility": "Szent Gyorgyi Albert Klinikai Kozpont Onkoterapias Klinika",
        "status": "RECRUITING",
        "city": "Szeged",
        "zip": "6720",
        "country": "Hungary",
        "geoPoint": {
          "lat": 46.253,
          "lon": 20.14824
        }
      },
      {
        "facility": "M S Ramaiah Memorial Hospital",
        "status": "RECRUITING",
        "city": "Bangalore",
        "zip": "560054",
        "country": "India",
        "geoPoint": {
          "lat": 12.97194,
          "lon": 77.59369
        }
      },
      {
        "facility": "Apollo Speciality Hospital, Chennai",
        "status": "COMPLETED",
        "city": "Chennai",
        "zip": "600035",
        "country": "India",
        "geoPoint": {
          "lat": 13.08784,
          "lon": 80.27847
        }
      },
      {
        "facility": "Meenakshi Mission Hospital and Research Center",
        "status": "COMPLETED",
        "city": "Madurai",
        "zip": "625107",
        "country": "India",
        "geoPoint": {
          "lat": 9.919,
          "lon": 78.11953
        }
      },
      {
        "facility": "Tata Memorial Hospital",
        "status": "RECRUITING",
        "city": "Mumbai",
        "zip": "400012",
        "country": "India",
        "geoPoint": {
          "lat": 19.07283,
          "lon": 72.88261
        }
      },
      {
        "facility": "HealthCare Global HCG Manavata Cancer Centre",
        "status": "RECRUITING",
        "city": "Nashik",
        "zip": "422002",
        "country": "India",
        "geoPoint": {
          "lat": 19.99727,
          "lon": 73.79096
        }
      },
      {
        "facility": "Grant Medical foundation Ruby Hall Clinic",
        "status": "COMPLETED",
        "city": "Pune",
        "zip": "411 001",
        "country": "India",
        "geoPoint": {
          "lat": 18.51957,
          "lon": 73.85535
        }
      },
      {
        "facility": "Samson Assuta Ashdod University Hospital",
        "status": "RECRUITING",
        "city": "Ashdod",
        "zip": "7747629",
        "country": "Israel",
        "geoPoint": {
          "lat": 31.79213,
          "lon": 34.64966
        }
      },
      {
        "facility": "Rambam Health Care Campus",
        "status": "RECRUITING",
        "city": "Haifa",
        "zip": "3109601",
        "country": "Israel",
        "geoPoint": {
          "lat": 32.81303,
          "lon": 34.99928
        }
      },
      {
        "facility": "Hadassah Medical Center",
        "status": "SUSPENDED",
        "city": "Jerusalem",
        "zip": "9112001",
        "country": "Israel",
        "geoPoint": {
          "lat": 31.76904,
          "lon": 35.21633
        }
      },
      {
        "facility": "Tel Aviv Sourasky Medical Center",
        "status": "RECRUITING",
        "city": "Tel Aviv",
        "zip": "6423906",
        "country": "Israel",
        "geoPoint": {
          "lat": 32.08088,
          "lon": 34.78057
        }
      },
      {
        "facility": "Tokyo Medical and Dental University Hospital",
        "status": "RECRUITING",
        "city": "Bunkyō City",
        "zip": "113-8519",
        "country": "Japan",
        "geoPoint": {
          "lat": 35.5331,
          "lon": 139.4217
        }
      },
      {
        "facility": "Hiroshima University Hospital",
        "status": "RECRUITING",
        "city": "Hiroshima",
        "zip": "734 8551",
        "country": "Japan",
        "geoPoint": {
          "lat": 34.4,
          "lon": 132.45
        }
      },
      {
        "facility": "National Cancer Center Hospital East",
        "status": "RECRUITING",
        "city": "Kashiwa",
        "zip": "277-8577",
        "country": "Japan",
        "geoPoint": {
          "lat": 35.86224,
          "lon": 139.97732
        }
      },
      {
        "facility": "Aichi Cancer Center",
        "status": "RECRUITING",
        "city": "Nagoya",
        "zip": "464-8681",
        "country": "Japan",
        "geoPoint": {
          "lat": 35.18147,
          "lon": 136.90641
        }
      },
      {
        "facility": "Osaka International Cancer Institute",
        "status": "RECRUITING",
        "city": "Osaka",
        "zip": "541 8567",
        "country": "Japan",
        "geoPoint": {
          "lat": 34.69379,
          "lon": 135.50107
        }
      },
      {
        "facility": "Kindai University Hospital",
        "status": "COMPLETED",
        "city": "Osaka Sayama Shi",
        "zip": "589 8511",
        "country": "Japan"
      },
      {
        "facility": "Tohoku University Hospital",
        "status": "RECRUITING",
        "city": "Sendai",
        "zip": "980-8574",
        "country": "Japan",
        "geoPoint": {
          "lat": 38.26667,
          "lon": 140.86667
        }
      },
      {
        "facility": "Jichi Medical University Hospital",
        "status": "RECRUITING",
        "city": "Shimotsuke",
        "zip": "329-0498",
        "country": "Japan",
        "geoPoint": {
          "lat": 36.41323,
          "lon": 139.86622
        }
      },
      {
        "facility": "Tokyo Medical University Hospital",
        "status": "RECRUITING",
        "city": "Shinjuku",
        "zip": "160 0023",
        "country": "Japan",
        "geoPoint": {
          "lat": 35.69115,
          "lon": 139.70854
        }
      },
      {
        "facility": "Shizuoka Cancer Center",
        "status": "RECRUITING",
        "city": "Sunto Gun",
        "zip": "411 8777",
        "country": "Japan"
      },
      {
        "facility": "University of Perpetual Help Dalta Medical Center, Inc",
        "status": "RECRUITING",
        "city": "Las Piñas",
        "zip": "1742",
        "country": "Philippines",
        "geoPoint": {
          "lat": 14.45056,
          "lon": 120.98278
        }
      },
      {
        "facility": "Manila Doctors Hospital",
        "status": "RECRUITING",
        "city": "Manila",
        "zip": "1000",
        "country": "Philippines",
        "geoPoint": {
          "lat": 14.6042,
          "lon": 120.9822
        }
      },
      {
        "facility": "The Medical City",
        "status": "RECRUITING",
        "city": "Pasig",
        "zip": "1600",
        "country": "Philippines",
        "geoPoint": {
          "lat": 14.58691,
          "lon": 121.0614
        }
      },
      {
        "facility": "St. Luke's Medical Center",
        "status": "RECRUITING",
        "city": "Quezon City",
        "zip": "1112",
        "country": "Philippines",
        "geoPoint": {
          "lat": 14.6488,
          "lon": 121.0509
        }
      },
      {
        "facility": "Uls Braga - Hosp. Braga",
        "status": "COMPLETED",
        "city": "Braga",
        "zip": "4710 243",
        "country": "Portugal",
        "geoPoint": {
          "lat": 41.5514,
          "lon": -8.42311
        }
      },
      {
        "facility": "Uls Santa Maria - Hosp. Santa Maria",
        "status": "COMPLETED",
        "city": "Lisbon",
        "zip": "1649 035",
        "country": "Portugal",
        "geoPoint": {
          "lat": 38.72509,
          "lon": -9.1498
        }
      },
      {
        "facility": "Hosp. Cuf Descobertas",
        "status": "RECRUITING",
        "city": "Lisbon",
        "zip": "1998050",
        "country": "Portugal",
        "geoPoint": {
          "lat": 38.72509,
          "lon": -9.1498
        }
      },
      {
        "facility": "Uls Santo Antonio - Hosp. Santo Antonio",
        "status": "COMPLETED",
        "city": "Porto",
        "zip": "4099-001",
        "country": "Portugal",
        "geoPoint": {
          "lat": 41.1485,
          "lon": -8.61097
        }
      },
      {
        "facility": "Uls Gaia Espinho",
        "status": "RECRUITING",
        "city": "Vila Nova de Gaia",
        "zip": "4434 502",
        "country": "Portugal",
        "geoPoint": {
          "lat": 41.12401,
          "lon": -8.61241
        }
      },
      {
        "facility": "Institutul Oncologic Prof Dr Al Trestioreanu Bucuresti",
        "status": "RECRUITING",
        "city": "Bucharest",
        "zip": "22328",
        "country": "Romania",
        "geoPoint": {
          "lat": 44.43225,
          "lon": 26.10626
        }
      },
      {
        "facility": "Institute of Oncology and Radiology of Serbia",
        "status": "COMPLETED",
        "city": "Belgrade",
        "zip": "11000",
        "country": "Serbia",
        "geoPoint": {
          "lat": 44.80401,
          "lon": 20.46513
        }
      },
      {
        "facility": "Vojnomedicinska Akademija",
        "status": "COMPLETED",
        "city": "Belgrade",
        "zip": "11000",
        "country": "Serbia",
        "geoPoint": {
          "lat": 44.80401,
          "lon": 20.46513
        }
      },
      {
        "facility": "Institute of Oncology of Vojvodina",
        "status": "COMPLETED",
        "city": "Kamenitz",
        "zip": "21204",
        "country": "Serbia",
        "geoPoint": {
          "lat": 45.22334,
          "lon": 19.84263
        }
      },
      {
        "facility": "University Clinical Center Kragujevac",
        "status": "COMPLETED",
        "city": "Kragujevac",
        "zip": "34000",
        "country": "Serbia",
        "geoPoint": {
          "lat": 44.01667,
          "lon": 20.91667
        }
      },
      {
        "facility": "Severance Hospital",
        "status": "RECRUITING",
        "city": "Seoul",
        "zip": "03722",
        "country": "South Korea",
        "geoPoint": {
          "lat": 37.566,
          "lon": 126.9784
        }
      },
      {
        "facility": "The Catholic University of Korea Seoul St Mary s Hospital",
        "status": "RECRUITING",
        "city": "Seoul",
        "zip": "06591",
        "country": "South Korea",
        "geoPoint": {
          "lat": 37.566,
          "lon": 126.9784
        }
      },
      {
        "facility": "Asan Medical Center (AMC)",
        "status": "RECRUITING",
        "city": "Seoul",
        "zip": "138 736",
        "country": "South Korea",
        "geoPoint": {
          "lat": 37.566,
          "lon": 126.9784
        }
      },
      {
        "facility": "The Catholic university of Korea, St. Vincent's Hospital",
        "status": "RECRUITING",
        "city": "Suwon",
        "zip": "16247",
        "country": "South Korea",
        "geoPoint": {
          "lat": 37.29111,
          "lon": 127.00889
        }
      },
      {
        "facility": "Hosp. Univ. de Cruces",
        "status": "RECRUITING",
        "city": "Barakaldo",
        "zip": "48903",
        "country": "Spain",
        "geoPoint": {
          "lat": 43.29639,
          "lon": -2.98813
        }
      },
      {
        "facility": "Hosp Clinic de Barcelona",
        "status": "RECRUITING",
        "city": "Barcelona",
        "zip": "08036",
        "country": "Spain",
        "geoPoint": {
          "lat": 41.38879,
          "lon": 2.15899
        }
      },
      {
        "facility": "Hosp Univ Vall D Hebron",
        "status": "RECRUITING",
        "city": "Barcelona",
        "zip": "8035",
        "country": "Spain",
        "geoPoint": {
          "lat": 41.38879,
          "lon": 2.15899
        }
      },
      {
        "facility": "Instituto Catalan Deoncologia Hospital Duran I Reynals",
        "status": "RECRUITING",
        "city": "L'Hospitalet de Llobregat",
        "zip": "08908",
        "country": "Spain",
        "geoPoint": {
          "lat": 41.35967,
          "lon": 2.10028
        }
      },
      {
        "facility": "Hospitales Universitarios San Roque En Las Palmas de Gran Canaria Centro Oncologico Integral Canario",
        "status": "TERMINATED",
        "city": "Las Palmas de Gran Canaria",
        "zip": "35001",
        "country": "Spain",
        "geoPoint": {
          "lat": 28.10178,
          "lon": -15.41573
        }
      },
      {
        "facility": "Hosp. Univ. Lucus Augusti",
        "status": "RECRUITING",
        "city": "Lugo",
        "zip": "27003",
        "country": "Spain",
        "geoPoint": {
          "lat": 43.00992,
          "lon": -7.55602
        }
      },
      {
        "facility": "Hosp Univ Fund Jimenez Diaz",
        "status": "RECRUITING",
        "city": "Madrid",
        "zip": "28040",
        "country": "Spain",
        "geoPoint": {
          "lat": 40.4165,
          "lon": -3.70256
        }
      },
      {
        "facility": "Hosp. Univ. 12 de Octubre",
        "status": "RECRUITING",
        "city": "Madrid",
        "zip": "28041",
        "country": "Spain",
        "geoPoint": {
          "lat": 40.4165,
          "lon": -3.70256
        }
      },
      {
        "facility": "Hosp Univ Hm Sanchinarro",
        "status": "RECRUITING",
        "city": "Madrid",
        "zip": "28050",
        "country": "Spain",
        "geoPoint": {
          "lat": 40.4165,
          "lon": -3.70256
        }
      },
      {
        "facility": "Hosp Regional Univ de Malaga",
        "status": "RECRUITING",
        "city": "Málaga",
        "zip": "29010",
        "country": "Spain",
        "geoPoint": {
          "lat": 36.72016,
          "lon": -4.42034
        }
      },
      {
        "facility": "Hosp. de Navarra",
        "status": "TERMINATED",
        "city": "Pamplona",
        "zip": "31008",
        "country": "Spain",
        "geoPoint": {
          "lat": 42.81687,
          "lon": -1.64323
        }
      },
      {
        "facility": "Hosp. Univ. Marques de Valdecilla",
        "status": "RECRUITING",
        "city": "Santander",
        "zip": "39008",
        "country": "Spain",
        "geoPoint": {
          "lat": 43.46589,
          "lon": -3.80493
        }
      },
      {
        "facility": "Hosp. Virgen Del Rocio",
        "status": "RECRUITING",
        "city": "Seville",
        "zip": "41013",
        "country": "Spain",
        "geoPoint": {
          "lat": 37.38283,
          "lon": -5.97317
        }
      },
      {
        "facility": "Inst. Valenciano de Oncologia",
        "status": "RECRUITING",
        "city": "Valencia",
        "zip": "46010",
        "country": "Spain",
        "geoPoint": {
          "lat": 39.47391,
          "lon": -0.37966
        }
      },
      {
        "facility": "Hosp. Gral. Univ. Valencia",
        "status": "RECRUITING",
        "city": "Valencia",
        "zip": "46014",
        "country": "Spain",
        "geoPoint": {
          "lat": 39.47391,
          "lon": -0.37966
        }
      },
      {
        "facility": "Sahlgrenska Universitetssjukhuset",
        "status": "COMPLETED",
        "city": "Gothenburg",
        "zip": "41345",
        "country": "Sweden",
        "geoPoint": {
          "lat": 57.70716,
          "lon": 11.96679
        }
      },
      {
        "facility": "National Cheng Kung University Hospital",
        "status": "RECRUITING",
        "city": "Bei Qu",
        "zip": "704",
        "country": "Taiwan"
      },
      {
        "facility": "Changhua Christian Hospital",
        "status": "RECRUITING",
        "city": "Changhua",
        "zip": "500",
        "country": "Taiwan",
        "geoPoint": {
          "lat": 24.0692,
          "lon": 120.5512
        }
      },
      {
        "facility": "Chang-Gung Memorial Hospital-Keelung",
        "status": "RECRUITING",
        "city": "Keelung",
        "zip": "20442",
        "country": "Taiwan",
        "geoPoint": {
          "lat": 25.13089,
          "lon": 121.74094
        }
      },
      {
        "facility": "Taichung Veterans General Hospital",
        "status": "RECRUITING",
        "city": "Taichung",
        "zip": "40705",
        "country": "Taiwan",
        "geoPoint": {
          "lat": 24.1469,
          "lon": 120.6839
        }
      },
      {
        "facility": "National Taiwan University Hospital",
        "status": "RECRUITING",
        "city": "Taipei",
        "zip": "100",
        "country": "Taiwan",
        "geoPoint": {
          "lat": 25.05306,
          "lon": 121.52639
        }
      },
      {
        "facility": "NHS Greater Glasgow and Clyde",
        "status": "RECRUITING",
        "city": "Glasgow",
        "zip": "G12 0YN",
        "country": "United Kingdom",
        "geoPoint": {
          "lat": 55.86515,
          "lon": -4.25763
        }
      },
      {
        "facility": "The Royal Surrey County Hospital NHS Foundation Trust",
        "status": "RECRUITING",
        "city": "Guildford",
        "zip": "GU2 7XX",
        "country": "United Kingdom",
        "geoPoint": {
          "lat": 51.23536,
          "lon": -0.57427
        }
      },
      {
        "facility": "The Royal Marsden NHS Foundation Trust",
        "status": "RECRUITING",
        "city": "London",
        "zip": "SW3 6JJ",
        "country": "United Kingdom",
        "geoPoint": {
          "lat": 51.50853,
          "lon": -0.12574
        }
      },
      {
        "facility": "Newcastle upon Tyne Hospitals NHS Foundation Trust",
        "status": "RECRUITING",
        "city": "Newcastle upon Tyne",
        "zip": "NE7 7DN",
        "country": "United Kingdom",
        "geoPoint": {
          "lat": 54.97328,
          "lon": -1.61396
        }
      }
    ],
    "key_inclusion_summary": [
      "Age 60 years or older.",
      "Diagnosed with squamous cell carcinoma of the oral cavity, oropharynx, hypopharynx, or supraglottic larynx.",
      "Clinical stage T3-4 NX or T2 N2-3 disease.",
      "Ineligible to receive platinum-based chemotherapy.",
      "Must have one primary tumor lesion that is accessible for intratumoral injection."
    ],
    "key_exclusion_summary": [
      "Carcinoma of the nasopharynx, paranasal sinus(es), salivary gland, thyroid gland, or unknown primary.",
      "Metastatic (M1) disease.",
      "Previously treated for head & neck cancer with surgery, radiation therapy, and/or chemotherapy.",
      "Prior or concurrent primary malignancy within the last 2 years.",
      "Ongoing or active infection requiring treatment."
    ]
  }