{
    "nct_id": "NCT05624996",
    "official_title": "Phase III Prospective Randomized Trial of Primary Lung Tumor Stereotactic Body Radiation Therapy Followed by Concurrent Mediastinal Chemoradiation for Locally-Advanced Non-Small Cell Lung Cancer",
    "brief_title": "Testing the Addition of High Dose, Targeted Radiation to the Usual Treatment for Locally-Advanced Inoperable Non-Small Cell Lung Cancer",
    "cancer_type_display": "A study for patients with locally-advanced, inoperable, non-small cell lung cancer (NSCLC).",
    "cancer_tags": [
      "Locally Advanced Lung Non-Small Cell Carcinoma",
      "Stage IIB Lung Cancer AJCC v8",
      "Stage III Lung Cancer AJCC v8"
    ],
    "link_to_trial": "https://clinicaltrials.gov/study/NCT05624996",
    "phase": "Phase 3",
    "recruitment_status": "RECRUITING",
    "last_update_date": "2025-10-14",
    "enrollment": 474,
    "min_age": 18,
    "max_age": null,
    "sex": "ALL",
    "is_metastatic_allowed": false,
    "performance_status_scale": "ECOG",
    "performance_status_values": [
      0,
      1,
      2
    ],
    "min_prior_lines": 0,
    "max_prior_lines": 4,
    "prior_treatments_required": null,
    "prior_treatments_excluded": [
      "Prior radiotherapy to the study cancer"
    ],
    "principal_investigator": "Charles B Simone",
    "site_name": null,
    "contact_email": null,
    "contact_phone": null,
    "locations":[{"facility":"University of Alabama at Birmingham Cancer Center","status":"RECRUITING","city":"Birmingham","state":"Alabama","zip":"35233","country":"United States","contacts":[{"name":"Site Public Contact","role":"CONTACT","phone":"205-934-0220","email":"tmyrick@uab.edu"},{"name":"Adam Kole","role":"PRINCIPAL_INVESTIGATOR"}],"geoPoint":{"lat":33.52066,"lon":-86.80249}},{"facility":"The Kirklin Clinic at Acton Road","status":"RECRUITING","city":"Birmingham","state":"Alabama","zip":"35243","country":"United States","contacts":[{"name":"Site Public Contact","role":"CONTACT","phone":"205-934-0220","email":"tmyrick@uab.edu"},{"name":"Adam Kole","role":"PRINCIPAL_INVESTIGATOR"}],"geoPoint":{"lat":33.52066,"lon":-86.80249}},{"facility":"Kingman Regional Medical Center","status":"RECRUITING","city":"Kingman","state":"Arizona","zip":"86401","country":"United States","contacts":[{"name":"Site Public Contact","role":"CONTACT","phone":"702-384-0013","email":"research@sncrf.org"},{"name":"John A. Ellerton","role":"PRINCIPAL_INVESTIGATOR"}],"geoPoint":{"lat":35.18944,"lon":-114.05301}},{"facility":"Cancer Center at Saint Joseph's","status":"RECRUITING","city":"Phoenix","state":"Arizona","zip":"85004","country":"United States","contacts":[{"name":"Site Public Contact","role":"CONTACT","phone":"720-874-1881","email":"ResearchInstituteInquiries@CommonSpirit.org"},{"name":"Shahzad Siddique","role":"PRINCIPAL_INVESTIGATOR"}],"geoPoint":{"lat":33.44838,"lon":-112.07404}},{"facility":"Mayo Clinic Hospital in Arizona","status":"NOT_YET_RECRUITING","city":"Phoenix","state":"Arizona","zip":"85054","country":"United States","contacts":[{"name":"Site Public Contact","role":"CONTACT","phone":"855-776-0015"},{"name":"Bradford S. Hoppe","role":"PRINCIPAL_INVESTIGATOR"}],"geoPoint":{"lat":33.44838,"lon":-112.07404}},{"facility":"Banner University Medical Center - Tucson","status":"RECRUITING","city":"Tucson","state":"Arizona","zip":"85719","country":"United States","contacts":[{"name":"Site Public Contact","role":"CONTACT","email":"UACC-IIT@uacc.arizona.edu"},{"name":"Charles C. Hsu","role":"PRINCIPAL_INVESTIGATOR"}],"geoPoint":{"lat":32.22174,"lon":-110.92648}},{"facility":"University of Arizona Cancer Center-North Campus","status":"RECRUITING","city":"Tucson","state":"Arizona","zip":"85719","country":"United States","contacts":[{"name":"Site Public Contact","role":"CONTACT","email":"UACC-IIT@uacc.arizona.edu"},{"name":"Charles C. Hsu","role":"PRINCIPAL_INVESTIGATOR"}],"geoPoint":{"lat":32.22174,"lon":-110.92648}},{"facility":"NEA Baptist Memorial Hospital and Fowler Family Cancer Center - Jonesboro","status":"RECRUITING","city":"Jonesboro","state":"Arkansas","zip":"72401","country":"United States","contacts":[{"name":"Site Public Contact","role":"CONTACT","phone":"870-936-7066","email":"Emily.Carvell@bmhcc.org"},{"name":"Michael Tomblyn","role":"PRINCIPAL_INVESTIGATOR"}],"geoPoint":{"lat":35.8423,"lon":-90.70428}},{"facility":"University of Arkansas for Medical Sciences","status":"RECRUITING","city":"Little Rock","state":"Arkansas","zip":"72205","country":"United States","contacts":[{"name":"Site Public Contact","role":"CONTACT","phone":"501-686-8274"},{"name":"Mausam Patel","role":"PRINCIPAL_INVESTIGATOR"}],"geoPoint":{"lat":34.74648,"lon":-92.28959}},{"facility":"AIS Cancer Center at San Joaquin Community Hospital","status":"RECRUITING","city":"Bakersfield","state":"California","zip":"93301","country":"United States","contacts":[{"name":"Site Public Contact","role":"CONTACT","phone":"661-323-4673"},{"name":"Luis Mariscal","role":"PRINCIPAL_INVESTIGATOR"}],"geoPoint":{"lat":35.37329,"lon":-119.01871}},{"facility":"Mills-Peninsula Medical Center","status":"RECRUITING","city":"Burlingame","state":"California","zip":"94010","country":"United States","contacts":[{"name":"Site Public Contact","role":"CONTACT","email":"clinicalresearch@sutterhealth.org"},{"name":"Christopher U. Jones","role":"PRINCIPAL_INVESTIGATOR"}],"geoPoint":{"lat":37.5841,"lon":-122.36608}},{"facility":"Palo Alto Medical Foundation-Fremont","status":"RECRUITING","city":"Fremont","state":"California","zip":"94538","country":"United States","contacts":[{"name":"Site Public Contact","role":"CONTACT","email":"clinicalresearch@sutterhealth.org"},{"name":"Christopher U. Jones","role":"PRINCIPAL_INVESTIGATOR"}],"geoPoint":{"lat":37.54827,"lon":-121.98857}},{"facility":"Los Angeles General Medical Center","status":"SUSPENDED","city":"Los Angeles","state":"California","zip":"90033","country":"United States","geoPoint":{"lat":34.05223,"lon":-118.24368}},{"facility":"USC / Norris Comprehensive Cancer Center","status":"SUSPENDED","city":"Los Angeles","state":"California","zip":"90033","country":"United States","geoPoint":{"lat":34.05223,"lon":-118.24368}},{"facility":"Fremont - Rideout Cancer Center","status":"ACTIVE_NOT_RECRUITING","city":"Marysville","state":"California","zip":"95901","country":"United States","geoPoint":{"lat":39.14573,"lon":-121.59135}},{"facility":"Memorial Medical Center","status":"RECRUITING","city":"Modesto","state":"California","zip":"95355","country":"United States","contacts":[{"name":"Site Public Contact","role":"CONTACT","email":"clinicalresearch@sutterhealth.org"},{"name":"Christopher U. Jones","role":"PRINCIPAL_INVESTIGATOR"}],"geoPoint":{"lat":37.6391,"lon":-120.99688}},{"facility":"Palo Alto Medical Foundation-Camino Division","status":"RECRUITING","city":"Mountain View","state":"California","zip":"94040","country":"United States","contacts":[{"name":"Site Public Contact","role":"CONTACT","email":"clinicalresearch@sutterhealth.org"},{"name":"Christopher U. Jones","role":"PRINCIPAL_INVESTIGATOR"}],"geoPoint":{"lat":37.38605,"lon":-122.08385}},{"facility":"Palo Alto Medical Foundation Health Care","status":"RECRUITING","city":"Palo Alto","state":"California","zip":"94301","country":"United States","contacts":[{"name":"Site Public Contact","role":"CONTACT","email":"clinicalresearch@sutterhealth.org"},{"name":"Christopher U. Jones","role":"PRINCIPAL_INVESTIGATOR"}],"geoPoint":{"lat":37.44188,"lon":-122.14302}},{"facility":"Sutter Cancer Centers Radiation Oncology Services-Roseville","status":"RECRUITING","city":"Roseville","state":"California","zip":"95661","country":"United States","contacts":[{"name":"Site Public Contact","role":"CONTACT","email":"clinicalresearch@sutterhealth.org"},{"name":"Christopher U. Jones","role":"PRINCIPAL_INVESTIGATOR"}],"geoPoint":{"lat":38.75212,"lon":-121.28801}},{"facility":"Sutter Roseville Medical Center","status":"RECRUITING","city":"Roseville","state":"California","zip":"95661","country":"United States","contacts":[{"name":"Site Public Contact","role":"CONTACT","email":"clinicalresearch@sutterhealth.org"},{"name":"Christopher U. Jones","role":"PRINCIPAL_INVESTIGATOR"}],"geoPoint":{"lat":38.75212,"lon":-121.28801}},{"facility":"Sutter Medical Center Sacramento","status":"RECRUITING","city":"Sacramento","state":"California","zip":"95816","country":"United States","contacts":[{"name":"Site Public Contact","role":"CONTACT","email":"clinicalresearch@sutterhealth.org"},{"name":"Christopher U. Jones","role":"PRINCIPAL_INVESTIGATOR"}],"geoPoint":{"lat":38.58157,"lon":-121.4944}},{"facility":"California Pacific Medical Center-Pacific Campus","status":"RECRUITING","city":"San Francisco","state":"California","zip":"94115","country":"United States","contacts":[{"name":"Site Public Contact","role":"CONTACT","email":"clinicalresearch@sutterhealth.org"},{"name":"Christopher U. Jones","role":"PRINCIPAL_INVESTIGATOR"}],"geoPoint":{"lat":37.77493,"lon":-122.41942}},{"facility":"Mills Health Center","status":"RECRUITING","city":"San Mateo","state":"California","zip":"94401","country":"United States","contacts":[{"name":"Site Public Contact","role":"CONTACT","email":"clinicalresearch@sutterhealth.org"},{"name":"Christopher U. Jones","role":"PRINCIPAL_INVESTIGATOR"}],"geoPoint":{"lat":37.56299,"lon":-122.32553}},{"facility":"Sutter Pacific Medical Foundation","status":"RECRUITING","city":"Santa Rosa","state":"California","zip":"95403","country":"United States","contacts":[{"name":"Site Public Contact","role":"CONTACT","phone":"415-209-2683","email":"clinicalresearch@sutterhealth.org"},{"name":"Christopher U. Jones","role":"PRINCIPAL_INVESTIGATOR"}],"geoPoint":{"lat":38.44047,"lon":-122.71443}},{"facility":"Palo Alto Medical Foundation-Sunnyvale","status":"RECRUITING","city":"Sunnyvale","state":"California","zip":"94086","country":"United States","contacts":[{"name":"Site Public Contact","role":"CONTACT","email":"clinicalresearch@sutterhealth.org"},{"name":"Christopher U. Jones","role":"PRINCIPAL_INVESTIGATOR"}],"geoPoint":{"lat":37.36883,"lon":-122.03635}},{"facility":"Sutter Solano Medical Center/Cancer Center","status":"RECRUITING","city":"Vallejo","state":"California","zip":"94589","country":"United States","contacts":[{"name":"Site Public Contact","role":"CONTACT","email":"clinicalresearch@sutterhealth.org"},{"name":"Christopher U. Jones","role":"PRINCIPAL_INVESTIGATOR"}],"geoPoint":{"lat":38.10409,"lon":-122.25664}},{"facility":"UCHealth University of Colorado Hospital","status":"RECRUITING","city":"Aurora","state":"Colorado","zip":"80045","country":"United States","contacts":[{"name":"Site Public Contact","role":"CONTACT","phone":"720-848-0650"},{"name":"Brian D. Kavanagh","role":"PRINCIPAL_INVESTIGATOR"}],"geoPoint":{"lat":39.72943,"lon":-104.83192}},{"facility":"Rocky Mountain Cancer Centers-Penrose","status":"RECRUITING","city":"Colorado Springs","state":"Colorado","zip":"80907","country":"United States","contacts":[{"name":"Site Public Contact","role":"CONTACT","phone":"720-874-1881","email":"ResearchInstituteInquiries@CommonSpirit.org"},{"name":"Shahzad Siddique","role":"PRINCIPAL_INVESTIGATOR"}],"geoPoint":{"lat":38.83388,"lon":-104.82136}},{"facility":"UCHealth Memorial Hospital Central","status":"RECRUITING","city":"Colorado Springs","state":"Colorado","zip":"80909","country":"United States","contacts":[{"name":"Site Public Contact","role":"CONTACT","phone":"719-365-2406"},{"name":"Brian D. Kavanagh","role":"PRINCIPAL_INVESTIGATOR"}],"geoPoint":{"lat":38.83388,"lon":-104.82136}},{"facility":"Memorial Hospital North","status":"RECRUITING","city":"Colorado Springs","state":"Colorado","zip":"80920","country":"United States","contacts":[{"name":"Site Public Contact","role":"CONTACT","phone":"719-364-6700"},{"name":"Brian D. Kavanagh","role":"PRINCIPAL_INVESTIGATOR"}],"geoPoint":{"lat":38.83388,"lon":-104.82136}},{"facility":"UCHealth - Cherry Creek","status":"RECRUITING","city":"Denver","state":"Colorado","zip":"80206","country":"United States","contacts":[{"name":"Site Public Contact","role":"CONTACT","phone":"412-339-5294","email":"Roster@nrgoncology.org"},{"name":"Brian D. Kavanagh","role":"PRINCIPAL_INVESTIGATOR"}],"geoPoint":{"lat":39.73915,"lon":-104.9847}},{"facility":"Poudre Valley Hospital","status":"RECRUITING","city":"Fort Collins","state":"Colorado","zip":"80524","country":"United States","contacts":[{"name":"Site Public Contact","role":"CONTACT","phone":"970-297-6150"},{"name":"Brian D. Kavanagh","role":"PRINCIPAL_INVESTIGATOR"}],"geoPoint":{"lat":40.58526,"lon":-105.08442}},{"facility":"Cancer Care and Hematology-Fort Collins","status":"RECRUITING","city":"Fort Collins","state":"Colorado","zip":"80528","country":"United States","contacts":[{"name":"Site Public Contact","role":"CONTACT","phone":"412-339-5294","email":"Roster@nrgoncology.org"},{"name":"Brian D. Kavanagh","role":"PRINCIPAL_INVESTIGATOR"}],"geoPoint":{"lat":40.58526,"lon":-105.08442}},{"facility":"UCHealth Greeley Hospital","status":"RECRUITING","city":"Greeley","state":"Colorado","zip":"80631","country":"United States","contacts":[{"name":"Site Public Contact","role":"CONTACT","phone":"412-339-5294","email":"Roster@nrgoncology.org"},{"name":"Brian D. Kavanagh","role":"PRINCIPAL_INVESTIGATOR"}],"geoPoint":{"lat":40.42331,"lon":-104.70913}},{"facility":"UCHealth Highlands Ranch Hospital","status":"RECRUITING","city":"Highlands Ranch","state":"Colorado","zip":"80129","country":"United States","contacts":[{"name":"Site Public Contact","role":"CONTACT","phone":"720-848-0650"},{"name":"Brian D. Kavanagh","role":"PRINCIPAL_INVESTIGATOR"}],"geoPoint":{"lat":39.55388,"lon":-104.96943}},{"facility":"UCHealth Lone Tree Health Center","status":"RECRUITING","city":"Lone Tree","state":"Colorado","zip":"80124","country":"United States","contacts":[{"name":"Site Public Contact","role":"CONTACT","phone":"412-339-5294","email":"Roster@nrgoncology.org"},{"name":"Brian D. Kavanagh","role":"PRINCIPAL_INVESTIGATOR"}],"geoPoint":{"lat":39.55171,"lon":-104.8863}},{"facility":"Medical Center of the Rockies","status":"RECRUITING","city":"Loveland","state":"Colorado","zip":"80538","country":"United States","contacts":[{"name":"Site Public Contact","role":"CONTACT","phone":"970-203-7083"},{"name":"Brian D. Kavanagh","role":"PRINCIPAL_INVESTIGATOR"}],"geoPoint":{"lat":40.39776,"lon":-105.07498}},{"facility":"Beebe Medical Center","status":"RECRUITING","city":"Lewes","state":"Delaware","zip":"19958","country":"United States","contacts":[{"name":"Site Public Contact","role":"CONTACT","phone":"302-291-6730","email":"research@beebehealthcare.org"},{"name":"Gregory A. Masters","role":"PRINCIPAL_INVESTIGATOR"}],"geoPoint":{"lat":38.77456,"lon":-75.13935}},{"facility":"Beebe South Coastal Health Campus","status":"RECRUITING","city":"Millville","state":"Delaware","zip":"19967","country":"United States","contacts":[{"name":"Site Public Contact","role":"CONTACT","phone":"302-291-6730","email":"research@beebehealthcare.org"},{"name":"Gregory A. Masters","role":"PRINCIPAL_INVESTIGATOR"}],"geoPoint":{"lat":38.54956,"lon":-75.12324}},{"facility":"Helen F Graham Cancer Center","status":"RECRUITING","city":"Newark","state":"Delaware","zip":"19713","country":"United States","contacts":[{"name":"Site Public Contact","role":"CONTACT","phone":"302-623-4450","email":"lbarone@christianacare.org"},{"name":"Gregory A. Masters","role":"PRINCIPAL_INVESTIGATOR"}],"geoPoint":{"lat":39.68372,"lon":-75.74966}},{"facility":"Medical Oncology Hematology Consultants PA","status":"RECRUITING","city":"Newark","state":"Delaware","zip":"19713","country":"United States","contacts":[{"name":"Site Public Contact","role":"CONTACT","phone":"302-623-4450","email":"lbarone@christianacare.org"},{"name":"Gregory A. Masters","role":"PRINCIPAL_INVESTIGATOR"}],"geoPoint":{"lat":39.68372,"lon":-75.74966}},{"facility":"Christiana Care Health System-Christiana Hospital","status":"RECRUITING","city":"Newark","state":"Delaware","zip":"19718","country":"United States","contacts":[{"name":"Site Public Contact","role":"CONTACT","phone":"302-623-4450","email":"lbarone@christianacare.org"},{"name":"Gregory A. Masters","role":"PRINCIPAL_INVESTIGATOR"}],"geoPoint":{"lat":39.68372,"lon":-75.74966}},{"facility":"Beebe Health Campus","status":"RECRUITING","city":"Rehoboth Beach","state":"Delaware","zip":"19971","country":"United States","contacts":[{"name":"Site Public Contact","role":"CONTACT","phone":"302-291-6730","email":"research@beebehealthcare.org"},{"name":"Gregory A. Masters","role":"PRINCIPAL_INVESTIGATOR"}],"geoPoint":{"lat":38.72095,"lon":-75.07601}},{"facility":"Christiana Care Health System-Wilmington Hospital","status":"RECRUITING","city":"Wilmington","state":"Delaware","zip":"19801","country":"United States","contacts":[{"name":"Site Public Contact","role":"CONTACT","phone":"302-623-4450","email":"lbarone@christianacare.org"},{"name":"Gregory A. Masters","role":"PRINCIPAL_INVESTIGATOR"}],"geoPoint":{"lat":39.74595,"lon":-75.54659}},{"facility":"Morton Plant Hospital","status":"RECRUITING","city":"Clearwater","state":"Florida","zip":"33756","country":"United States","contacts":[{"name":"Site Public Contact","role":"CONTACT","phone":"855-314-8646"},{"name":"Vijaya K. Gadiyaram","role":"PRINCIPAL_INVESTIGATOR"}],"geoPoint":{"lat":27.96585,"lon":-82.8001}},{"facility":"Halifax Health Medical Center-Centers for Oncology","status":"RECRUITING","city":"Daytona Beach","state":"Florida","zip":"32114","country":"United States","contacts":[{"name":"Site Public Contact","role":"CONTACT","phone":"386-254-4211"},{"name":"Ruby Anne E. Deveras","role":"PRINCIPAL_INVESTIGATOR"}],"geoPoint":{"lat":29.21081,"lon":-81.02283}},{"facility":"Memorial Regional Hospital/Joe DiMaggio Children's Hospital","status":"RECRUITING","city":"Hollywood","state":"Florida","zip":"33021","country":"United States","contacts":[{"name":"Site Public Contact","role":"CONTACT","phone":"954-265-1847","email":"OHR@mhs.net"},{"name":"Aaron Falchook","role":"PRINCIPAL_INVESTIGATOR"}],"geoPoint":{"lat":26.0112,"lon":-80.14949}},{"facility":"Mayo Clinic in Florida","status":"RECRUITING","city":"Jacksonville","state":"Florida","zip":"32224-9980","country":"United States","contacts":[{"name":"Site Public Contact","role":"CONTACT","phone":"855-776-0015"},{"name":"Bradford S. Hoppe","role":"PRINCIPAL_INVESTIGATOR"}],"geoPoint":{"lat":30.33218,"lon":-81.65565}},{"facility":"Jupiter Medical Center","status":"RECRUITING","city":"Jupiter","state":"Florida","zip":"33458","country":"United States","contacts":[{"name":"Site Public Contact","role":"CONTACT","phone":"561-263-5791","email":"clinicaltrials@jupitermed.com"},{"name":"Nathan Tennyson","role":"PRINCIPAL_INVESTIGATOR"}],"geoPoint":{"lat":26.93422,"lon":-80.09421}},{"facility":"Orlando Health Cancer Institute","status":"RECRUITING","city":"Orlando","state":"Florida","zip":"32806","country":"United States","contacts":[{"name":"Site Public Contact","role":"CONTACT","phone":"321-841-7246","email":"CancerClinicalTrials@orlandohealth.com"},{"name":"Justin M. Rineer","role":"PRINCIPAL_INVESTIGATOR"}],"geoPoint":{"lat":28.53834,"lon":-81.37924}},{"facility":"Memorial Hospital West","status":"RECRUITING","city":"Pembroke Pines","state":"Florida","zip":"33028","country":"United States","contacts":[{"name":"Site Public Contact","role":"CONTACT","phone":"954-265-4325"},{"name":"Aaron Falchook","role":"PRINCIPAL_INVESTIGATOR"}],"geoPoint":{"lat":26.00315,"lon":-80.22394}},{"facility":"Saint Joseph's Hospital/Children's Hospital-Tampa","status":"RECRUITING","city":"Tampa","state":"Florida","zip":"33607","country":"United States","contacts":[{"name":"Site Public Contact","role":"CONTACT","phone":"813-357-0849","email":"jennifer.manns@baycare.org"},{"name":"Vijaya K. Gadiyaram","role":"PRINCIPAL_INVESTIGATOR"}],"geoPoint":{"lat":27.94752,"lon":-82.45843}},{"facility":"Winter Haven Hospital","status":"RECRUITING","city":"Winter Haven","state":"Florida","zip":"33881","country":"United States","contacts":[{"name":"Site Public Contact","role":"CONTACT","phone":"803-293-1121","email":"Research.CTO@baycare.org"},{"name":"Vijaya K. Gadiyaram","role":"PRINCIPAL_INVESTIGATOR"}],"geoPoint":{"lat":28.02224,"lon":-81.73286}},{"facility":"Grady Health System","status":"RECRUITING","city":"Atlanta","state":"Georgia","zip":"30303","country":"United States","contacts":[{"name":"Site Public Contact","role":"CONTACT","phone":"404-778-1868"},{"name":"Aparna Kesarwala","role":"PRINCIPAL_INVESTIGATOR"}],"geoPoint":{"lat":33.749,"lon":-84.38798}},{"facility":"Emory Proton Therapy Center","status":"RECRUITING","city":"Atlanta","state":"Georgia","zip":"30308","country":"United States","contacts":[{"name":"Site Public Contact","role":"CONTACT","phone":"404-251-2854","email":"allyson.anderson@emory.edu"},{"name":"Aparna Kesarwala","role":"PRINCIPAL_INVESTIGATOR"}],"geoPoint":{"lat":33.749,"lon":-84.38798}},{"facility":"Emory University Hospital Midtown","status":"RECRUITING","city":"Atlanta","state":"Georgia","zip":"30308","country":"United States","contacts":[{"name":"Site Public Contact","role":"CONTACT","phone":"888-946-7447"},{"name":"Aparna Kesarwala","role":"PRINCIPAL_INVESTIGATOR"}],"geoPoint":{"lat":33.749,"lon":-84.38798}},{"facility":"Emory University Hospital/Winship Cancer Institute","status":"RECRUITING","city":"Atlanta","state":"Georgia","zip":"30322","country":"United States","contacts":[{"name":"Site Public Contact","role":"CONTACT","phone":"404-778-1868"},{"name":"Aparna Kesarwala","role":"PRINCIPAL_INVESTIGATOR"}],"geoPoint":{"lat":33.749,"lon":-84.38798}},{"facility":"Emory Saint Joseph's Hospital","status":"RECRUITING","city":"Atlanta","state":"Georgia","zip":"30342","country":"United States","contacts":[{"name":"Site Public Contact","role":"CONTACT","phone":"404-851-7115"},{"name":"Aparna Kesarwala","role":"PRINCIPAL_INVESTIGATOR"}],"geoPoint":{"lat":33.749,"lon":-84.38798}},{"facility":"Augusta University Medical Center","status":"RECRUITING","city":"Augusta","state":"Georgia","zip":"30912","country":"United States","contacts":[{"name":"Site Public Contact","role":"CONTACT","phone":"706-721-2388","email":"ga_cares@augusta.edu"},{"name":"William Grubb","role":"PRINCIPAL_INVESTIGATOR"}],"geoPoint":{"lat":33.47097,"lon":-81.97484}},{"facility":"WellStar Cobb Hospital","status":"RECRUITING","city":"Austell","state":"Georgia","zip":"30106","country":"United States","contacts":[{"name":"Site Public Contact","role":"CONTACT","phone":"470-793-4071","email":"research@wellstar.org"},{"name":"Mark P. McLaughlin","role":"PRINCIPAL_INVESTIGATOR"}],"geoPoint":{"lat":33.81261,"lon":-84.63438}},{"facility":"Hamilton Medical Center - Peeples Cancer Institute","status":"RECRUITING","city":"Dalton","state":"Georgia","zip":"30720","country":"United States","contacts":[{"name":"Site Public Contact","role":"CONTACT","phone":"706-226-8950","email":"crogers@hhcs.org"},{"name":"Arif N. Ali","role":"PRINCIPAL_INVESTIGATOR"}],"geoPoint":{"lat":34.7698,"lon":-84.97022}},{"facility":"Wellstar Kennestone Hospital","status":"RECRUITING","city":"Marietta","state":"Georgia","zip":"30060","country":"United States","contacts":[{"name":"Site Public Contact","role":"CONTACT","phone":"470-793-4071","email":"research@wellstar.org"},{"name":"Mark P. McLaughlin","role":"PRINCIPAL_INVESTIGATOR"}],"geoPoint":{"lat":33.9526,"lon":-84.54993}},{"facility":"CTCA at Southeastern Regional Medical Center","status":"RECRUITING","city":"Newnan","state":"Georgia","zip":"30265","country":"United States","contacts":[{"name":"Site Public Contact","role":"CONTACT","phone":"770-400-6629"},{"name":"Kristin A. Higgins","role":"PRINCIPAL_INVESTIGATOR"}],"geoPoint":{"lat":33.38067,"lon":-84.79966}},{"facility":"Hawaii Cancer Care Inc - Waterfront Plaza","status":"RECRUITING","city":"Honolulu","state":"Hawaii","zip":"96813","country":"United States","contacts":[{"name":"Site Public Contact","role":"CONTACT","phone":"808-524-6115","email":"i.webster@hawaiicancercare.com"},{"name":"Michael C. Roach","role":"PRINCIPAL_INVESTIGATOR"}],"geoPoint":{"lat":21.30694,"lon":-157.85833}},{"facility":"Queen's Cancer Cenrer - POB I","status":"RECRUITING","city":"Honolulu","state":"Hawaii","zip":"96813","country":"United States","contacts":[{"name":"Site Public Contact","role":"CONTACT","phone":"808-532-0315"},{"name":"Michael C. Roach","role":"PRINCIPAL_INVESTIGATOR"}],"geoPoint":{"lat":21.30694,"lon":-157.85833}},{"facility":"Queen's Medical Center","status":"RECRUITING","city":"Honolulu","state":"Hawaii","zip":"96813","country":"United States","contacts":[{"name":"Site Public Contact","role":"CONTACT","phone":"808-545-8548"},{"name":"Michael C. Roach","role":"PRINCIPAL_INVESTIGATOR"}],"geoPoint":{"lat":21.30694,"lon":-157.85833}},{"facility":"Straub Clinic and Hospital","status":"RECRUITING","city":"Honolulu","state":"Hawaii","zip":"96813","country":"United States","contacts":[{"name":"Site Public Contact","role":"CONTACT","phone":"808-522-4333"},{"name":"Michael C. Roach","role":"PRINCIPAL_INVESTIGATOR"}],"geoPoint":{"lat":21.30694,"lon":-157.85833}},{"facility":"University of Hawaii Cancer Center","status":"RECRUITING","city":"Honolulu","state":"Hawaii","zip":"96813","country":"United States","contacts":[{"name":"Site Public Contact","role":"CONTACT","phone":"808-586-2979"},{"name":"Michael C. Roach","role":"PRINCIPAL_INVESTIGATOR"}],"geoPoint":{"lat":21.30694,"lon":-157.85833}},{"facility":"Kuakini Medical Center","status":"RECRUITING","city":"Honolulu","state":"Hawaii","zip":"96817","country":"United States","contacts":[{"name":"Site Public Contact","role":"CONTACT","phone":"808-547-9816"},{"name":"Michael C. Roach","role":"PRINCIPAL_INVESTIGATOR"}],"geoPoint":{"lat":21.30694,"lon":-157.85833}},{"facility":"Queen's Cancer Center - Kuakini","status":"RECRUITING","city":"Honolulu","state":"Hawaii","zip":"96817","country":"United States","contacts":[{"name":"Site Public Contact","role":"CONTACT","phone":"808-531-8521"},{"name":"Michael C. Roach","role":"PRINCIPAL_INVESTIGATOR"}],"geoPoint":{"lat":21.30694,"lon":-157.85833}},{"facility":"The Cancer Center of Hawaii-Liliha","status":"RECRUITING","city":"Honolulu","state":"Hawaii","zip":"96817","country":"United States","contacts":[{"name":"Site Public Contact","role":"CONTACT","phone":"808-547-6881"},{"name":"Michael C. Roach","role":"PRINCIPAL_INVESTIGATOR"}],"geoPoint":{"lat":21.30694,"lon":-157.85833}},{"facility":"Hawaii Cancer Care - Westridge","status":"RECRUITING","city":"‘Aiea","state":"Hawaii","zip":"96701","country":"United States","contacts":[{"name":"Site Public Contact","role":"CONTACT","phone":"808-539-2273","email":"info@hawaiicancercare.com"},{"name":"Michael C. Roach","role":"PRINCIPAL_INVESTIGATOR"}],"geoPoint":{"lat":21.38222,"lon":-157.93361}},{"facility":"Pali Momi Medical Center","status":"RECRUITING","city":"‘Aiea","state":"Hawaii","zip":"96701","country":"United States","contacts":[{"name":"Site Public Contact","role":"CONTACT","phone":"808-486-6000"},{"name":"Michael C. Roach","role":"PRINCIPAL_INVESTIGATOR"}],"geoPoint":{"lat":21.38222,"lon":-157.93361}},{"facility":"Alton Memorial Hospital","status":"RECRUITING","city":"Alton","state":"Illinois","zip":"62002","country":"United States","contacts":[{"name":"Site Public Contact","role":"CONTACT","phone":"618-463-7323"},{"name":"Pamela Samson","role":"PRINCIPAL_INVESTIGATOR"}],"geoPoint":{"lat":38.8906,"lon":-90.18428}},{"facility":"Rush-Copley Medical Center","status":"RECRUITING","city":"Aurora","state":"Illinois","zip":"60504","country":"United States","contacts":[{"name":"Site Public Contact","role":"CONTACT","phone":"630-978-6212","email":"RCMC_Cancer_Research@rush.edu"},{"name":"Sinisa Stanic","role":"PRINCIPAL_INVESTIGATOR"}],"geoPoint":{"lat":41.76058,"lon":-88.32007}},{"facility":"Advocate Outpatient Center - Aurora","status":"RECRUITING","city":"Aurora","state":"Illinois","zip":"60506","country":"United States","contacts":[{"name":"Site Public Contact","role":"CONTACT","email":"ncorp@aah.org"},{"name":"Jeffrey A. Kittel","role":"PRINCIPAL_INVESTIGATOR"}],"geoPoint":{"lat":41.76058,"lon":-88.32007}},{"facility":"Advocate Good Shepherd Hospital","status":"RECRUITING","city":"Barrington","state":"Illinois","zip":"60010","country":"United States","contacts":[{"name":"Site Public Contact","role":"CONTACT","phone":"847-842-4847"},{"name":"Jeffrey A. Kittel","role":"PRINCIPAL_INVESTIGATOR"}],"geoPoint":{"lat":42.15391,"lon":-88.13619}},{"facility":"OSF Saint Joseph Medical Center","status":"RECRUITING","city":"Bloomington","state":"Illinois","zip":"61701","country":"United States","contacts":[{"name":"Site Public Contact","role":"CONTACT","phone":"309-243-3605","email":"andersonj@illinoiscancercare.com"},{"name":"Bryan A. Faller","role":"PRINCIPAL_INVESTIGATOR"}],"geoPoint":{"lat":40.4842,"lon":-88.99369}},{"facility":"Illinois CancerCare-Bloomington","status":"RECRUITING","city":"Bloomington","state":"Illinois","zip":"61704","country":"United States","contacts":[{"name":"Site Public Contact","role":"CONTACT","phone":"309-243-3605","email":"andersonj@illinoiscancercare.com"},{"name":"Bryan A. Faller","role":"PRINCIPAL_INVESTIGATOR"}],"geoPoint":{"lat":40.4842,"lon":-88.99369}},{"facility":"Illinois CancerCare-Canton","status":"RECRUITING","city":"Canton","state":"Illinois","zip":"61520","country":"United States","contacts":[{"name":"Site Public Contact","role":"CONTACT","phone":"309-243-3605","email":"andersonj@illinoiscancercare.com"},{"name":"Bryan A. Faller","role":"PRINCIPAL_INVESTIGATOR"}],"geoPoint":{"lat":40.55809,"lon":-90.03512}},{"facility":"Illinois CancerCare-Carthage","status":"RECRUITING","city":"Carthage","state":"Illinois","zip":"62321","country":"United States","contacts":[{"name":"Site Public Contact","role":"CONTACT","phone":"309-243-3605","email":"andersonj@illinoiscancercare.com"},{"name":"Bryan A. Faller","role":"PRINCIPAL_INVESTIGATOR"}],"geoPoint":{"lat":40.41643,"lon":-91.13625}},{"facility":"Centralia Oncology Clinic","status":"RECRUITING","city":"Centralia","state":"Illinois","zip":"62801","country":"United States","contacts":[{"name":"Site Public Contact","role":"CONTACT","phone":"217-876-4762","email":"morganthaler.jodi@mhsil.com"},{"name":"Bryan A. Faller","role":"PRINCIPAL_INVESTIGATOR"}],"geoPoint":{"lat":38.52505,"lon":-89.1334}},{"facility":"Northwestern University","status":"RECRUITING","city":"Chicago","state":"Illinois","zip":"60611","country":"United States","contacts":[{"name":"Site Public Contact","role":"CONTACT","phone":"312-695-1301","email":"cancer@northwestern.edu"},{"name":"Mohamed E. Abazeed","role":"PRINCIPAL_INVESTIGATOR"}],"geoPoint":{"lat":41.85003,"lon":-87.65005}},{"facility":"Advocate Illinois Masonic Medical Center","status":"RECRUITING","city":"Chicago","state":"Illinois","zip":"60657","country":"United States","contacts":[{"name":"Site Public Contact","role":"CONTACT","phone":"773-296-5360"},{"name":"Jeffrey A. Kittel","role":"PRINCIPAL_INVESTIGATOR"}],"geoPoint":{"lat":41.85003,"lon":-87.65005}},{"facility":"AMG Crystal Lake - Oncology","status":"RECRUITING","city":"Crystal Lake","state":"Illinois","zip":"60014","country":"United States","contacts":[{"name":"Site Public Contact","role":"CONTACT","phone":"630-929-6129","email":"advocateresearch@advocate.com"},{"name":"Jeffrey A. Kittel","role":"PRINCIPAL_INVESTIGATOR"}],"geoPoint":{"lat":42.24113,"lon":-88.3162}},{"facility":"Carle at The Riverfront","status":"RECRUITING","city":"Danville","state":"Illinois","zip":"61832","country":"United States","contacts":[{"name":"Site Public Contact","role":"CONTACT","phone":"800-446-5532","email":"Research@Carle.com"},{"name":"Sinisa Stanic","role":"PRINCIPAL_INVESTIGATOR"}],"geoPoint":{"lat":40.12448,"lon":-87.63002}},{"facility":"Cancer Care Specialists of Illinois - Decatur","status":"RECRUITING","city":"Decatur","state":"Illinois","zip":"62526","country":"United States","contacts":[{"name":"Site Public Contact","role":"CONTACT","phone":"217-876-4762","email":"morganthaler.jodi@mhsil.com"},{"name":"Bryan A. Faller","role":"PRINCIPAL_INVESTIGATOR"}],"geoPoint":{"lat":39.84031,"lon":-88.9548}},{"facility":"Decatur Memorial Hospital","status":"RECRUITING","city":"Decatur","state":"Illinois","zip":"62526","country":"United States","contacts":[{"name":"Site Public Contact","role":"CONTACT","phone":"217-876-4762","email":"morganthaler.jodi@mhsil.com"},{"name":"Bryan A. Faller","role":"PRINCIPAL_INVESTIGATOR"}],"geoPoint":{"lat":39.84031,"lon":-88.9548}},{"facility":"Northwestern Medicine Cancer Center Kishwaukee","status":"RECRUITING","city":"DeKalb","state":"Illinois","zip":"60115","country":"United States","contacts":[{"name":"Site Public Contact","role":"CONTACT","phone":"630-352-5360","email":"Donald.Smith3@nm.org"},{"name":"Mohamed E. Abazeed","role":"PRINCIPAL_INVESTIGATOR"}],"geoPoint":{"lat":41.92947,"lon":-88.75036}},{"facility":"Advocate Good Samaritan Hospital","status":"RECRUITING","city":"Downers Grove","state":"Illinois","zip":"60515","country":"United States","contacts":[{"name":"Site Public Contact","role":"CONTACT","phone":"630-275-1270","email":"Barbara.barhamand@advocatehealth.com"},{"name":"Jeffrey A. Kittel","role":"PRINCIPAL_INVESTIGATOR"}],"geoPoint":{"lat":41.80892,"lon":-88.01117}},{"facility":"Carle Physician Group-Effingham","status":"RECRUITING","city":"Effingham","state":"Illinois","zip":"62401","country":"United States","contacts":[{"name":"Site Public Contact","role":"CONTACT","phone":"800-446-5532","email":"Research@carle.com"},{"name":"Sinisa Stanic","role":"PRINCIPAL_INVESTIGATOR"}],"geoPoint":{"lat":39.12004,"lon":-88.54338}},{"facility":"Crossroads Cancer Center","status":"RECRUITING","city":"Effingham","state":"Illinois","zip":"62401","country":"United States","contacts":[{"name":"Site Public Contact","role":"CONTACT","phone":"217-876-4762","email":"morganthaler.jodi@mhsil.com"},{"name":"Bryan A. Faller","role":"PRINCIPAL_INVESTIGATOR"}],"geoPoint":{"lat":39.12004,"lon":-88.54338}},{"facility":"Advocate Sherman Hospital","status":"RECRUITING","city":"Elgin","state":"Illinois","zip":"60123","country":"United States","contacts":[{"name":"Site Public Contact","role":"CONTACT","phone":"847-429-2907"},{"name":"Jeffrey A. Kittel","role":"PRINCIPAL_INVESTIGATOR"}],"geoPoint":{"lat":42.03725,"lon":-88.28119}},{"facility":"Illinois CancerCare-Eureka","status":"RECRUITING","city":"Eureka","state":"Illinois","zip":"61530","country":"United States","contacts":[{"name":"Site Public Contact","role":"CONTACT","phone":"309-243-3605","email":"andersonj@illinoiscancercare.com"},{"name":"Bryan A. Faller","role":"PRINCIPAL_INVESTIGATOR"}],"geoPoint":{"lat":40.72143,"lon":-89.27286}},{"facility":"Illinois CancerCare-Galesburg","status":"RECRUITING","city":"Galesburg","state":"Illinois","zip":"61401","country":"United States","contacts":[{"name":"Site Public Contact","role":"CONTACT","phone":"309-243-3605","email":"andersonj@illinoiscancercare.com"},{"name":"Bryan A. Faller","role":"PRINCIPAL_INVESTIGATOR"}],"geoPoint":{"lat":40.94782,"lon":-90.37124}},{"facility":"Northwestern Medicine Cancer Center Delnor","status":"RECRUITING","city":"Geneva","state":"Illinois","zip":"60134","country":"United States","contacts":[{"name":"Site Public Contact","role":"CONTACT","phone":"630-352-5360","email":"Donald.Smith3@nm.org"},{"name":"Mohamed E. Abazeed","role":"PRINCIPAL_INVESTIGATOR"}],"geoPoint":{"lat":41.88753,"lon":-88.30535}},{"facility":"Advocate South Suburban Hospital","status":"RECRUITING","city":"Hazel Crest","state":"Illinois","zip":"60429","country":"United States","contacts":[{"name":"Site Public Contact","role":"CONTACT","phone":"708-799-9995"},{"name":"Jeffrey A. Kittel","role":"PRINCIPAL_INVESTIGATOR"}],"geoPoint":{"lat":41.5717,"lon":-87.69449}},{"facility":"Illinois CancerCare-Kewanee Clinic","status":"RECRUITING","city":"Kewanee","state":"Illinois","zip":"61443","country":"United States","contacts":[{"name":"Site Public Contact","role":"CONTACT","phone":"309-243-3605","email":"andersonj@illinoiscancercare.com"},{"name":"Bryan A. Faller","role":"PRINCIPAL_INVESTIGATOR"}],"geoPoint":{"lat":41.24559,"lon":-89.92483}},{"facility":"AMG Libertyville - Oncology","status":"RECRUITING","city":"Libertyville","state":"Illinois","zip":"60048","country":"United States","contacts":[{"name":"Site Public Contact","role":"CONTACT","phone":"630-929-6129","email":"advocateresearch@advocatehealth.com"},{"name":"Jeffrey A. Kittel","role":"PRINCIPAL_INVESTIGATOR"}],"geoPoint":{"lat":42.28308,"lon":-87.95313}},{"facility":"Condell Memorial Hospital","status":"RECRUITING","city":"Libertyville","state":"Illinois","zip":"60048","country":"United States","contacts":[{"name":"Site Public Contact","role":"CONTACT","phone":"630-929-6129","email":"advocateresearch@advocatehealth.com"},{"name":"Jeffrey A. Kittel","role":"PRINCIPAL_INVESTIGATOR"}],"geoPoint":{"lat":42.28308,"lon":-87.95313}},{"facility":"Illinois CancerCare-Macomb","status":"RECRUITING","city":"Macomb","state":"Illinois","zip":"61455","country":"United States","contacts":[{"name":"Site Public Contact","role":"CONTACT","phone":"309-243-3605","email":"andersonj@illinoiscancercare.com"},{"name":"Bryan A. Faller","role":"PRINCIPAL_INVESTIGATOR"}],"geoPoint":{"lat":40.45921,"lon":-90.6718}},{"facility":"Carle Physician Group-Mattoon/Charleston","status":"RECRUITING","city":"Mattoon","state":"Illinois","zip":"61938","country":"United States","contacts":[{"name":"Site Public Contact","role":"CONTACT","phone":"800-446-5532","email":"Research@carle.com"},{"name":"Sinisa Stanic","role":"PRINCIPAL_INVESTIGATOR"}],"geoPoint":{"lat":39.48309,"lon":-88.37283}},{"facility":"Cancer Care Center of O'Fallon","status":"RECRUITING","city":"O'Fallon","state":"Illinois","zip":"62269","country":"United States","contacts":[{"name":"Site Public Contact","role":"CONTACT","phone":"217-876-4762","email":"morganthaler.jodi@mhsil.com"},{"name":"Bryan A. Faller","role":"PRINCIPAL_INVESTIGATOR"}],"geoPoint":{"lat":38.59227,"lon":-89.91121}},{"facility":"HSHS Saint Elizabeth's Hospital","status":"RECRUITING","city":"O'Fallon","state":"Illinois","zip":"62269","country":"United States","contacts":[{"name":"Site Public Contact","role":"CONTACT","phone":"217-876-4762","email":"morganthaler.jodi@mhsil.com"},{"name":"Bryan A. Faller","role":"PRINCIPAL_INVESTIGATOR"}],"geoPoint":{"lat":38.59227,"lon":-89.91121}},{"facility":"Advocate Christ Medical Center","status":"RECRUITING","city":"Oak Lawn","state":"Illinois","zip":"60453-2699","country":"United States","contacts":[{"name":"Site Public Contact","role":"CONTACT","phone":"800-323-8622"},{"name":"Jeffrey A. Kittel","role":"PRINCIPAL_INVESTIGATOR"}],"geoPoint":{"lat":41.71087,"lon":-87.75811}},{"facility":"Illinois CancerCare-Ottawa Clinic","status":"RECRUITING","city":"Ottawa","state":"Illinois","zip":"61350","country":"United States","contacts":[{"name":"Site Public Contact","role":"CONTACT","phone":"309-243-3605","email":"andersonj@illinoiscancercare.com"},{"name":"Bryan A. Faller","role":"PRINCIPAL_INVESTIGATOR"}],"geoPoint":{"lat":41.34559,"lon":-88.84258}},{"facility":"Advocate High Tech Medical Park","status":"RECRUITING","city":"Palos Heights","state":"Illinois","zip":"60463","country":"United States","contacts":[{"name":"Site Public Contact","role":"CONTACT","email":"ncorp@aah.org"},{"name":"Jeffrey A. Kittel","role":"PRINCIPAL_INVESTIGATOR"}],"geoPoint":{"lat":41.66809,"lon":-87.79644}},{"facility":"Advocate Lutheran General Hospital","status":"RECRUITING","city":"Park Ridge","state":"Illinois","zip":"60068","country":"United States","contacts":[{"name":"Site Public Contact","role":"CONTACT","phone":"847-384-3621"},{"name":"Jeffrey A. Kittel","role":"PRINCIPAL_INVESTIGATOR"}],"geoPoint":{"lat":42.01114,"lon":-87.84062}},{"facility":"Illinois CancerCare-Pekin","status":"RECRUITING","city":"Pekin","state":"Illinois","zip":"61554","country":"United States","contacts":[{"name":"Site Public Contact","role":"CONTACT","phone":"309-243-3605","email":"andersonj@illinoiscancercare.com"},{"name":"Bryan A. Faller","role":"PRINCIPAL_INVESTIGATOR"}],"geoPoint":{"lat":40.56754,"lon":-89.64066}},{"facility":"Illinois CancerCare-Peoria","status":"RECRUITING","city":"Peoria","state":"Illinois","zip":"61615","country":"United States","contacts":[{"name":"Site Public Contact","role":"CONTACT","phone":"309-243-3605","email":"andersonj@illinoiscancercare.com"},{"name":"Bryan A. Faller","role":"PRINCIPAL_INVESTIGATOR"}],"geoPoint":{"lat":40.69365,"lon":-89.58899}},{"facility":"OSF Saint Francis Radiation Oncology at Peoria Cancer Center","status":"RECRUITING","city":"Peoria","state":"Illinois","zip":"61615","country":"United States","contacts":[{"name":"Site Public Contact","role":"CONTACT","phone":"309-243-3605","email":"andersonj@illinoiscancercare.com"},{"name":"Bryan A. Faller","role":"PRINCIPAL_INVESTIGATOR"}],"geoPoint":{"lat":40.69365,"lon":-89.58899}},{"facility":"Methodist Medical Center of Illinois","status":"RECRUITING","city":"Peoria","state":"Illinois","zip":"61636","country":"United States","contacts":[{"name":"Site Public Contact","role":"CONTACT","phone":"309-243-3605","email":"andersonj@illinoiscancercare.com"},{"name":"Bryan A. Faller","role":"PRINCIPAL_INVESTIGATOR"}],"geoPoint":{"lat":40.69365,"lon":-89.58899}},{"facility":"OSF Saint Francis Medical Center","status":"RECRUITING","city":"Peoria","state":"Illinois","zip":"61637","country":"United States","contacts":[{"name":"Site Public Contact","role":"CONTACT","phone":"309-243-3605","email":"andersonj@illinoiscancercare.com"},{"name":"Bryan A. Faller","role":"PRINCIPAL_INVESTIGATOR"}],"geoPoint":{"lat":40.69365,"lon":-89.58899}},{"facility":"Illinois CancerCare-Peru","status":"RECRUITING","city":"Peru","state":"Illinois","zip":"61354","country":"United States","contacts":[{"name":"Site Public Contact","role":"CONTACT","phone":"309-243-3605","email":"andersonj@illinoiscancercare.com"},{"name":"Bryan A. Faller","role":"PRINCIPAL_INVESTIGATOR"}],"geoPoint":{"lat":41.32753,"lon":-89.12897}},{"facility":"Illinois CancerCare-Princeton","status":"RECRUITING","city":"Princeton","state":"Illinois","zip":"61356","country":"United States","contacts":[{"name":"Site Public Contact","role":"CONTACT","phone":"309-243-3605","email":"andersonj@illinoiscancercare.com"},{"name":"Bryan A. Faller","role":"PRINCIPAL_INVESTIGATOR"}],"geoPoint":{"lat":41.36809,"lon":-89.46481}},{"facility":"UW Health Carbone Cancer Center Rockford","status":"RECRUITING","city":"Rockford","state":"Illinois","zip":"61114","country":"United States","contacts":[{"name":"Site Public Contact","role":"CONTACT","phone":"779-696-9378","email":"lkline@uwhealth.org"},{"name":"Fahrettin Covut","role":"PRINCIPAL_INVESTIGATOR"}],"geoPoint":{"lat":42.27113,"lon":-89.094}},{"facility":"Memorial Hospital East","status":"RECRUITING","city":"Shiloh","state":"Illinois","zip":"62269","country":"United States","contacts":[{"name":"Site Public Contact","role":"CONTACT","phone":"314-747-9912","email":"dschwab@wustl.edu"},{"name":"Pamela Samson","role":"PRINCIPAL_INVESTIGATOR"}],"geoPoint":{"lat":38.56144,"lon":-89.89732}},{"facility":"Southern Illinois University School of Medicine","status":"RECRUITING","city":"Springfield","state":"Illinois","zip":"62702","country":"United States","contacts":[{"name":"Site Public Contact","role":"CONTACT","phone":"217-545-7929"},{"name":"Bryan A. Faller","role":"PRINCIPAL_INVESTIGATOR"}],"geoPoint":{"lat":39.80172,"lon":-89.64371}},{"facility":"Springfield Clinic","status":"RECRUITING","city":"Springfield","state":"Illinois","zip":"62702","country":"United States","contacts":[{"name":"Site Public Contact","role":"CONTACT","phone":"800-444-7541"},{"name":"Bryan A. Faller","role":"PRINCIPAL_INVESTIGATOR"}],"geoPoint":{"lat":39.80172,"lon":-89.64371}},{"facility":"Springfield Memorial Hospital","status":"RECRUITING","city":"Springfield","state":"Illinois","zip":"62781","country":"United States","contacts":[{"name":"Site Public Contact","role":"CONTACT","phone":"217-528-7541","email":"pallante.beth@mhsil.com"},{"name":"Bryan A. Faller","role":"PRINCIPAL_INVESTIGATOR"}],"geoPoint":{"lat":39.80172,"lon":-89.64371}},{"facility":"Carle Cancer Center","status":"RECRUITING","city":"Urbana","state":"Illinois","zip":"61801","country":"United States","contacts":[{"name":"Site Public Contact","role":"CONTACT","phone":"800-446-5532","email":"Research@carle.com"},{"name":"Sinisa Stanic","role":"PRINCIPAL_INVESTIGATOR"}],"geoPoint":{"lat":40.11059,"lon":-88.20727}},{"facility":"Northwestern Medicine Cancer Center Warrenville","status":"RECRUITING","city":"Warrenville","state":"Illinois","zip":"60555","country":"United States","contacts":[{"name":"Site Public Contact","role":"CONTACT","phone":"630-352-5360","email":"Donald.Smith3@nm.org"},{"name":"Mohamed E. Abazeed","role":"PRINCIPAL_INVESTIGATOR"}],"geoPoint":{"lat":41.81781,"lon":-88.1734}},{"facility":"Illinois CancerCare - Washington","status":"RECRUITING","city":"Washington","state":"Illinois","zip":"61571","country":"United States","contacts":[{"name":"Site Public Contact","role":"CONTACT","phone":"309-243-3605","email":"andersonj@illinoiscancercare.com"},{"name":"Bryan A. Faller","role":"PRINCIPAL_INVESTIGATOR"}],"geoPoint":{"lat":40.70365,"lon":-89.40731}},{"facility":"Midwestern Regional Medical Center","status":"RECRUITING","city":"Zion","state":"Illinois","zip":"60099","country":"United States","contacts":[{"name":"Site Public Contact","role":"CONTACT","phone":"844-793-0745"},{"name":"Karan K. Shah","role":"PRINCIPAL_INVESTIGATOR"}],"geoPoint":{"lat":42.44613,"lon":-87.83285}},{"facility":"Northwest Cancer Center - Main Campus","status":"RECRUITING","city":"Crown Point","state":"Indiana","zip":"46307","country":"United States","contacts":[{"name":"Site Public Contact","role":"CONTACT","phone":"219-310-2550"},{"name":"Sinisa Stanic","role":"PRINCIPAL_INVESTIGATOR"}],"geoPoint":{"lat":41.41698,"lon":-87.36531}},{"facility":"Northwest Oncology LLC","status":"RECRUITING","city":"Dyer","state":"Indiana","zip":"46311","country":"United States","contacts":[{"name":"Site Public Contact","role":"CONTACT","phone":"219-924-8178"},{"name":"Sinisa Stanic","role":"PRINCIPAL_INVESTIGATOR"}],"geoPoint":{"lat":41.4942,"lon":-87.52171}},{"facility":"Northwest Cancer Center - Hobart","status":"RECRUITING","city":"Hobart","state":"Indiana","zip":"46342","country":"United States","contacts":[{"name":"Site Public Contact","role":"CONTACT","phone":"219-947-1795"},{"name":"Sinisa Stanic","role":"PRINCIPAL_INVESTIGATOR"}],"geoPoint":{"lat":41.53226,"lon":-87.25504}},{"facility":"Saint Mary Medical Center","status":"RECRUITING","city":"Hobart","state":"Indiana","zip":"46342","country":"United States","contacts":[{"name":"Site Public Contact","role":"CONTACT","phone":"219-836-6875","email":"CancerResearch@COMHS.org"},{"name":"Sinisa Stanic","role":"PRINCIPAL_INVESTIGATOR"}],"geoPoint":{"lat":41.53226,"lon":-87.25504}},{"facility":"The Community Hospital","status":"RECRUITING","city":"Munster","state":"Indiana","zip":"46321","country":"United States","contacts":[{"name":"Site Public Contact","role":"CONTACT","phone":"219-836-3349"},{"name":"Sinisa Stanic","role":"PRINCIPAL_INVESTIGATOR"}],"geoPoint":{"lat":41.56448,"lon":-87.51254}},{"facility":"Women's Diagnostic Center - Munster","status":"RECRUITING","city":"Munster","state":"Indiana","zip":"46321","country":"United States","contacts":[{"name":"Site Public Contact","role":"CONTACT","phone":"219-934-8869","email":"mnicholson@comhs.org"},{"name":"Sinisa Stanic","role":"PRINCIPAL_INVESTIGATOR"}],"geoPoint":{"lat":41.56448,"lon":-87.51254}},{"facility":"Northwest Cancer Center - Valparaiso","status":"RECRUITING","city":"Valparaiso","state":"Indiana","zip":"46383","country":"United States","contacts":[{"name":"Site Public Contact","role":"CONTACT","phone":"219-836-6875","email":"CancerResearch@COMHS.org"},{"name":"Sinisa Stanic","role":"PRINCIPAL_INVESTIGATOR"}],"geoPoint":{"lat":41.47309,"lon":-87.06114}},{"facility":"Mary Greeley Medical Center","status":"RECRUITING","city":"Ames","state":"Iowa","zip":"50010","country":"United States","contacts":[{"name":"Site Public Contact","role":"CONTACT","phone":"515-956-4132"},{"name":"Joseph J. Merchant","role":"PRINCIPAL_INVESTIGATOR"}],"geoPoint":{"lat":42.03471,"lon":-93.61994}},{"facility":"McFarland Clinic - Ames","status":"RECRUITING","city":"Ames","state":"Iowa","zip":"50010","country":"United States","contacts":[{"name":"Site Public Contact","role":"CONTACT","phone":"515-239-4734","email":"ksoder@mcfarlandclinic.com"},{"name":"Joseph J. Merchant","role":"PRINCIPAL_INVESTIGATOR"}],"geoPoint":{"lat":42.03471,"lon":-93.61994}},{"facility":"UI Health Care Mission Cancer and Blood - Ankeny Clinic","status":"RECRUITING","city":"Ankeny","state":"Iowa","zip":"50023","country":"United States","contacts":[{"name":"Site Public Contact","role":"CONTACT","phone":"515-241-3305"},{"name":"Seema Harichand-Herdt","role":"PRINCIPAL_INVESTIGATOR"}],"geoPoint":{"lat":41.72971,"lon":-93.60577}},{"facility":"Saint Luke's Hospital","status":"RECRUITING","city":"Cedar Rapids","state":"Iowa","zip":"52402","country":"United States","contacts":[{"name":"Site Public Contact","role":"CONTACT","phone":"319-368-5514","email":"Rachel.varner@unitypoint.org"},{"name":"Candace R. Correa","role":"PRINCIPAL_INVESTIGATOR"}],"geoPoint":{"lat":42.00833,"lon":-91.64407}},{"facility":"Mercy Cancer Center-West Lakes","status":"RECRUITING","city":"Clive","state":"Iowa","zip":"50325","country":"United States","contacts":[{"name":"Site Public Contact","role":"CONTACT","phone":"515-358-6613","email":"cancerresearch@mercydesmoines.org"},{"name":"Richard L. Deming","role":"PRINCIPAL_INVESTIGATOR"}],"geoPoint":{"lat":41.60304,"lon":-93.72411}},{"facility":"UI Health Care Mission Cancer and Blood - West Des Moines Clinic","status":"RECRUITING","city":"Clive","state":"Iowa","zip":"50325","country":"United States","contacts":[{"name":"Site Public Contact","role":"CONTACT","phone":"515-241-3305"},{"name":"Seema Harichand-Herdt","role":"PRINCIPAL_INVESTIGATOR"}],"geoPoint":{"lat":41.60304,"lon":-93.72411}},{"facility":"Heartland Oncology and Hematology LLP","status":"RECRUITING","city":"Council Bluffs","state":"Iowa","zip":"51503","country":"United States","contacts":[{"name":"Site Public Contact","role":"CONTACT","phone":"712-322-4136"},{"name":"Tien-Shew W. Huang","role":"PRINCIPAL_INVESTIGATOR"}],"geoPoint":{"lat":41.26194,"lon":-95.86083}},{"facility":"Methodist Jennie Edmundson Hospital","status":"RECRUITING","city":"Council Bluffs","state":"Iowa","zip":"51503","country":"United States","contacts":[{"name":"Site Public Contact","role":"CONTACT","phone":"402-354-7939","email":"kathryn.bartz@nmhs.org"},{"name":"Tien-Shew W. Huang","role":"PRINCIPAL_INVESTIGATOR"}],"geoPoint":{"lat":41.26194,"lon":-95.86083}},{"facility":"Greater Regional Medical Center","status":"RECRUITING","city":"Creston","state":"Iowa","zip":"50801","country":"United States","contacts":[{"name":"Site Public Contact","role":"CONTACT","phone":"515-358-6613","email":"cancerresearch@mercydesmoines.org"},{"name":"Richard L. Deming","role":"PRINCIPAL_INVESTIGATOR"}],"geoPoint":{"lat":41.0586,"lon":-94.36135}},{"facility":"Iowa Methodist Medical Center","status":"RECRUITING","city":"Des Moines","state":"Iowa","zip":"50309","country":"United States","contacts":[{"name":"Site Public Contact","role":"CONTACT","phone":"515-241-6727"},{"name":"Seema Harichand-Herdt","role":"PRINCIPAL_INVESTIGATOR"}],"geoPoint":{"lat":41.60054,"lon":-93.60911}},{"facility":"UI Health Care Mission Cancer and Blood - Des Moines Clinic","status":"RECRUITING","city":"Des Moines","state":"Iowa","zip":"50309","country":"United States","contacts":[{"name":"Site Public Contact","role":"CONTACT","phone":"515-241-3305"},{"name":"Seema Harichand-Herdt","role":"PRINCIPAL_INVESTIGATOR"}],"geoPoint":{"lat":41.60054,"lon":-93.60911}},{"facility":"Mercy Medical Center - Des Moines","status":"RECRUITING","city":"Des Moines","state":"Iowa","zip":"50314","country":"United States","contacts":[{"name":"Site Public Contact","role":"CONTACT","phone":"515-358-6613","email":"cancerresearch@mercydesmoines.org"},{"name":"Richard L. Deming","role":"PRINCIPAL_INVESTIGATOR"}],"geoPoint":{"lat":41.60054,"lon":-93.60911}},{"facility":"UI Health Care Mission Cancer and Blood - Laurel Clinic","status":"RECRUITING","city":"Des Moines","state":"Iowa","zip":"50314","country":"United States","contacts":[{"name":"Site Public Contact","role":"CONTACT","phone":"515-241-3305"},{"name":"Seema Harichand-Herdt","role":"PRINCIPAL_INVESTIGATOR"}],"geoPoint":{"lat":41.60054,"lon":-93.60911}},{"facility":"UI Health Care Mission Cancer and Blood - Waukee Clinic","status":"RECRUITING","city":"Waukee","state":"Iowa","zip":"50263","country":"United States","contacts":[{"name":"Site Public Contact","role":"CONTACT","phone":"515-241-3305"},{"name":"Seema Harichand-Herdt","role":"PRINCIPAL_INVESTIGATOR"}],"geoPoint":{"lat":41.61166,"lon":-93.88523}},{"facility":"Mercy Medical Center-West Lakes","status":"RECRUITING","city":"West Des Moines","state":"Iowa","zip":"50266","country":"United States","contacts":[{"name":"Site Public Contact","role":"CONTACT","phone":"515-358-6613","email":"cancerresearch@mercydesmoines.org"},{"name":"Richard L. Deming","role":"PRINCIPAL_INVESTIGATOR"}],"geoPoint":{"lat":41.57721,"lon":-93.71133}},{"facility":"University of Kansas Cancer Center","status":"RECRUITING","city":"Kansas City","state":"Kansas","zip":"66160","country":"United States","contacts":[{"name":"Site Public Contact","role":"CONTACT","phone":"913-588-3671","email":"KUCC_Navigation@kumc.edu"},{"name":"Krishna Reddy","role":"PRINCIPAL_INVESTIGATOR"}],"geoPoint":{"lat":39.11417,"lon":-94.62746}},{"facility":"The University of Kansas Cancer Center - Olathe","status":"RECRUITING","city":"Olathe","state":"Kansas","zip":"66061","country":"United States","contacts":[{"name":"Site Public Contact","role":"CONTACT","phone":"913-588-1569","email":"OlatheCCResearch@kumc.edu"},{"name":"Krishna Reddy","role":"PRINCIPAL_INVESTIGATOR"}],"geoPoint":{"lat":38.8814,"lon":-94.81913}},{"facility":"University of Kansas Cancer Center-Overland Park","status":"RECRUITING","city":"Overland Park","state":"Kansas","zip":"66210","country":"United States","contacts":[{"name":"Site Public Contact","role":"CONTACT","phone":"913-588-3671","email":"KUCC_Navigation@kumc.edu"},{"name":"Krishna Reddy","role":"PRINCIPAL_INVESTIGATOR"}],"geoPoint":{"lat":38.98223,"lon":-94.67079}},{"facility":"Salina Regional Health Center","status":"RECRUITING","city":"Salina","state":"Kansas","zip":"67401","country":"United States","contacts":[{"name":"Site Public Contact","role":"CONTACT","phone":"785-452-7038","email":"mleepers@srhc.com"},{"name":"Krishna Reddy","role":"PRINCIPAL_INVESTIGATOR"}],"geoPoint":{"lat":38.84028,"lon":-97.61142}},{"facility":"University of Kansas Health System Saint Francis Campus","status":"RECRUITING","city":"Topeka","state":"Kansas","zip":"66606","country":"United States","contacts":[{"name":"Site Public Contact","role":"CONTACT","phone":"785-295-8000"},{"name":"Krishna Reddy","role":"PRINCIPAL_INVESTIGATOR"}],"geoPoint":{"lat":39.04833,"lon":-95.67804}},{"facility":"University of Kansas Hospital-Westwood Cancer Center","status":"RECRUITING","city":"Westwood","state":"Kansas","zip":"66205","country":"United States","contacts":[{"name":"Site Public Contact","role":"CONTACT","phone":"913-588-3671","email":"KUCC_Navigation@kumc.edu"},{"name":"Krishna Reddy","role":"PRINCIPAL_INVESTIGATOR"}],"geoPoint":{"lat":39.04056,"lon":-94.6169}},{"facility":"Ascension Via Christi Hospitals Wichita","status":"RECRUITING","city":"Wichita","state":"Kansas","zip":"67214","country":"United States","contacts":[{"name":"Site Public Contact","role":"CONTACT","phone":"316-291-4774","email":"research@viachristi.org"},{"name":"Dennis F. Moore","role":"PRINCIPAL_INVESTIGATOR"}],"geoPoint":{"lat":37.69224,"lon":-97.33754}},{"facility":"University of Kentucky/Markey Cancer Center","status":"RECRUITING","city":"Lexington","state":"Kentucky","zip":"40536","country":"United States","contacts":[{"name":"Site Public Contact","role":"CONTACT","phone":"859-257-3379"},{"name":"Ronald C. McGarry","role":"PRINCIPAL_INVESTIGATOR"}],"geoPoint":{"lat":37.98869,"lon":-84.47772}},{"facility":"Louisiana State University Health Science Center","status":"RECRUITING","city":"New Orleans","state":"Louisiana","zip":"70112","country":"United States","contacts":[{"name":"Site Public Contact","role":"CONTACT","phone":"504-210-3539","email":"emede1@lsuhsc.edu"},{"name":"Brian C. Boulmay","role":"PRINCIPAL_INVESTIGATOR"}],"geoPoint":{"lat":29.95465,"lon":-90.07507}},{"facility":"University Medical Center New Orleans","status":"RECRUITING","city":"New Orleans","state":"Louisiana","zip":"70112","country":"United States","contacts":[{"name":"Site Public Contact","role":"CONTACT","phone":"504-210-3539","email":"emede1@lsuhsc.edu"},{"name":"Brian C. Boulmay","role":"PRINCIPAL_INVESTIGATOR"}],"geoPoint":{"lat":29.95465,"lon":-90.07507}},{"facility":"MaineHealth Maine Medical Center - Portland","status":"RECRUITING","city":"Portland","state":"Maine","zip":"04102","country":"United States","contacts":[{"name":"Site Public Contact","role":"CONTACT","phone":"207-396-8670","email":"clinicalresearch@mainehealth.org"},{"name":"Matthew D. Cheney","role":"PRINCIPAL_INVESTIGATOR"}],"geoPoint":{"lat":43.65737,"lon":-70.2589}},{"facility":"MaineHealth Cancer Care Center of York County","status":"RECRUITING","city":"Sanford","state":"Maine","zip":"04073","country":"United States","contacts":[{"name":"Site Public Contact","role":"CONTACT","phone":"207-459-1600"},{"name":"Matthew D. Cheney","role":"PRINCIPAL_INVESTIGATOR"}],"geoPoint":{"lat":43.43925,"lon":-70.77422}},{"facility":"MaineHealth Maine Medical Center- Scarborough","status":"RECRUITING","city":"Scarborough","state":"Maine","zip":"04074","country":"United States","contacts":[{"name":"Site Public Contact","role":"CONTACT","phone":"207-396-8670","email":"clinicalresearch@mainehealth.org"},{"name":"Matthew D. Cheney","role":"PRINCIPAL_INVESTIGATOR"}],"geoPoint":{"lat":43.57814,"lon":-70.32172}},{"facility":"MaineHealth Cancer Care and IV Therapy - South Portland","status":"RECRUITING","city":"South Portland","state":"Maine","zip":"04106","country":"United States","contacts":[{"name":"Site Public Contact","role":"CONTACT","phone":"207-396-8670","email":"clinicalresearch@mainehealth.org"},{"name":"Matthew D. Cheney","role":"PRINCIPAL_INVESTIGATOR"}],"geoPoint":{"lat":43.64147,"lon":-70.24088}},{"facility":"Luminis Health Anne Arundel Medical Center","status":"ACTIVE_NOT_RECRUITING","city":"Annapolis","state":"Maryland","zip":"21401","country":"United States","geoPoint":{"lat":38.97859,"lon":-76.49184}},{"facility":"Greater Baltimore Medical Center","status":"RECRUITING","city":"Baltimore","state":"Maryland","zip":"21204","country":"United States","contacts":[{"name":"Site Public Contact","role":"CONTACT","phone":"443-849-3706"},{"name":"Geoffrey A. Neuner","role":"PRINCIPAL_INVESTIGATOR"}],"geoPoint":{"lat":39.29038,"lon":-76.61219}},{"facility":"Sinai Hospital of Baltimore","status":"RECRUITING","city":"Baltimore","state":"Maryland","zip":"21215","country":"United States","contacts":[{"name":"Site Public Contact","role":"CONTACT","phone":"410-601-9083"},{"name":"David J. Perry","role":"PRINCIPAL_INVESTIGATOR"}],"geoPoint":{"lat":39.29038,"lon":-76.61219}},{"facility":"TidalHealth Richard A Henson Cancer Institute","status":"RECRUITING","city":"Ocean Pines","state":"Maryland","zip":"21811","country":"United States","contacts":[{"name":"Site Public Contact","role":"CONTACT","phone":"410-543-7067","email":"carol.messick@peninsula.org"},{"name":"John R. Mansueti","role":"PRINCIPAL_INVESTIGATOR"}],"geoPoint":{"lat":38.39539,"lon":-75.15574}},{"facility":"TidalHealth Peninsula Regional","status":"RECRUITING","city":"Salisbury","state":"Maryland","zip":"21801","country":"United States","contacts":[{"name":"Site Public Contact","role":"CONTACT","phone":"410-543-7032","email":"monika.naegeli@peninsula.org"},{"name":"John R. Mansueti","role":"PRINCIPAL_INVESTIGATOR"}],"geoPoint":{"lat":38.36067,"lon":-75.59937}},{"facility":"William E Kahlert Regional Cancer Center/Sinai Hospital","status":"RECRUITING","city":"Westminster","state":"Maryland","zip":"21157","country":"United States","contacts":[{"name":"Site Public Contact","role":"CONTACT","phone":"410-871-6400"},{"name":"David J. Perry","role":"PRINCIPAL_INVESTIGATOR"}],"geoPoint":{"lat":39.57538,"lon":-76.99581}},{"facility":"UMass Memorial Medical Center - University Campus","status":"RECRUITING","city":"Worcester","state":"Massachusetts","zip":"01655","country":"United States","contacts":[{"name":"Site Public Contact","role":"CONTACT","phone":"508-856-3216","email":"cancer.research@umassmed.edu"},{"name":"William V. Walsh","role":"PRINCIPAL_INVESTIGATOR"}],"geoPoint":{"lat":42.26259,"lon":-71.80229}},{"facility":"Trinity Health Saint Joseph Mercy Hospital Ann Arbor","status":"RECRUITING","city":"Ann Arbor","state":"Michigan","zip":"48106","country":"United States","contacts":[{"name":"Site Public Contact","role":"CONTACT","phone":"734-712-7251","email":"MCRCwebsitecontactform@stjoeshealth.org"},{"name":"Samir Narayan","role":"PRINCIPAL_INVESTIGATOR"}],"geoPoint":{"lat":42.27756,"lon":-83.74088}},{"facility":"McLaren Cancer Institute-Bay City","status":"RECRUITING","city":"Bay City","state":"Michigan","zip":"48706","country":"United States","contacts":[{"name":"Site Public Contact","role":"CONTACT","phone":"313-576-9790","email":"ctoadmin@karmanos.org"},{"name":"Brian K. Yeh","role":"PRINCIPAL_INVESTIGATOR"}],"geoPoint":{"lat":43.59447,"lon":-83.88886}},{"facility":"Trinity Health IHA Medical Group Hematology Oncology - Brighton","status":"RECRUITING","city":"Brighton","state":"Michigan","zip":"48114","country":"United States","contacts":[{"name":"Site Public Contact","role":"CONTACT","phone":"734-712-7251","email":"MCRCwebsitecontactform@stjoeshealth.org"},{"name":"Samir Narayan","role":"PRINCIPAL_INVESTIGATOR"}],"geoPoint":{"lat":42.52948,"lon":-83.78022}},{"facility":"Trinity Health Medical Center - Brighton","status":"RECRUITING","city":"Brighton","state":"Michigan","zip":"48114","country":"United States","contacts":[{"name":"Site Public Contact","role":"CONTACT","phone":"734-712-7251","email":"MCRCwebsitecontactform@stjoeshealth.org"},{"name":"Samir Narayan","role":"PRINCIPAL_INVESTIGATOR"}],"geoPoint":{"lat":42.52948,"lon":-83.78022}},{"facility":"Chelsea Hospital","status":"RECRUITING","city":"Chelsea","state":"Michigan","zip":"48118","country":"United States","contacts":[{"name":"Site Public Contact","role":"CONTACT","phone":"734-712-7251","email":"MCRCwebsitecontactform@stjoeshealth.org"},{"name":"Samir Narayan","role":"PRINCIPAL_INVESTIGATOR"}],"geoPoint":{"lat":42.31807,"lon":-84.02181}},{"facility":"Trinity Health IHA Medical Group Hematology Oncology - Chelsea Hospital","status":"RECRUITING","city":"Chelsea","state":"Michigan","zip":"48118","country":"United States","contacts":[{"name":"Site Public Contact","role":"CONTACT","phone":"734-712-7251","email":"MCRCwebsitecontactform@stjoeshealth.org"},{"name":"Samir Narayan","role":"PRINCIPAL_INVESTIGATOR"}],"geoPoint":{"lat":42.31807,"lon":-84.02181}},{"facility":"McLaren Cancer Institute-Clarkston","status":"RECRUITING","city":"Clarkston","state":"Michigan","zip":"48346","country":"United States","contacts":[{"name":"Site Public Contact","role":"CONTACT","phone":"313-576-9790","email":"ctoadmin@karmanos.org"},{"name":"Brian K. Yeh","role":"PRINCIPAL_INVESTIGATOR"}],"geoPoint":{"lat":42.73586,"lon":-83.41883}},{"facility":"Michigan Healthcare Professionals Clarkston","status":"RECRUITING","city":"Clarkston","state":"Michigan","zip":"48346","country":"United States","contacts":[{"name":"Site Public Contact","role":"CONTACT","phone":"941-833-5700","email":"rudi.ross@profoundresearch.io"},{"name":"Frank A. Vicini","role":"PRINCIPAL_INVESTIGATOR"}],"geoPoint":{"lat":42.73586,"lon":-83.41883}},{"facility":"Wayne State University/Karmanos Cancer Institute","status":"RECRUITING","city":"Detroit","state":"Michigan","zip":"48201","country":"United States","contacts":[{"name":"Site Public Contact","role":"CONTACT","phone":"313-576-9790","email":"ctoadmin@karmanos.org"},{"name":"Brian K. Yeh","role":"PRINCIPAL_INVESTIGATOR"}],"geoPoint":{"lat":42.33143,"lon":-83.04575}},{"facility":"Michigan Healthcare Professionals Farmington","status":"RECRUITING","city":"Farmington Hills","state":"Michigan","zip":"48334","country":"United States","contacts":[{"name":"Site Public Contact","role":"CONTACT","phone":"941-833-5700","email":"rudi.ross@profoundresearch.io"},{"name":"Frank A. Vicini","role":"PRINCIPAL_INVESTIGATOR"}],"geoPoint":{"lat":42.48531,"lon":-83.37716}},{"facility":"Weisberg Cancer Treatment Center","status":"RECRUITING","city":"Farmington Hills","state":"Michigan","zip":"48334","country":"United States","contacts":[{"name":"Site Public Contact","role":"CONTACT","phone":"313-576-9790","email":"ctoadmin@karmanos.org"},{"name":"Brian K. Yeh","role":"PRINCIPAL_INVESTIGATOR"}],"geoPoint":{"lat":42.48531,"lon":-83.37716}},{"facility":"Corewell Health Farmington Hills Hospital","status":"RECRUITING","city":"Farmington Hills","state":"Michigan","zip":"48336","country":"United States","contacts":[{"name":"Site Public Contact","role":"CONTACT","phone":"248-551-7695"},{"name":"Inga S. Grills","role":"PRINCIPAL_INVESTIGATOR"}],"geoPoint":{"lat":42.48531,"lon":-83.37716}},{"facility":"McLaren Cancer Institute-Flint","status":"RECRUITING","city":"Flint","state":"Michigan","zip":"48532","country":"United States","contacts":[{"name":"Site Public Contact","role":"CONTACT","phone":"313-576-9790","email":"ctoadmin@karmanos.org"},{"name":"Brian K. Yeh","role":"PRINCIPAL_INVESTIGATOR"}],"geoPoint":{"lat":43.01253,"lon":-83.68746}},{"facility":"Trinity Health Grand Rapids Hospital","status":"RECRUITING","city":"Grand Rapids","state":"Michigan","zip":"49503","country":"United States","contacts":[{"name":"Site Public Contact","role":"CONTACT","phone":"616-391-1230","email":"crcwm-regulatory@crcwm.org"},{"name":"Kathleen Y. Butler","role":"PRINCIPAL_INVESTIGATOR"}],"geoPoint":{"lat":42.96336,"lon":-85.66809}},{"facility":"Bronson Methodist Hospital","status":"RECRUITING","city":"Kalamazoo","state":"Michigan","zip":"49007","country":"United States","contacts":[{"name":"Site Public Contact","role":"CONTACT","phone":"616-391-1230","email":"crcwm-regulatory@crcwm.org"},{"name":"Kathleen Y. Butler","role":"PRINCIPAL_INVESTIGATOR"}],"geoPoint":{"lat":42.29171,"lon":-85.58723}},{"facility":"West Michigan Cancer Center","status":"RECRUITING","city":"Kalamazoo","state":"Michigan","zip":"49007","country":"United States","contacts":[{"name":"Site Public Contact","role":"CONTACT","phone":"616-391-1230","email":"crcwm-regulatory@crcwm.org"},{"name":"Kathleen Y. Butler","role":"PRINCIPAL_INVESTIGATOR"}],"geoPoint":{"lat":42.29171,"lon":-85.58723}},{"facility":"Beacon Kalamazoo","status":"RECRUITING","city":"Kalamazoo","state":"Michigan","zip":"49048","country":"United States","contacts":[{"name":"Site Public Contact","role":"CONTACT","phone":"574-647-7370"},{"name":"Kathleen Y. Butler","role":"PRINCIPAL_INVESTIGATOR"}],"geoPoint":{"lat":42.29171,"lon":-85.58723}},{"facility":"Karmanos Cancer Institute at McLaren Greater Lansing","status":"RECRUITING","city":"Lansing","state":"Michigan","zip":"48910","country":"United States","contacts":[{"name":"Site Public Contact","role":"CONTACT","phone":"313-576-9790","email":"ctoadmin@karmanos.org"},{"name":"Brian K. Yeh","role":"PRINCIPAL_INVESTIGATOR"}],"geoPoint":{"lat":42.73253,"lon":-84.55553}},{"facility":"University of Michigan Health - Sparrow Lansing","status":"RECRUITING","city":"Lansing","state":"Michigan","zip":"48912","country":"United States","contacts":[{"name":"Site Public Contact","role":"CONTACT","phone":"517-364-3712","email":"harsha.trivedi@umhsparrow.org"},{"name":"Samir Narayan","role":"PRINCIPAL_INVESTIGATOR"}],"geoPoint":{"lat":42.73253,"lon":-84.55553}},{"facility":"McLaren Cancer Institute-Lapeer Region","status":"RECRUITING","city":"Lapeer","state":"Michigan","zip":"48446","country":"United States","contacts":[{"name":"Site Public Contact","role":"CONTACT","phone":"313-576-9790","email":"ctoadmin@karmanos.org"},{"name":"Brian K. Yeh","role":"PRINCIPAL_INVESTIGATOR"}],"geoPoint":{"lat":43.05142,"lon":-83.31883}},{"facility":"Trinity Health Saint Mary Mercy Livonia Hospital","status":"RECRUITING","city":"Livonia","state":"Michigan","zip":"48154","country":"United States","contacts":[{"name":"Site Public Contact","role":"CONTACT","phone":"734-712-7251","email":"MCRCwebsitecontactform@stjoeshealth.org"},{"name":"Samir Narayan","role":"PRINCIPAL_INVESTIGATOR"}],"geoPoint":{"lat":42.36837,"lon":-83.35271}},{"facility":"Michigan Healthcare Professionals Macomb","status":"RECRUITING","city":"Macomb","state":"Michigan","zip":"48044","country":"United States","contacts":[{"name":"Site Public Contact","role":"CONTACT","email":"rudi.ross@profoundresearch.io"},{"name":"Frank A. Vicini","role":"PRINCIPAL_INVESTIGATOR"}],"geoPoint":{"lat":42.70087,"lon":-82.95909}},{"facility":"Michigan Healthcare Professionals Madison Heights","status":"RECRUITING","city":"Madison Heights","state":"Michigan","zip":"48071","country":"United States","contacts":[{"name":"Site Public Contact","role":"CONTACT","phone":"941-833-5700","email":"rudi.ross@profoundresearch.io"},{"name":"Frank A. Vicini","role":"PRINCIPAL_INVESTIGATOR"}],"geoPoint":{"lat":42.48587,"lon":-83.1052}},{"facility":"McLaren Cancer Institute-Macomb","status":"RECRUITING","city":"Mount Clemens","state":"Michigan","zip":"48043","country":"United States","contacts":[{"name":"Site Public Contact","role":"CONTACT","phone":"313-576-9790","email":"ctoadmin@karmanos.org"},{"name":"Brian K. Yeh","role":"PRINCIPAL_INVESTIGATOR"}],"geoPoint":{"lat":42.59726,"lon":-82.87798}},{"facility":"McLaren Cancer Institute-Northern Michigan","status":"RECRUITING","city":"Petoskey","state":"Michigan","zip":"49770","country":"United States","contacts":[{"name":"Site Public Contact","role":"CONTACT","phone":"313-576-9790","email":"ctoadmin@karmanos.org"},{"name":"Brian K. Yeh","role":"PRINCIPAL_INVESTIGATOR"}],"geoPoint":{"lat":45.37334,"lon":-84.95533}},{"facility":"Michigan Healthcare Professionals Pontiac","status":"RECRUITING","city":"Pontiac","state":"Michigan","zip":"48341","country":"United States","contacts":[{"name":"Site Public Contact","role":"CONTACT","phone":"248-858-6215","email":"Emily.Crofts@trinity-health.org"},{"name":"Samir Narayan","role":"PRINCIPAL_INVESTIGATOR"}],"geoPoint":{"lat":42.63892,"lon":-83.29105}},{"facility":"Trinity Health Saint Joseph Mercy Oakland Hospital","status":"RECRUITING","city":"Pontiac","state":"Michigan","zip":"48341","country":"United States","contacts":[{"name":"Site Public Contact","role":"CONTACT","phone":"734-712-7251","email":"MCRCwebsitecontactform@stjoeshealth.org"},{"name":"Samir Narayan","role":"PRINCIPAL_INVESTIGATOR"}],"geoPoint":{"lat":42.63892,"lon":-83.29105}},{"facility":"McLaren-Port Huron","status":"RECRUITING","city":"Port Huron","state":"Michigan","zip":"48060","country":"United States","contacts":[{"name":"Site Public Contact","role":"CONTACT","phone":"313-576-9790","email":"ctoadmin@karmanos.org"},{"name":"Brian K. Yeh","role":"PRINCIPAL_INVESTIGATOR"}],"geoPoint":{"lat":42.97086,"lon":-82.42491}},{"facility":"Corewell Health William Beaumont University Hospital","status":"RECRUITING","city":"Royal Oak","state":"Michigan","zip":"48073","country":"United States","contacts":[{"name":"Site Public Contact","role":"CONTACT","phone":"248-551-7695"},{"name":"Inga S. Grills","role":"PRINCIPAL_INVESTIGATOR"}],"geoPoint":{"lat":42.48948,"lon":-83.14465}},{"facility":"Munson Medical Center","status":"RECRUITING","city":"Traverse City","state":"Michigan","zip":"49684","country":"United States","contacts":[{"name":"Site Public Contact","role":"CONTACT","phone":"616-391-1230","email":"crcwm-regulatory@crcwm.org"},{"name":"Kathleen Y. Butler","role":"PRINCIPAL_INVESTIGATOR"}],"geoPoint":{"lat":44.76306,"lon":-85.62063}},{"facility":"Corewell Health Beaumont Troy Hospital","status":"RECRUITING","city":"Troy","state":"Michigan","zip":"48085","country":"United States","contacts":[{"name":"Site Public Contact","role":"CONTACT","phone":"248-551-7695"},{"name":"Inga S. Grills","role":"PRINCIPAL_INVESTIGATOR"}],"geoPoint":{"lat":42.60559,"lon":-83.14993}},{"facility":"Michigan Healthcare Professionals Troy","status":"RECRUITING","city":"Troy","state":"Michigan","zip":"48098","country":"United States","contacts":[{"name":"Site Public Contact","role":"CONTACT","email":"rudi.ross@profoundresearch.io"},{"name":"Frank A. Vicini","role":"PRINCIPAL_INVESTIGATOR"}],"geoPoint":{"lat":42.60559,"lon":-83.14993}},{"facility":"Henry Ford Health Warren Hospital","status":"RECRUITING","city":"Warren","state":"Michigan","zip":"48093","country":"United States","contacts":[{"name":"Site Public Contact","role":"CONTACT","phone":"313-343-3166","email":"kforman1@hfhs.org"},{"name":"Samir Narayan","role":"PRINCIPAL_INVESTIGATOR"}],"geoPoint":{"lat":42.49044,"lon":-83.01304}},{"facility":"University of Michigan Health - West","status":"RECRUITING","city":"Wyoming","state":"Michigan","zip":"49519","country":"United States","contacts":[{"name":"Site Public Contact","role":"CONTACT","phone":"616-391-1230","email":"crcwm-regulatory@crcwm.org"},{"name":"Kathleen Y. Butler","role":"PRINCIPAL_INVESTIGATOR"}],"geoPoint":{"lat":42.91336,"lon":-85.70531}},{"facility":"Trinity Health IHA Medical Group Hematology Oncology Ann Arbor Campus","status":"RECRUITING","city":"Ypsilanti","state":"Michigan","zip":"48197","country":"United States","contacts":[{"name":"Site Public Contact","role":"CONTACT","phone":"734-712-7251","email":"MCRCwebsitecontactform@stjoeshealth.org"},{"name":"Samir Narayan","role":"PRINCIPAL_INVESTIGATOR"}],"geoPoint":{"lat":42.24115,"lon":-83.61299}},{"facility":"Sanford Joe Lueken Cancer Center","status":"RECRUITING","city":"Bemidji","state":"Minnesota","zip":"56601","country":"United States","contacts":[{"name":"Site Public Contact","role":"CONTACT","phone":"218-333-5000","email":"OncologyClinicalTrialsFargo@sanfordhealth.org"},{"name":"Daniel Almquist","role":"PRINCIPAL_INVESTIGATOR"}],"geoPoint":{"lat":47.47356,"lon":-94.88028}},{"facility":"Essentia Health Saint Joseph's Medical Center","status":"RECRUITING","city":"Brainerd","state":"Minnesota","zip":"56401","country":"United States","contacts":[{"name":"Site Public Contact","role":"CONTACT","phone":"218-786-3308","email":"CancerTrials@EssentiaHealth.org"},{"name":"Bret E. Friday","role":"PRINCIPAL_INVESTIGATOR"}],"geoPoint":{"lat":46.35802,"lon":-94.20083}},{"facility":"Essentia Health - Deer River Clinic","status":"RECRUITING","city":"Deer River","state":"Minnesota","zip":"56636","country":"United States","contacts":[{"name":"Site Public Contact","role":"CONTACT","phone":"218-786-3308","email":"CancerTrials@EssentiaHealth.org"},{"name":"Bret E. Friday","role":"PRINCIPAL_INVESTIGATOR"}],"geoPoint":{"lat":47.333,"lon":-93.79272}},{"facility":"Essentia Health Cancer Center","status":"RECRUITING","city":"Duluth","state":"Minnesota","zip":"55805","country":"United States","contacts":[{"name":"Site Public Contact","role":"CONTACT","phone":"218-786-3308","email":"CancerTrials@EssentiaHealth.org"},{"name":"Bret E. Friday","role":"PRINCIPAL_INVESTIGATOR"}],"geoPoint":{"lat":46.78327,"lon":-92.10658}},{"facility":"Essentia Health Saint Mary's Medical Center","status":"RECRUITING","city":"Duluth","state":"Minnesota","zip":"55805","country":"United States","contacts":[{"name":"Site Public Contact","role":"CONTACT","phone":"218-786-3308","email":"CancerTrials@EssentiaHealth.org"},{"name":"Bret E. Friday","role":"PRINCIPAL_INVESTIGATOR"}],"geoPoint":{"lat":46.78327,"lon":-92.10658}},{"facility":"Miller-Dwan Hospital","status":"RECRUITING","city":"Duluth","state":"Minnesota","zip":"55805","country":"United States","contacts":[{"name":"Site Public Contact","role":"CONTACT","phone":"218-786-3308","email":"CancerTrials@EssentiaHealth.org"},{"name":"Bret E. Friday","role":"PRINCIPAL_INVESTIGATOR"}],"geoPoint":{"lat":46.78327,"lon":-92.10658}},{"facility":"Essentia Health Hibbing Clinic","status":"RECRUITING","city":"Hibbing","state":"Minnesota","zip":"55746","country":"United States","contacts":[{"name":"Site Public Contact","role":"CONTACT","phone":"218-786-3308"},{"name":"Bret E. Friday","role":"PRINCIPAL_INVESTIGATOR"}],"geoPoint":{"lat":47.42715,"lon":-92.93769}},{"facility":"Mayo Clinic in Rochester","status":"RECRUITING","city":"Rochester","state":"Minnesota","zip":"55905","country":"United States","contacts":[{"name":"Site Public Contact","role":"CONTACT","phone":"855-776-0015"},{"name":"Bradford S. Hoppe","role":"PRINCIPAL_INVESTIGATOR"}],"geoPoint":{"lat":44.02163,"lon":-92.4699}},{"facility":"Coborn Cancer Center at Saint Cloud Hospital","status":"RECRUITING","city":"Saint Cloud","state":"Minnesota","zip":"56303","country":"United States","contacts":[{"name":"Site Public Contact","role":"CONTACT","phone":"877-229-4907","email":"coborncancercenter@centracare.com"},{"name":"Donald J. Jurgens","role":"PRINCIPAL_INVESTIGATOR"}],"geoPoint":{"lat":45.5608,"lon":-94.16249}},{"facility":"Essentia Health Sandstone","status":"RECRUITING","city":"Sandstone","state":"Minnesota","zip":"55072","country":"United States","contacts":[{"name":"Site Public Contact","role":"CONTACT","phone":"218-786-3308","email":"CancerTrials@EssentiaHealth.org"},{"name":"Bret E. Friday","role":"PRINCIPAL_INVESTIGATOR"}],"geoPoint":{"lat":46.13106,"lon":-92.86742}},{"facility":"Essentia Health Virginia Clinic","status":"RECRUITING","city":"Virginia","state":"Minnesota","zip":"55792","country":"United States","contacts":[{"name":"Site Public Contact","role":"CONTACT","phone":"218-786-3308","email":"CancerTrials@EssentiaHealth.org"},{"name":"Bret E. Friday","role":"PRINCIPAL_INVESTIGATOR"}],"geoPoint":{"lat":47.52326,"lon":-92.53657}},{"facility":"Baptist Memorial Hospital and Cancer Center-Desoto","status":"RECRUITING","city":"Southhaven","state":"Mississippi","zip":"38671","country":"United States","contacts":[{"name":"Site Public Contact","role":"CONTACT","phone":"901-226-1366","email":"BCCclintrials@bmhcc.org"},{"name":"Michael Tomblyn","role":"PRINCIPAL_INVESTIGATOR"}],"geoPoint":{"lat":34.99176,"lon":-90.12759}},{"facility":"Saint Francis Medical Center","status":"RECRUITING","city":"Cape Girardeau","state":"Missouri","zip":"63703","country":"United States","contacts":[{"name":"Site Public Contact","role":"CONTACT","phone":"573-334-2230","email":"sfmc@sfmc.net"},{"name":"Bryan A. Faller","role":"PRINCIPAL_INVESTIGATOR"}],"geoPoint":{"lat":37.30588,"lon":-89.51815}},{"facility":"Siteman Cancer Center at Saint Peters Hospital","status":"RECRUITING","city":"City of Saint Peters","state":"Missouri","zip":"63376","country":"United States","contacts":[{"name":"Site Public Contact","role":"CONTACT","phone":"800-600-3606","email":"info@siteman.wustl.edu"},{"name":"Pamela Samson","role":"PRINCIPAL_INVESTIGATOR"}],"geoPoint":{"lat":38.80033,"lon":-90.62651}},{"facility":"MU Health - University Hospital/Ellis Fischel Cancer Center","status":"RECRUITING","city":"Columbia","state":"Missouri","zip":"65212","country":"United States","contacts":[{"name":"Site Public Contact","role":"CONTACT","phone":"573-882-7440"},{"name":"Mohamed Abdelhakiem","role":"PRINCIPAL_INVESTIGATOR"}],"geoPoint":{"lat":38.95171,"lon":-92.33407}},{"facility":"Siteman Cancer Center at West County Hospital","status":"RECRUITING","city":"Creve Coeur","state":"Missouri","zip":"63141","country":"United States","contacts":[{"name":"Site Public Contact","role":"CONTACT","phone":"800-600-3606","email":"info@siteman.wustl.edu"},{"name":"Pamela Samson","role":"PRINCIPAL_INVESTIGATOR"}],"geoPoint":{"lat":38.66089,"lon":-90.42262}},{"facility":"Parkland Health Center - Farmington","status":"RECRUITING","city":"Farmington","state":"Missouri","zip":"63640","country":"United States","contacts":[{"name":"Site Public Contact","role":"CONTACT","phone":"314-996-5569"},{"name":"Bryan A. Faller","role":"PRINCIPAL_INVESTIGATOR"}],"geoPoint":{"lat":37.78088,"lon":-90.42179}},{"facility":"Freeman Health System","status":"RECRUITING","city":"Joplin","state":"Missouri","zip":"64804","country":"United States","contacts":[{"name":"Site Public Contact","role":"CONTACT","phone":"417-347-4030","email":"LJCrockett@freemanhealth.com"},{"name":"Jay W. Carlson","role":"PRINCIPAL_INVESTIGATOR"}],"geoPoint":{"lat":37.08423,"lon":-94.51328}},{"facility":"University of Kansas Cancer Center - North","status":"RECRUITING","city":"Kansas City","state":"Missouri","zip":"64154","country":"United States","contacts":[{"name":"Site Public Contact","role":"CONTACT","phone":"913-588-3671","email":"KUCC_Navigation@kumc.edu"},{"name":"Krishna Reddy","role":"PRINCIPAL_INVESTIGATOR"}],"geoPoint":{"lat":39.09973,"lon":-94.57857}},{"facility":"University of Kansas Cancer Center - Lee's Summit","status":"RECRUITING","city":"Lee's Summit","state":"Missouri","zip":"64064","country":"United States","contacts":[{"name":"Site Public Contact","role":"CONTACT","phone":"913-588-3671","email":"KUCC_Navigation@kumc.edu"},{"name":"Krishna Reddy","role":"PRINCIPAL_INVESTIGATOR"}],"geoPoint":{"lat":38.91084,"lon":-94.38217}},{"facility":"Sainte Genevieve County Memorial Hospital","status":"RECRUITING","city":"Sainte Genevieve","state":"Missouri","zip":"63670","country":"United States","contacts":[{"name":"Site Public Contact","role":"CONTACT","phone":"314-996-5569"},{"name":"Bryan A. Faller","role":"PRINCIPAL_INVESTIGATOR"}],"geoPoint":{"lat":37.98144,"lon":-90.04178}},{"facility":"Mercy Hospital Springfield","status":"RECRUITING","city":"Springfield","state":"Missouri","zip":"65804","country":"United States","contacts":[{"name":"Site Public Contact","role":"CONTACT","phone":"417-269-4520"},{"name":"Jay W. Carlson","role":"PRINCIPAL_INVESTIGATOR"}],"geoPoint":{"lat":37.21533,"lon":-93.29824}},{"facility":"Washington University School of Medicine","status":"RECRUITING","city":"St Louis","state":"Missouri","zip":"63110","country":"United States","contacts":[{"name":"Site Public Contact","role":"CONTACT","phone":"800-600-3606","email":"info@siteman.wustl.edu"},{"name":"Pamela Samson","role":"PRINCIPAL_INVESTIGATOR"}],"geoPoint":{"lat":38.62727,"lon":-90.19789}},{"facility":"Mercy Hospital South","status":"RECRUITING","city":"St Louis","state":"Missouri","zip":"63128","country":"United States","contacts":[{"name":"Site Public Contact","role":"CONTACT","phone":"314-525-6042","email":"Danielle.Werle@mercy.net"},{"name":"Jay W. Carlson","role":"PRINCIPAL_INVESTIGATOR"}],"geoPoint":{"lat":38.62727,"lon":-90.19789}},{"facility":"Siteman Cancer Center-South County","status":"RECRUITING","city":"St Louis","state":"Missouri","zip":"63129","country":"United States","contacts":[{"name":"Site Public Contact","role":"CONTACT","phone":"800-600-3606","email":"info@siteman.wustl.edu"},{"name":"Pamela Samson","role":"PRINCIPAL_INVESTIGATOR"}],"geoPoint":{"lat":38.62727,"lon":-90.19789}},{"facility":"Missouri Baptist Medical Center","status":"RECRUITING","city":"St Louis","state":"Missouri","zip":"63131","country":"United States","contacts":[{"name":"Site Public Contact","role":"CONTACT","phone":"314-996-5569"},{"name":"Bryan A. Faller","role":"PRINCIPAL_INVESTIGATOR"}],"geoPoint":{"lat":38.62727,"lon":-90.19789}},{"facility":"Siteman Cancer Center at Christian Hospital","status":"RECRUITING","city":"St Louis","state":"Missouri","zip":"63136","country":"United States","contacts":[{"name":"Site Public Contact","role":"CONTACT","phone":"800-600-3606","email":"info@siteman.wustl.edu"},{"name":"Pamela Samson","role":"PRINCIPAL_INVESTIGATOR"}],"geoPoint":{"lat":38.62727,"lon":-90.19789}},{"facility":"Mercy Hospital Saint Louis","status":"RECRUITING","city":"St Louis","state":"Missouri","zip":"63141","country":"United States","contacts":[{"name":"Site Public Contact","role":"CONTACT","phone":"314-251-7066"},{"name":"Jay W. Carlson","role":"PRINCIPAL_INVESTIGATOR"}],"geoPoint":{"lat":38.62727,"lon":-90.19789}},{"facility":"Missouri Baptist Sullivan Hospital","status":"RECRUITING","city":"Sullivan","state":"Missouri","zip":"63080","country":"United States","contacts":[{"name":"Site Public Contact","role":"CONTACT","phone":"314-996-5569"},{"name":"Bryan A. Faller","role":"PRINCIPAL_INVESTIGATOR"}],"geoPoint":{"lat":38.2081,"lon":-91.16042}},{"facility":"BJC Outpatient Center at Sunset Hills","status":"RECRUITING","city":"Sunset Hills","state":"Missouri","zip":"63127","country":"United States","contacts":[{"name":"Site Public Contact","role":"CONTACT","phone":"314-996-5569"},{"name":"Bryan A. Faller","role":"PRINCIPAL_INVESTIGATOR"}],"geoPoint":{"lat":38.53894,"lon":-90.40734}},{"facility":"Billings Clinic Cancer Center","status":"RECRUITING","city":"Billings","state":"Montana","zip":"59101","country":"United States","contacts":[{"name":"Site Public Contact","role":"CONTACT","phone":"800-996-2663","email":"research@billingsclinic.org"},{"name":"John M. Schallenkamp","role":"PRINCIPAL_INVESTIGATOR"}],"geoPoint":{"lat":45.78329,"lon":-108.50069}},{"facility":"Bozeman Health Deaconess Hospital","status":"RECRUITING","city":"Bozeman","state":"Montana","zip":"59715","country":"United States","contacts":[{"name":"Site Public Contact","role":"CONTACT","phone":"406-969-6060","email":"mccinfo@mtcancer.org"},{"name":"John M. Schallenkamp","role":"PRINCIPAL_INVESTIGATOR"}],"geoPoint":{"lat":45.67965,"lon":-111.03856}},{"facility":"Benefis Sletten Cancer Institute","status":"RECRUITING","city":"Great Falls","state":"Montana","zip":"59405","country":"United States","contacts":[{"name":"Site Public Contact","role":"CONTACT","phone":"406-969-6060","email":"mccinfo@mtcancer.org"},{"name":"John M. Schallenkamp","role":"PRINCIPAL_INVESTIGATOR"}],"geoPoint":{"lat":47.50024,"lon":-111.30081}},{"facility":"Nebraska Cancer Specialists/Oncology Hematology West PC - MECC","status":"RECRUITING","city":"Omaha","state":"Nebraska","zip":"68114","country":"United States","contacts":[{"name":"Site Public Contact","role":"CONTACT","phone":"402-334-4773"},{"name":"Tien-Shew W. Huang","role":"PRINCIPAL_INVESTIGATOR"}],"geoPoint":{"lat":41.25626,"lon":-95.94043}},{"facility":"Nebraska Methodist Hospital","status":"RECRUITING","city":"Omaha","state":"Nebraska","zip":"68114","country":"United States","contacts":[{"name":"Site Public Contact","role":"CONTACT","phone":"402-354-5144"},{"name":"Tien-Shew W. Huang","role":"PRINCIPAL_INVESTIGATOR"}],"geoPoint":{"lat":41.25626,"lon":-95.94043}},{"facility":"Oncology Associates PC","status":"SUSPENDED","city":"Omaha","state":"Nebraska","zip":"68114","country":"United States","geoPoint":{"lat":41.25626,"lon":-95.94043}},{"facility":"Renown Regional Medical Center","status":"RECRUITING","city":"Reno","state":"Nevada","zip":"89502","country":"United States","contacts":[{"name":"Site Public Contact","role":"CONTACT","phone":"702-384-0013","email":"research@sncrf.org"},{"name":"John A. Ellerton","role":"PRINCIPAL_INVESTIGATOR"}],"geoPoint":{"lat":39.52963,"lon":-119.8138}},{"facility":"Dartmouth Hitchcock Medical Center/Dartmouth Cancer Center","status":"RECRUITING","city":"Lebanon","state":"New Hampshire","zip":"03756","country":"United States","contacts":[{"name":"Site Public Contact","role":"CONTACT","phone":"800-639-6918","email":"cancer.research.nurse@dartmouth.edu"},{"name":"Gregory A. Russo","role":"PRINCIPAL_INVESTIGATOR"}],"geoPoint":{"lat":43.64229,"lon":-72.25176}},{"facility":"Memorial Sloan Kettering Basking Ridge","status":"RECRUITING","city":"Basking Ridge","state":"New Jersey","zip":"07920","country":"United States","contacts":[{"name":"Site Public Contact","role":"CONTACT","phone":"212-639-7592"},{"name":"Jacob Shin","role":"PRINCIPAL_INVESTIGATOR"}],"geoPoint":{"lat":40.70621,"lon":-74.54932}},{"facility":"Cooper Hospital University Medical Center","status":"RECRUITING","city":"Camden","state":"New Jersey","zip":"08103","country":"United States","contacts":[{"name":"Site Public Contact","role":"CONTACT","phone":"856-325-6757"},{"name":"Joseph F. Lombardo","role":"PRINCIPAL_INVESTIGATOR"}],"geoPoint":{"lat":39.92595,"lon":-75.11962}},{"facility":"The Cancer Institute of New Jersey Hamilton","status":"RECRUITING","city":"Hamilton","state":"New Jersey","zip":"08690","country":"United States","contacts":[{"name":"Site Public Contact","role":"CONTACT","phone":"609-631-6946"},{"name":"Salma K. Jabbour","role":"PRINCIPAL_INVESTIGATOR"}],"geoPoint":{"lat":40.20706,"lon":-74.08125}},{"facility":"Jersey City Medical Center","status":"RECRUITING","city":"Jersey City","state":"New Jersey","zip":"07302","country":"United States","contacts":[{"name":"Site Public Contact","role":"CONTACT","phone":"412-339-5294","email":"Roster@nrgoncology.org"},{"name":"Salma K. Jabbour","role":"PRINCIPAL_INVESTIGATOR"}],"geoPoint":{"lat":40.72816,"lon":-74.07764}},{"facility":"Monmouth Medical Center Southern Campus","status":"RECRUITING","city":"Lakewood","state":"New Jersey","zip":"08701","country":"United States","contacts":[{"name":"Site Public Contact","role":"CONTACT","phone":"732-923-6564","email":"mary.danish@rwjbh.org"},{"name":"Salma K. Jabbour","role":"PRINCIPAL_INVESTIGATOR"}],"geoPoint":{"lat":40.09789,"lon":-74.21764}},{"facility":"Saint Barnabas Medical Center","status":"RECRUITING","city":"Livingston","state":"New Jersey","zip":"07039","country":"United States","contacts":[{"name":"Site Public Contact","role":"CONTACT","phone":"973-322-2934","email":"joanne.loeb@rwjbh.org"},{"name":"Salma K. Jabbour","role":"PRINCIPAL_INVESTIGATOR"}],"geoPoint":{"lat":40.79593,"lon":-74.31487}},{"facility":"Monmouth Medical Center","status":"RECRUITING","city":"Long Branch","state":"New Jersey","zip":"07740","country":"United States","contacts":[{"name":"Site Public Contact","role":"CONTACT","phone":"732-923-6564","email":"mary.danish@rwjbh.org"},{"name":"Salma K. Jabbour","role":"PRINCIPAL_INVESTIGATOR"}],"geoPoint":{"lat":40.30428,"lon":-73.99236}},{"facility":"Memorial Sloan Kettering Monmouth","status":"RECRUITING","city":"Middletown","state":"New Jersey","zip":"07748","country":"United States","contacts":[{"name":"Site Public Contact","role":"CONTACT","phone":"212-639-7592"},{"name":"Jacob Shin","role":"PRINCIPAL_INVESTIGATOR"}],"geoPoint":{"lat":40.39428,"lon":-74.11709}},{"facility":"Memorial Sloan Kettering Bergen","status":"RECRUITING","city":"Montvale","state":"New Jersey","zip":"07645","country":"United States","contacts":[{"name":"Site Public Contact","role":"CONTACT","phone":"212-639-7592"},{"name":"Jacob Shin","role":"PRINCIPAL_INVESTIGATOR"}],"geoPoint":{"lat":41.04676,"lon":-74.02292}},{"facility":"Rutgers Cancer Institute of New Jersey","status":"RECRUITING","city":"New Brunswick","state":"New Jersey","zip":"08903","country":"United States","contacts":[{"name":"Site Public Contact","role":"CONTACT","phone":"732-235-7356"},{"name":"Salma K. Jabbour","role":"PRINCIPAL_INVESTIGATOR"}],"geoPoint":{"lat":40.48622,"lon":-74.45182}},{"facility":"Rutgers New Jersey Medical School","status":"RECRUITING","city":"Newark","state":"New Jersey","zip":"07101","country":"United States","contacts":[{"name":"Site Public Contact","role":"CONTACT","phone":"732-235-7356"},{"name":"Salma K. Jabbour","role":"PRINCIPAL_INVESTIGATOR"}],"geoPoint":{"lat":40.73566,"lon":-74.17237}},{"facility":"Sidney Kimmel Cancer Center Washington Township","status":"RECRUITING","city":"Sewell","state":"New Jersey","zip":"08080","country":"United States","contacts":[{"name":"Site Public Contact","role":"CONTACT","phone":"215-600-9151","email":"ONCTrialNow@jefferson.edu"},{"name":"Erik S. Blomain","role":"PRINCIPAL_INVESTIGATOR"}],"geoPoint":{"lat":39.7665,"lon":-75.14434}},{"facility":"Robert Wood Johnson University Hospital Somerset","status":"RECRUITING","city":"Somerville","state":"New Jersey","zip":"08876","country":"United States","contacts":[{"name":"Site Public Contact","role":"CONTACT","phone":"908-685-2481","email":"Siby.Varughese@rwjbh.org"},{"name":"Salma K. Jabbour","role":"PRINCIPAL_INVESTIGATOR"}],"geoPoint":{"lat":40.57427,"lon":-74.60988}},{"facility":"Community Medical Center","status":"RECRUITING","city":"Toms River","state":"New Jersey","zip":"08755","country":"United States","contacts":[{"name":"Site Public Contact","role":"CONTACT","phone":"732-557-8294","email":"Lennette.Gonzales@rwjbh.org"},{"name":"Salma K. Jabbour","role":"PRINCIPAL_INVESTIGATOR"}],"geoPoint":{"lat":39.95373,"lon":-74.19792}},{"facility":"University of New Mexico Cancer Center","status":"RECRUITING","city":"Albuquerque","state":"New Mexico","zip":"87106","country":"United States","contacts":[{"name":"Site Public Contact","role":"CONTACT","phone":"505-925-0348","email":"HSC-ClinicalTrialInfo@salud.unm.edu"},{"name":"Ramesh Gopal","role":"PRINCIPAL_INVESTIGATOR"}],"geoPoint":{"lat":35.08449,"lon":-106.65114}},{"facility":"Presbyterian Kaseman Hospital","status":"RECRUITING","city":"Albuquerque","state":"New Mexico","zip":"87110","country":"United States","contacts":[{"name":"Site Public Contact","role":"CONTACT","phone":"505-559-6113","email":"WBurman@phs.org"},{"name":"Ramesh Gopal","role":"PRINCIPAL_INVESTIGATOR"}],"geoPoint":{"lat":35.08449,"lon":-106.65114}},{"facility":"Memorial Medical Center-Las Cruces","status":"RECRUITING","city":"Las Cruces","state":"New Mexico","zip":"88011","country":"United States","contacts":[{"name":"Site Public Contact","role":"CONTACT","phone":"575-556-6545","email":"Deborah.Brown@LPNT.net"},{"name":"Ramesh Gopal","role":"PRINCIPAL_INVESTIGATOR"}],"geoPoint":{"lat":32.31232,"lon":-106.77834}},{"facility":"Presbyterian Rust Medical Center/Jorgensen Cancer Center","status":"RECRUITING","city":"Rio Rancho","state":"New Mexico","zip":"87124","country":"United States","contacts":[{"name":"Site Public Contact","role":"CONTACT","phone":"505-559-6113","email":"WBurman@phs.org"},{"name":"Ramesh Gopal","role":"PRINCIPAL_INVESTIGATOR"}],"geoPoint":{"lat":35.23338,"lon":-106.66447}},{"facility":"Wilmot Cancer Center at Batavia","status":"SUSPENDED","city":"Batavia","state":"New York","zip":"14020","country":"United States","geoPoint":{"lat":42.99812,"lon":-78.18752}},{"facility":"Sands Cancer Center","status":"RECRUITING","city":"Canandaigua","state":"New York","zip":"14424","country":"United States","contacts":[{"name":"Site Public Contact","role":"CONTACT","phone":"585-396-6161"},{"name":"Deepinder P. Singh","role":"PRINCIPAL_INVESTIGATOR"}],"geoPoint":{"lat":42.87423,"lon":-77.28804}},{"facility":"Memorial Sloan Kettering Commack","status":"RECRUITING","city":"Commack","state":"New York","zip":"11725","country":"United States","contacts":[{"name":"Site Public Contact","role":"CONTACT","phone":"212-639-7592"},{"name":"Jacob Shin","role":"PRINCIPAL_INVESTIGATOR"}],"geoPoint":{"lat":40.84288,"lon":-73.29289}},{"facility":"Glens Falls Hospital","status":"RECRUITING","city":"Glens Falls","state":"New York","zip":"12801","country":"United States","contacts":[{"name":"Site Public Contact","role":"CONTACT","phone":"518-926-6700"},{"name":"Aqeel A. Gillani","role":"PRINCIPAL_INVESTIGATOR"}],"geoPoint":{"lat":43.30952,"lon":-73.64401}},{"facility":"Memorial Sloan Kettering Westchester","status":"RECRUITING","city":"Harrison","state":"New York","zip":"10604","country":"United States","contacts":[{"name":"Site Public Contact","role":"CONTACT","phone":"212-639-7592"},{"name":"Jacob Shin","role":"PRINCIPAL_INVESTIGATOR"}],"geoPoint":{"lat":40.96899,"lon":-73.71263}},{"facility":"New York Proton Center","status":"RECRUITING","city":"New York","state":"New York","zip":"10035","country":"United States","contacts":[{"name":"Site Public Contact","role":"CONTACT","phone":"646-968-9031","email":"ichoi@nyproton.com"},{"name":"Charles B. Simone","role":"PRINCIPAL_INVESTIGATOR"}],"geoPoint":{"lat":40.71427,"lon":-74.00597}},{"facility":"Memorial Sloan Kettering Cancer Center","status":"RECRUITING","city":"New York","state":"New York","zip":"10065","country":"United States","contacts":[{"name":"Site Public Contact","role":"CONTACT","phone":"212-639-7592"},{"name":"Jacob Shin","role":"PRINCIPAL_INVESTIGATOR"}],"geoPoint":{"lat":40.71427,"lon":-74.00597}},{"facility":"Wilmot Cancer Institute Radiation Oncology at Greece","status":"RECRUITING","city":"Rochester","state":"New York","zip":"14606","country":"United States","contacts":[{"name":"Site Public Contact","role":"CONTACT","phone":"585-758-7877"},{"name":"Deepinder P. Singh","role":"PRINCIPAL_INVESTIGATOR"}],"geoPoint":{"lat":43.15478,"lon":-77.61556}},{"facility":"Highland Hospital","status":"RECRUITING","city":"Rochester","state":"New York","zip":"14620","country":"United States","contacts":[{"name":"Site Public Contact","role":"CONTACT","phone":"585-341-8113"},{"name":"Deepinder P. Singh","role":"PRINCIPAL_INVESTIGATOR"}],"geoPoint":{"lat":43.15478,"lon":-77.61556}},{"facility":"University of Rochester","status":"RECRUITING","city":"Rochester","state":"New York","zip":"14642","country":"United States","contacts":[{"name":"Site Public Contact","role":"CONTACT","phone":"585-275-5830"},{"name":"Deepinder P. Singh","role":"PRINCIPAL_INVESTIGATOR"}],"geoPoint":{"lat":43.15478,"lon":-77.61556}},{"facility":"Stony Brook University Medical Center","status":"RECRUITING","city":"Stony Brook","state":"New York","zip":"11794","country":"United States","contacts":[{"name":"Site Public Contact","role":"CONTACT","phone":"800-862-2215"},{"name":"Kartik M. Mani","role":"PRINCIPAL_INVESTIGATOR"}],"geoPoint":{"lat":40.92565,"lon":-73.14094}},{"facility":"State University of New York Upstate Medical University","status":"RECRUITING","city":"Syracuse","state":"New York","zip":"13210","country":"United States","contacts":[{"name":"Site Public Contact","role":"CONTACT","phone":"315-464-5476"},{"name":"Michael D. Mix","role":"PRINCIPAL_INVESTIGATOR"}],"geoPoint":{"lat":43.04812,"lon":-76.14742}},{"facility":"Montefiore Medical Center-Einstein Campus","status":"RECRUITING","city":"The Bronx","state":"New York","zip":"10461","country":"United States","contacts":[{"name":"Site Public Contact","role":"CONTACT","phone":"718-379-6866","email":"eskwak@montefiore.org"},{"name":"Nitin Ohri","role":"PRINCIPAL_INVESTIGATOR"}],"geoPoint":{"lat":40.84985,"lon":-73.86641}},{"facility":"Montefiore Medical Center-Weiler Hospital","status":"RECRUITING","city":"The Bronx","state":"New York","zip":"10461","country":"United States","contacts":[{"name":"Site Public Contact","role":"CONTACT","phone":"718-379-6866","email":"eskwak@montefiore.org"},{"name":"Nitin Ohri","role":"PRINCIPAL_INVESTIGATOR"}],"geoPoint":{"lat":40.84985,"lon":-73.86641}},{"facility":"Montefiore Medical Center - Moses Campus","status":"RECRUITING","city":"The Bronx","state":"New York","zip":"10467","country":"United States","contacts":[{"name":"Site Public Contact","role":"CONTACT","phone":"718-379-6866","email":"eskwak@montefiore.org"},{"name":"Nitin Ohri","role":"PRINCIPAL_INVESTIGATOR"}],"geoPoint":{"lat":40.84985,"lon":-73.86641}},{"facility":"Memorial Sloan Kettering Nassau","status":"RECRUITING","city":"Uniondale","state":"New York","zip":"11553","country":"United States","contacts":[{"name":"Site Public Contact","role":"CONTACT","phone":"212-639-7592"},{"name":"Jacob Shin","role":"PRINCIPAL_INVESTIGATOR"}],"geoPoint":{"lat":40.70038,"lon":-73.59291}},{"facility":"Westchester Medical Center","status":"RECRUITING","city":"Valhalla","state":"New York","zip":"10595","country":"United States","contacts":[{"name":"Site Public Contact","role":"CONTACT","phone":"412-339-5294","email":"Roster@nrgoncology.org"},{"name":"Aviva Berkowitz","role":"PRINCIPAL_INVESTIGATOR"}],"geoPoint":{"lat":41.07482,"lon":-73.77513}},{"facility":"Wilmot Cancer Institute at Webster","status":"RECRUITING","city":"Webster","state":"New York","zip":"14580","country":"United States","contacts":[{"name":"Site Public Contact","role":"CONTACT","email":"WCICTOresearch@urmc.rochester.edu"},{"name":"Deepinder P. Singh","role":"PRINCIPAL_INVESTIGATOR"}],"geoPoint":{"lat":43.21229,"lon":-77.42999}},{"facility":"Atrium Health Stanly/LCI-Albemarle","status":"RECRUITING","city":"Albemarle","state":"North Carolina","zip":"28002","country":"United States","contacts":[{"name":"Site Public Contact","role":"CONTACT","phone":"800-804-9376"},{"name":"John H. Heinzerling","role":"PRINCIPAL_INVESTIGATOR"}],"geoPoint":{"lat":35.35014,"lon":-80.20006}},{"facility":"Duke Cancer Center Cary","status":"RECRUITING","city":"Cary","state":"North Carolina","zip":"27518","country":"United States","contacts":[{"name":"Site Public Contact","role":"CONTACT","email":"NCTNStudyTeam@dm.duke.edu"},{"name":"Christopher R. Kelsey","role":"PRINCIPAL_INVESTIGATOR"}],"geoPoint":{"lat":35.79154,"lon":-78.78112}},{"facility":"UNC Lineberger Comprehensive Cancer Center","status":"RECRUITING","city":"Chapel Hill","state":"North Carolina","zip":"27599","country":"United States","contacts":[{"name":"Site Public Contact","role":"CONTACT","phone":"877-668-0683","email":"cancerclinicaltrials@med.unc.edu"},{"name":"Ashley Weiner","role":"PRINCIPAL_INVESTIGATOR"}],"geoPoint":{"lat":35.9132,"lon":-79.05584}},{"facility":"Carolinas Medical Center/Levine Cancer Institute","status":"RECRUITING","city":"Charlotte","state":"North Carolina","zip":"28203","country":"United States","contacts":[{"name":"Site Public Contact","role":"CONTACT","phone":"800-804-9376"},{"name":"John H. Heinzerling","role":"PRINCIPAL_INVESTIGATOR"}],"geoPoint":{"lat":35.22709,"lon":-80.84313}},{"facility":"Novant Health Presbyterian Medical Center","status":"RECRUITING","city":"Charlotte","state":"North Carolina","zip":"28204","country":"United States","contacts":[{"name":"Site Public Contact","role":"CONTACT","phone":"980-201-6360","email":"kashah@novanthealth.org"},{"name":"Kevin S. Roof","role":"PRINCIPAL_INVESTIGATOR"}],"geoPoint":{"lat":35.22709,"lon":-80.84313}},{"facility":"Atrium Health Pineville/LCI-Pineville","status":"RECRUITING","city":"Charlotte","state":"North Carolina","zip":"28210","country":"United States","contacts":[{"name":"Site Public Contact","role":"CONTACT","phone":"980-442-2000"},{"name":"John H. Heinzerling","role":"PRINCIPAL_INVESTIGATOR"}],"geoPoint":{"lat":35.22709,"lon":-80.84313}},{"facility":"Atrium Health University City/LCI-University","status":"RECRUITING","city":"Charlotte","state":"North Carolina","zip":"28262","country":"United States","contacts":[{"name":"Site Public Contact","role":"CONTACT","phone":"800-804-9376"},{"name":"John H. Heinzerling","role":"PRINCIPAL_INVESTIGATOR"}],"geoPoint":{"lat":35.22709,"lon":-80.84313}},{"facility":"Levine Cancer Institute-Ballantyne","status":"RECRUITING","city":"Charlotte","state":"North Carolina","zip":"28277","country":"United States","contacts":[{"name":"Site Public Contact","role":"CONTACT","phone":"800-804-9376"},{"name":"John H. Heinzerling","role":"PRINCIPAL_INVESTIGATOR"}],"geoPoint":{"lat":35.22709,"lon":-80.84313}},{"facility":"Wake Forest University at Clemmons","status":"RECRUITING","city":"Clemmons","state":"North Carolina","zip":"27012","country":"United States","contacts":[{"name":"Site Public Contact","role":"CONTACT","phone":"888-716-9259"},{"name":"Michael K. Farris","role":"PRINCIPAL_INVESTIGATOR"}],"geoPoint":{"lat":36.02153,"lon":-80.382}},{"facility":"Atrium Health Cabarrus/LCI-Concord","status":"RECRUITING","city":"Concord","state":"North Carolina","zip":"28025","country":"United States","contacts":[{"name":"Site Public Contact","role":"CONTACT","phone":"800-804-9376"},{"name":"John H. Heinzerling","role":"PRINCIPAL_INVESTIGATOR"}],"geoPoint":{"lat":35.40888,"lon":-80.58158}},{"facility":"Duke University Medical Center","status":"RECRUITING","city":"Durham","state":"North Carolina","zip":"27710","country":"United States","contacts":[{"name":"Site Public Contact","role":"CONTACT","phone":"888-275-3853"},{"name":"Christopher R. Kelsey","role":"PRINCIPAL_INVESTIGATOR"}],"geoPoint":{"lat":35.99403,"lon":-78.89862}},{"facility":"Levine Cancer Institute - Rutherford","status":"RECRUITING","city":"Forest City","state":"North Carolina","zip":"28043","country":"United States","contacts":[{"name":"Site Public Contact","role":"CONTACT","phone":"800-804-9376"},{"name":"John H. Heinzerling","role":"PRINCIPAL_INVESTIGATOR"}],"geoPoint":{"lat":35.33401,"lon":-81.8651}},{"facility":"CaroMont Regional Medical Center","status":"RECRUITING","city":"Gastonia","state":"North Carolina","zip":"28054","country":"United States","contacts":[{"name":"Site Public Contact","role":"CONTACT","phone":"704-834-2810","email":"tammy.cozad@caromonthealth.org"},{"name":"Jeffrey G. Kuremsky","role":"PRINCIPAL_INVESTIGATOR"}],"geoPoint":{"lat":35.26208,"lon":-81.1873}},{"facility":"Novant Health Breast Surgery - Greensboro","status":"RECRUITING","city":"Greensboro","state":"North Carolina","zip":"27403","country":"United States","contacts":[{"name":"Site Public Contact","role":"CONTACT","phone":"336-718-8335","email":"pjordan@novanthealth.org"},{"name":"Andrew S. Dothard","role":"PRINCIPAL_INVESTIGATOR"}],"geoPoint":{"lat":36.07264,"lon":-79.79198}},{"facility":"Novant Health Cancer Institute - Huntersville","status":"RECRUITING","city":"Huntersville","state":"North Carolina","zip":"28078","country":"United States","contacts":[{"name":"Site Public Contact","role":"CONTACT","phone":"980-201-6360","email":"kashah@novanthealth.org"},{"name":"Kevin S. Roof","role":"PRINCIPAL_INVESTIGATOR"}],"geoPoint":{"lat":35.41069,"lon":-80.84285}},{"facility":"Novant Health Presbyterian Medical Center Huntersville","status":"RECRUITING","city":"Huntersville","state":"North Carolina","zip":"28078","country":"United States","contacts":[{"name":"Site Public Contact","role":"CONTACT","phone":"980-201-6360","email":"kashah@novanthealth.org"},{"name":"Kevin S. Roof","role":"PRINCIPAL_INVESTIGATOR"}],"geoPoint":{"lat":35.41069,"lon":-80.84285}},{"facility":"Novant Health Cancer Institute - Kernersville","status":"RECRUITING","city":"Kernersville","state":"North Carolina","zip":"27284","country":"United States","contacts":[{"name":"Site Public Contact","role":"CONTACT","phone":"336-718-8335","email":"asmarrs@novanthealth.org"},{"name":"Andrew S. Dothard","role":"PRINCIPAL_INVESTIGATOR"}],"geoPoint":{"lat":36.11986,"lon":-80.07365}},{"facility":"Levine Cancer Institute - Union West","status":"RECRUITING","city":"Matthews","state":"North Carolina","zip":"28104","country":"United States","contacts":[{"name":"Site Public Contact","role":"CONTACT","phone":"980-442-0600"},{"name":"John H. Heinzerling","role":"PRINCIPAL_INVESTIGATOR"}],"geoPoint":{"lat":35.11681,"lon":-80.72368}},{"facility":"Matthews Radiation Oncology Center","status":"RECRUITING","city":"Matthews","state":"North Carolina","zip":"28105","country":"United States","contacts":[{"name":"Site Public Contact","role":"CONTACT","phone":"980-201-6360","email":"kashah@novanthealth.org"},{"name":"Kevin S. Roof","role":"PRINCIPAL_INVESTIGATOR"}],"geoPoint":{"lat":35.11681,"lon":-80.72368}},{"facility":"Novant Health Cancer Institute - Matthews","status":"RECRUITING","city":"Matthews","state":"North Carolina","zip":"28105","country":"United States","contacts":[{"name":"Site Public Contact","role":"CONTACT","phone":"980-201-6360","email":"kashah@novanthealth.org"},{"name":"Kevin S. Roof","role":"PRINCIPAL_INVESTIGATOR"}],"geoPoint":{"lat":35.11681,"lon":-80.72368}},{"facility":"Atrium Health Union/LCI-Union","status":"RECRUITING","city":"Monroe","state":"North Carolina","zip":"28112","country":"United States","contacts":[{"name":"Site Public Contact","role":"CONTACT","phone":"980-442-2000"},{"name":"John H. Heinzerling","role":"PRINCIPAL_INVESTIGATOR"}],"geoPoint":{"lat":34.98543,"lon":-80.54951}},{"facility":"Novant Health Cancer Institute - Mooresville","status":"RECRUITING","city":"Mooresville","state":"North Carolina","zip":"28117","country":"United States","contacts":[{"name":"Site Public Contact","role":"CONTACT","phone":"980-201-6360","email":"kashah@novanthealth.org"},{"name":"Kevin S. Roof","role":"PRINCIPAL_INVESTIGATOR"}],"geoPoint":{"lat":35.58486,"lon":-80.81007}},{"facility":"Novant Health Cancer Institute - Mount Airy","status":"RECRUITING","city":"Mount Airy","state":"North Carolina","zip":"27030","country":"United States","contacts":[{"name":"Site Public Contact","role":"CONTACT","phone":"336-718-8335","email":"asmarrs@novanthealth.org"},{"name":"Andrew S. Dothard","role":"PRINCIPAL_INVESTIGATOR"}],"geoPoint":{"lat":36.4993,"lon":-80.60729}},{"facility":"Novant Health Cancer Institute - Wilkesboro","status":"RECRUITING","city":"North Wilkesboro","state":"North Carolina","zip":"28659","country":"United States","contacts":[{"name":"Site Public Contact","role":"CONTACT","phone":"336-718-8335","email":"pjordan@novanthealth.org"},{"name":"Andrew S. Dothard","role":"PRINCIPAL_INVESTIGATOR"}],"geoPoint":{"lat":36.15847,"lon":-81.14758}},{"facility":"Duke Cancer Center Raleigh","status":"RECRUITING","city":"Raleigh","state":"North Carolina","zip":"27609","country":"United States","contacts":[{"name":"Site Public Contact","role":"CONTACT","email":"NCTNStudyTeam@dm.duke.edu"},{"name":"Christopher R. Kelsey","role":"PRINCIPAL_INVESTIGATOR"}],"geoPoint":{"lat":35.7721,"lon":-78.63861}},{"facility":"Novant Health Cancer Institute - Rowan","status":"RECRUITING","city":"Salisbury","state":"North Carolina","zip":"28144","country":"United States","contacts":[{"name":"Site Public Contact","role":"CONTACT","phone":"980-201-6360","email":"kashah@novanthealth.org"},{"name":"Kevin S. Roof","role":"PRINCIPAL_INVESTIGATOR"}],"geoPoint":{"lat":35.67097,"lon":-80.47423}},{"facility":"Rowan Regional Medical Center","status":"RECRUITING","city":"Salisbury","state":"North Carolina","zip":"28144","country":"United States","contacts":[{"name":"Site Public Contact","role":"CONTACT","phone":"704-210-5000","email":"nnechiporchik@novanthealth.org"},{"name":"Kevin S. Roof","role":"PRINCIPAL_INVESTIGATOR"}],"geoPoint":{"lat":35.67097,"lon":-80.47423}},{"facility":"Atrium Health Cleveland/LCI-Cleveland","status":"RECRUITING","city":"Shelby","state":"North Carolina","zip":"28150","country":"United States","contacts":[{"name":"Site Public Contact","role":"CONTACT","phone":"800-804-9376"},{"name":"John H. Heinzerling","role":"PRINCIPAL_INVESTIGATOR"}],"geoPoint":{"lat":35.29235,"lon":-81.53565}},{"facility":"Novant Health Cancer Institute - Statesville","status":"RECRUITING","city":"Statesville","state":"North Carolina","zip":"28625","country":"United States","contacts":[{"name":"Site Public Contact","role":"CONTACT","phone":"336-718-8335","email":"pjordan@novanthealth.org"},{"name":"Andrew S. Dothard","role":"PRINCIPAL_INVESTIGATOR"}],"geoPoint":{"lat":35.78264,"lon":-80.8873}},{"facility":"Wake Forest Baptist Health - Hematology Oncology - Statesville","status":"RECRUITING","city":"Statesville","state":"North Carolina","zip":"28677","country":"United States","contacts":[{"name":"Site Public Contact","role":"CONTACT","phone":"704-872-3630"},{"name":"Michael K. Farris","role":"PRINCIPAL_INVESTIGATOR"}],"geoPoint":{"lat":35.78264,"lon":-80.8873}},{"facility":"Novant Cancer Institute Radiation Oncology - Supply","status":"RECRUITING","city":"Supply","state":"North Carolina","zip":"28462","country":"United States","contacts":[{"name":"Site Public Contact","role":"CONTACT","phone":"910-754-4716"},{"name":"Rex A. Kiteley","role":"PRINCIPAL_INVESTIGATOR"}],"geoPoint":{"lat":34.01767,"lon":-78.2675}},{"facility":"Novant Health Cancer Institute - Thomasville","status":"RECRUITING","city":"Thomasville","state":"North Carolina","zip":"27360","country":"United States","contacts":[{"name":"Site Public Contact","role":"CONTACT","phone":"336-718-8335","email":"pjordan@novanthealth.org"},{"name":"Andrew S. Dothard","role":"PRINCIPAL_INVESTIGATOR"}],"geoPoint":{"lat":35.88264,"lon":-80.08199}},{"facility":"Wake Forest Baptist Health - Wilkes Medical Center","status":"RECRUITING","city":"Wilkesboro","state":"North Carolina","zip":"28659","country":"United States","contacts":[{"name":"Site Public Contact","role":"CONTACT","phone":"888-716-9253"},{"name":"Michael K. Farris","role":"PRINCIPAL_INVESTIGATOR"}],"geoPoint":{"lat":36.14596,"lon":-81.16064}},{"facility":"Novant Health Cancer Institute Radiation Oncology - Wilmington","status":"RECRUITING","city":"Wilmington","state":"North Carolina","zip":"28401","country":"United States","contacts":[{"name":"Site Public Contact","role":"CONTACT","phone":"910-251-1839"},{"name":"Rex A. Kiteley","role":"PRINCIPAL_INVESTIGATOR"}],"geoPoint":{"lat":34.23556,"lon":-77.94604}},{"facility":"Novant Health New Hanover Regional Medical Center","status":"RECRUITING","city":"Wilmington","state":"North Carolina","zip":"28401","country":"United States","contacts":[{"name":"Site Public Contact","role":"CONTACT","phone":"910-342-3000"},{"name":"Rex A. Kiteley","role":"PRINCIPAL_INVESTIGATOR"}],"geoPoint":{"lat":34.23556,"lon":-77.94604}},{"facility":"Novant Health Forsyth Medical Center","status":"RECRUITING","city":"Winston-Salem","state":"North Carolina","zip":"27103","country":"United States","contacts":[{"name":"Site Public Contact","role":"CONTACT","phone":"336-718-8335","email":"pjordan@novanthealth.org"},{"name":"Andrew S. Dothard","role":"PRINCIPAL_INVESTIGATOR"}],"geoPoint":{"lat":36.09986,"lon":-80.24422}},{"facility":"Wake Forest University Health Sciences","status":"RECRUITING","city":"Winston-Salem","state":"North Carolina","zip":"27157","country":"United States","contacts":[{"name":"Site Public Contact","role":"CONTACT","phone":"336-713-6771"},{"name":"Michael K. Farris","role":"PRINCIPAL_INVESTIGATOR"}],"geoPoint":{"lat":36.09986,"lon":-80.24422}},{"facility":"Sanford Bismarck Medical Center","status":"RECRUITING","city":"Bismarck","state":"North Dakota","zip":"58501","country":"United States","contacts":[{"name":"Site Public Contact","role":"CONTACT","phone":"701-323-5760","email":"OncologyClinicalTrialsFargo@sanfordhealth.org"},{"name":"Daniel Almquist","role":"PRINCIPAL_INVESTIGATOR"}],"geoPoint":{"lat":46.80833,"lon":-100.78374}},{"facility":"Sanford Broadway Medical Center","status":"RECRUITING","city":"Fargo","state":"North Dakota","zip":"58122","country":"United States","contacts":[{"name":"Site Public Contact","role":"CONTACT","phone":"701-323-5760","email":"OncologyClinicalTrialsFargo@sanfordhealth.org"},{"name":"Daniel Almquist","role":"PRINCIPAL_INVESTIGATOR"}],"geoPoint":{"lat":46.87719,"lon":-96.7898}},{"facility":"Sanford Roger Maris Cancer Center","status":"RECRUITING","city":"Fargo","state":"North Dakota","zip":"58122","country":"United States","contacts":[{"name":"Site Public Contact","role":"CONTACT","phone":"701-234-6161","email":"OncologyClinicalTrialsFargo@sanfordhealth.org"},{"name":"Daniel Almquist","role":"PRINCIPAL_INVESTIGATOR"}],"geoPoint":{"lat":46.87719,"lon":-96.7898}},{"facility":"Altru Cancer Center","status":"RECRUITING","city":"Grand Forks","state":"North Dakota","zip":"58201","country":"United States","contacts":[{"name":"Site Public Contact","role":"CONTACT","phone":"701-780-6520"},{"name":"Grant R. Seeger","role":"PRINCIPAL_INVESTIGATOR"}],"geoPoint":{"lat":47.92526,"lon":-97.03285}},{"facility":"Cleveland Clinic Akron General","status":"RECRUITING","city":"Akron","state":"Ohio","zip":"44307","country":"United States","contacts":[{"name":"Site Public Contact","role":"CONTACT","phone":"866-223-8100","email":"CancerAnswer@ccf.org"},{"name":"Salem A. Alfaifi","role":"PRINCIPAL_INVESTIGATOR"}],"geoPoint":{"lat":41.08144,"lon":-81.51901}},{"facility":"UH Seidman Cancer Center at UH Avon Health Center","status":"RECRUITING","city":"Avon","state":"Ohio","zip":"44011","country":"United States","contacts":[{"name":"Site Public Contact","role":"CONTACT","phone":"800-641-2422"},{"name":"Pranshu Mohindra","role":"PRINCIPAL_INVESTIGATOR"}],"geoPoint":{"lat":41.45171,"lon":-82.03542}},{"facility":"UHHS-Chagrin Highlands Medical Center","status":"RECRUITING","city":"Beachwood","state":"Ohio","zip":"44122","country":"United States","contacts":[{"name":"Site Public Contact","role":"CONTACT","phone":"800-641-2422","email":"CTUReferral@UHhospitals.org"},{"name":"Pranshu Mohindra","role":"PRINCIPAL_INVESTIGATOR"}],"geoPoint":{"lat":41.4645,"lon":-81.50873}},{"facility":"Cleveland Clinic Mercy Hospital","status":"RECRUITING","city":"Canton","state":"Ohio","zip":"44708","country":"United States","contacts":[{"name":"Site Public Contact","role":"CONTACT","phone":"888-293-4673"},{"name":"Edward J. Walsh","role":"PRINCIPAL_INVESTIGATOR"}],"geoPoint":{"lat":40.79895,"lon":-81.37845}},{"facility":"Aultman Health Foundation","status":"RECRUITING","city":"Canton","state":"Ohio","zip":"44710","country":"United States","contacts":[{"name":"Site Public Contact","role":"CONTACT","phone":"330-363-7274","email":"ClinicalReserachDept@aultman.com"},{"name":"Raza A. Khan","role":"PRINCIPAL_INVESTIGATOR"}],"geoPoint":{"lat":40.79895,"lon":-81.37845}},{"facility":"Miami Valley Hospital South","status":"RECRUITING","city":"Centerville","state":"Ohio","zip":"45459","country":"United States","contacts":[{"name":"Site Public Contact","role":"CONTACT","phone":"937-528-2900","email":"clinical.trials@daytonncorp.org"},{"name":"Tarek M. Sabagh","role":"PRINCIPAL_INVESTIGATOR"}],"geoPoint":{"lat":39.62839,"lon":-84.15938}},{"facility":"University of Cincinnati Cancer Center-UC Medical Center","status":"ACTIVE_NOT_RECRUITING","city":"Cincinnati","state":"Ohio","zip":"45219","country":"United States","geoPoint":{"lat":39.12711,"lon":-84.51439}},{"facility":"Case Western Reserve University","status":"RECRUITING","city":"Cleveland","state":"Ohio","zip":"44106","country":"United States","contacts":[{"name":"Site Public Contact","role":"CONTACT","phone":"800-641-2422","email":"CTUReferral@UHhospitals.org"},{"name":"Pranshu Mohindra","role":"PRINCIPAL_INVESTIGATOR"}],"geoPoint":{"lat":41.4995,"lon":-81.69541}},{"facility":"Riverside Methodist Hospital","status":"RECRUITING","city":"Columbus","state":"Ohio","zip":"43214","country":"United States","contacts":[{"name":"Site Public Contact","role":"CONTACT","phone":"614-788-3860","email":"Jennifer.Sexton@ohiohealth.com"},{"name":"Andrew B. Freeman","role":"PRINCIPAL_INVESTIGATOR"}],"geoPoint":{"lat":39.96118,"lon":-82.99879}},{"facility":"Grant Medical Center","status":"RECRUITING","city":"Columbus","state":"Ohio","zip":"43215","country":"United States","contacts":[{"name":"Site Public Contact","role":"CONTACT","phone":"614-788-3860","email":"Jennifer.Sexton@ohiohealth.com"},{"name":"Andrew B. Freeman","role":"PRINCIPAL_INVESTIGATOR"}],"geoPoint":{"lat":39.96118,"lon":-82.99879}},{"facility":"Doctors Hospital","status":"RECRUITING","city":"Columbus","state":"Ohio","zip":"43228","country":"United States","contacts":[{"name":"Site Public Contact","role":"CONTACT","phone":"614-788-3860","email":"Jennifer.Sexton@ohiohealth.com"},{"name":"Andrew B. Freeman","role":"PRINCIPAL_INVESTIGATOR"}],"geoPoint":{"lat":39.96118,"lon":-82.99879}},{"facility":"Miami Valley Hospital","status":"RECRUITING","city":"Dayton","state":"Ohio","zip":"45409","country":"United States","contacts":[{"name":"Site Public Contact","role":"CONTACT","phone":"937-528-2900","email":"clinical.trials@daytonncorp.org"},{"name":"Tarek M. Sabagh","role":"PRINCIPAL_INVESTIGATOR"}],"geoPoint":{"lat":39.75895,"lon":-84.19161}},{"facility":"Premier Blood and Cancer Center","status":"RECRUITING","city":"Dayton","state":"Ohio","zip":"45409","country":"United States","contacts":[{"name":"Site Public Contact","role":"CONTACT","phone":"937-276-8320"},{"name":"Tarek M. Sabagh","role":"PRINCIPAL_INVESTIGATOR"}],"geoPoint":{"lat":39.75895,"lon":-84.19161}},{"facility":"Dayton Physician LLC - Englewood","status":"ACTIVE_NOT_RECRUITING","city":"Dayton","state":"Ohio","zip":"45415","country":"United States","geoPoint":{"lat":39.75895,"lon":-84.19161}},{"facility":"Miami Valley Hospital North","status":"RECRUITING","city":"Dayton","state":"Ohio","zip":"45415","country":"United States","contacts":[{"name":"Site Public Contact","role":"CONTACT","phone":"937-528-2900","email":"clinical.trials@daytonncorp.org"},{"name":"Tarek M. Sabagh","role":"PRINCIPAL_INVESTIGATOR"}],"geoPoint":{"lat":39.75895,"lon":-84.19161}},{"facility":"Delaware Health Center-Grady Cancer Center","status":"RECRUITING","city":"Delaware","state":"Ohio","zip":"43015","country":"United States","contacts":[{"name":"Site Public Contact","role":"CONTACT","phone":"614-788-3860","email":"Jennifer.Sexton@ohiohealth.com"},{"name":"Andrew B. Freeman","role":"PRINCIPAL_INVESTIGATOR"}],"geoPoint":{"lat":40.29867,"lon":-83.06797}},{"facility":"Grady Memorial Hospital","status":"RECRUITING","city":"Delaware","state":"Ohio","zip":"43015","country":"United States","contacts":[{"name":"Site Public Contact","role":"CONTACT","phone":"614-788-3860","email":"Jennifer.Sexton@ohiohealth.com"},{"name":"Andrew B. Freeman","role":"PRINCIPAL_INVESTIGATOR"}],"geoPoint":{"lat":40.29867,"lon":-83.06797}},{"facility":"Dublin Methodist Hospital","status":"RECRUITING","city":"Dublin","state":"Ohio","zip":"43016","country":"United States","contacts":[{"name":"Site Public Contact","role":"CONTACT","phone":"614-788-3860","email":"Jennifer.Sexton@ohiohealth.com"},{"name":"Andrew B. Freeman","role":"PRINCIPAL_INVESTIGATOR"}],"geoPoint":{"lat":40.09923,"lon":-83.11408}},{"facility":"Atrium Medical Center-Middletown Regional Hospital","status":"RECRUITING","city":"Franklin","state":"Ohio","zip":"45005-1066","country":"United States","contacts":[{"name":"Site Public Contact","role":"CONTACT","phone":"937-528-2900","email":"clinical.trials@daytonncorp.org"},{"name":"Tarek M. Sabagh","role":"PRINCIPAL_INVESTIGATOR"}],"geoPoint":{"lat":39.55895,"lon":-84.30411}},{"facility":"Miami Valley Cancer Care and Infusion","status":"RECRUITING","city":"Greenville","state":"Ohio","zip":"45331","country":"United States","contacts":[{"name":"Site Public Contact","role":"CONTACT","phone":"937-569-7515"},{"name":"Tarek M. Sabagh","role":"PRINCIPAL_INVESTIGATOR"}],"geoPoint":{"lat":40.10283,"lon":-84.63301}},{"facility":"OhioHealth Mansfield Hospital","status":"RECRUITING","city":"Mansfield","state":"Ohio","zip":"44903","country":"United States","contacts":[{"name":"Site Public Contact","role":"CONTACT","phone":"614-788-3860","email":"Jennifer.Sexton@ohiohealth.com"},{"name":"Andrew B. Freeman","role":"PRINCIPAL_INVESTIGATOR"}],"geoPoint":{"lat":40.75839,"lon":-82.51545}},{"facility":"OhioHealth Marion General Hospital","status":"RECRUITING","city":"Marion","state":"Ohio","zip":"43302","country":"United States","contacts":[{"name":"Site Public Contact","role":"CONTACT","phone":"614-788-3860","email":"Jennifer.Sexton@ohiohealth.com"},{"name":"Andrew B. Freeman","role":"PRINCIPAL_INVESTIGATOR"}],"geoPoint":{"lat":40.58867,"lon":-83.12852}},{"facility":"UH Seidman Cancer Center at Lake Health Mentor Campus","status":"RECRUITING","city":"Mentor","state":"Ohio","zip":"44060","country":"United States","contacts":[{"name":"Site Public Contact","role":"CONTACT","phone":"800-641-2422","email":"CTUReferral@UHhospitals.org"},{"name":"Pranshu Mohindra","role":"PRINCIPAL_INVESTIGATOR"}],"geoPoint":{"lat":41.66616,"lon":-81.33955}},{"facility":"Mercy Health - Perrysburg Hospital","status":"RECRUITING","city":"Perrysburg","state":"Ohio","zip":"43551","country":"United States","contacts":[{"name":"Site Public Contact","role":"CONTACT","phone":"614-488-2745","email":"Jeffh@columbusccop.org"},{"name":"Aruna C. Gowda","role":"PRINCIPAL_INVESTIGATOR"}],"geoPoint":{"lat":41.557,"lon":-83.62716}},{"facility":"Upper Valley Medical Center","status":"RECRUITING","city":"Troy","state":"Ohio","zip":"45373","country":"United States","contacts":[{"name":"Site Public Contact","role":"CONTACT","phone":"937-528-2900","email":"clinical.trials@daytonncorp.org"},{"name":"Tarek M. Sabagh","role":"PRINCIPAL_INVESTIGATOR"}],"geoPoint":{"lat":40.0395,"lon":-84.20328}},{"facility":"University of Cincinnati Cancer Center-West Chester","status":"ACTIVE_NOT_RECRUITING","city":"West Chester","state":"Ohio","zip":"45069","country":"United States","geoPoint":{"lat":39.33172,"lon":-84.40716}},{"facility":"University of Oklahoma Health Sciences Center","status":"RECRUITING","city":"Oklahoma City","state":"Oklahoma","zip":"73104","country":"United States","contacts":[{"name":"Site Public Contact","role":"CONTACT","phone":"405-271-8777","email":"ou-clinical-trials@ouhsc.edu"},{"name":"Raid Aljumaily","role":"PRINCIPAL_INVESTIGATOR"}],"geoPoint":{"lat":35.46756,"lon":-97.51643}},{"facility":"Legacy Mount Hood Medical Center","status":"RECRUITING","city":"Gresham","state":"Oregon","zip":"97030","country":"United States","contacts":[{"name":"Site Public Contact","role":"CONTACT","phone":"503-413-2150"},{"name":"Andrew Y. Kee","role":"PRINCIPAL_INVESTIGATOR"}],"geoPoint":{"lat":45.49818,"lon":-122.43148}},{"facility":"Legacy Good Samaritan Hospital and Medical Center","status":"RECRUITING","city":"Portland","state":"Oregon","zip":"97210","country":"United States","contacts":[{"name":"Site Public Contact","role":"CONTACT","phone":"800-220-4937","email":"cancer@lhs.org"},{"name":"Andrew Y. Kee","role":"PRINCIPAL_INVESTIGATOR"}],"geoPoint":{"lat":45.52345,"lon":-122.67621}},{"facility":"Legacy Meridian Park Hospital","status":"RECRUITING","city":"Tualatin","state":"Oregon","zip":"97062","country":"United States","contacts":[{"name":"Site Public Contact","role":"CONTACT","phone":"503-413-1742"},{"name":"Andrew Y. Kee","role":"PRINCIPAL_INVESTIGATOR"}],"geoPoint":{"lat":45.38401,"lon":-122.76399}},{"facility":"Christiana Care Health System-Concord Health Center","status":"RECRUITING","city":"Chadds Ford","state":"Pennsylvania","zip":"19317","country":"United States","contacts":[{"name":"Site Public Contact","role":"CONTACT","phone":"302-623-4450","email":"lbarone@christianacare.org"},{"name":"Gregory A. Masters","role":"PRINCIPAL_INVESTIGATOR"}],"geoPoint":{"lat":39.87178,"lon":-75.59132}},{"facility":"Chambersburg Hospital","status":"RECRUITING","city":"Chambersburg","state":"Pennsylvania","zip":"17201","country":"United States","contacts":[{"name":"Site Public Contact","role":"CONTACT","phone":"412-339-5294","email":"Roster@nrgoncology.org"},{"name":"Amit B. Shah","role":"PRINCIPAL_INVESTIGATOR"}],"geoPoint":{"lat":39.93759,"lon":-77.6611}},{"facility":"Geisinger Medical Center","status":"RECRUITING","city":"Danville","state":"Pennsylvania","zip":"17822","country":"United States","contacts":[{"name":"Site Public Contact","role":"CONTACT","phone":"570-271-5251","email":"HemonCCTrials@geisinger.edu"},{"name":"Fiori Alite","role":"PRINCIPAL_INVESTIGATOR"}],"geoPoint":{"lat":40.96342,"lon":-76.61273}},{"facility":"Ephrata Cancer Center","status":"RECRUITING","city":"Ephrata","state":"Pennsylvania","zip":"17522","country":"United States","contacts":[{"name":"Site Public Contact","role":"CONTACT","phone":"717-721-4840"},{"name":"Amit B. Shah","role":"PRINCIPAL_INVESTIGATOR"}],"geoPoint":{"lat":40.17982,"lon":-76.17884}},{"facility":"Adams Cancer Center","status":"RECRUITING","city":"Gettysburg","state":"Pennsylvania","zip":"17325","country":"United States","contacts":[{"name":"Site Public Contact","role":"CONTACT","phone":"877-441-7957"},{"name":"Amit B. Shah","role":"PRINCIPAL_INVESTIGATOR"}],"geoPoint":{"lat":39.83093,"lon":-77.2311}},{"facility":"Penn State Milton S Hershey Medical Center","status":"RECRUITING","city":"Hershey","state":"Pennsylvania","zip":"17033-0850","country":"United States","contacts":[{"name":"Site Public Contact","role":"CONTACT","phone":"717-531-3779","email":"CTO@hmc.psu.edu"},{"name":"Joseph A. Miccio","role":"PRINCIPAL_INVESTIGATOR"}],"geoPoint":{"lat":40.28592,"lon":-76.65025}},{"facility":"Lancaster General Ann B Barshinger Cancer Institute","status":"RECRUITING","city":"Lancaster","state":"Pennsylvania","zip":"17601","country":"United States","contacts":[{"name":"Site Public Contact","role":"CONTACT","phone":"717-544-0511","email":"nctn@pennmedicine.upenn.edu"},{"name":"Jeffrey D. Bradley","role":"PRINCIPAL_INVESTIGATOR"}],"geoPoint":{"lat":40.03788,"lon":-76.30551}},{"facility":"Sechler Family Cancer Center","status":"RECRUITING","city":"Lebanon","state":"Pennsylvania","zip":"17042","country":"United States","contacts":[{"name":"Site Public Contact","role":"CONTACT","phone":"717-741-8303","email":"doxenberg@wellspan.org"},{"name":"Amit B. Shah","role":"PRINCIPAL_INVESTIGATOR"}],"geoPoint":{"lat":40.34093,"lon":-76.41135}},{"facility":"Geisinger Medical Oncology-Lewisburg","status":"RECRUITING","city":"Lewisburg","state":"Pennsylvania","zip":"17837","country":"United States","contacts":[{"name":"Site Public Contact","role":"CONTACT","phone":"570-374-8555","email":"HemonCCTrials@geisinger.edu"},{"name":"Fiori Alite","role":"PRINCIPAL_INVESTIGATOR"}],"geoPoint":{"lat":40.96453,"lon":-76.88441}},{"facility":"University of Pennsylvania/Abramson Cancer Center","status":"RECRUITING","city":"Philadelphia","state":"Pennsylvania","zip":"19104","country":"United States","contacts":[{"name":"Site Public Contact","role":"CONTACT","phone":"215-349-8245","email":"PMCancerResearch@pennmedicine.upenn.edu"},{"name":"Jeffrey D. Bradley","role":"PRINCIPAL_INVESTIGATOR"}],"geoPoint":{"lat":39.95238,"lon":-75.16362}},{"facility":"Thomas Jefferson University Hospital","status":"RECRUITING","city":"Philadelphia","state":"Pennsylvania","zip":"19107","country":"United States","contacts":[{"name":"Site Public Contact","role":"CONTACT","phone":"215-600-9151","email":"ONCTrialNow@jefferson.edu"},{"name":"Erik S. Blomain","role":"PRINCIPAL_INVESTIGATOR"}],"geoPoint":{"lat":39.95238,"lon":-75.16362}},{"facility":"Fox Chase Cancer Center","status":"RECRUITING","city":"Philadelphia","state":"Pennsylvania","zip":"19111","country":"United States","contacts":[{"name":"Site Public Contact","role":"CONTACT","phone":"215-728-4790"},{"name":"Sukhmani K. Padda","role":"PRINCIPAL_INVESTIGATOR"}],"geoPoint":{"lat":39.95238,"lon":-75.16362}},{"facility":"Temple University Hospital","status":"RECRUITING","city":"Philadelphia","state":"Pennsylvania","zip":"19140","country":"United States","contacts":[{"name":"Site Public Contact","role":"CONTACT","phone":"215-728-2983"},{"name":"Sukhmani K. Padda","role":"PRINCIPAL_INVESTIGATOR"}],"geoPoint":{"lat":39.95238,"lon":-75.16362}},{"facility":"Reading Hospital","status":"RECRUITING","city":"West Reading","state":"Pennsylvania","zip":"19611","country":"United States","contacts":[{"name":"Site Public Contact","role":"CONTACT","phone":"610-988-9323"},{"name":"Michael L. Haas","role":"PRINCIPAL_INVESTIGATOR"}],"geoPoint":{"lat":40.3337,"lon":-75.94743}},{"facility":"Geisinger Wyoming Valley/Henry Cancer Center","status":"RECRUITING","city":"Wilkes-Barre","state":"Pennsylvania","zip":"18711","country":"United States","contacts":[{"name":"Site Public Contact","role":"CONTACT","phone":"570-271-5251","email":"HemonCCTrials@geisinger.edu"},{"name":"Fiori Alite","role":"PRINCIPAL_INVESTIGATOR"}],"geoPoint":{"lat":41.24591,"lon":-75.88131}},{"facility":"Asplundh Cancer Pavilion","status":"RECRUITING","city":"Willow Grove","state":"Pennsylvania","zip":"19090","country":"United States","contacts":[{"name":"Site Public Contact","role":"CONTACT","phone":"215-600-9151","email":"ONCTrialNow@jefferson.edu"},{"name":"Erik S. Blomain","role":"PRINCIPAL_INVESTIGATOR"}],"geoPoint":{"lat":40.144,"lon":-75.11573}},{"facility":"Lankenau Medical Center","status":"RECRUITING","city":"Wynnewood","state":"Pennsylvania","zip":"19096","country":"United States","contacts":[{"name":"Site Public Contact","role":"CONTACT","phone":"484-476-2649","email":"turzoe@mlhs.org"},{"name":"Deric C. Savior","role":"PRINCIPAL_INVESTIGATOR"}],"geoPoint":{"lat":40.00289,"lon":-75.27074}},{"facility":"WellSpan Health-York Cancer Center","status":"RECRUITING","city":"York","state":"Pennsylvania","zip":"17403","country":"United States","contacts":[{"name":"Site Public Contact","role":"CONTACT","phone":"877-441-7957"},{"name":"Amit B. Shah","role":"PRINCIPAL_INVESTIGATOR"}],"geoPoint":{"lat":39.9626,"lon":-76.72774}},{"facility":"WellSpan Health-York Hospital","status":"RECRUITING","city":"York","state":"Pennsylvania","zip":"17403","country":"United States","contacts":[{"name":"Site Public Contact","role":"CONTACT","phone":"877-441-7957"},{"name":"Amit B. Shah","role":"PRINCIPAL_INVESTIGATOR"}],"geoPoint":{"lat":39.9626,"lon":-76.72774}},{"facility":"Gibbs Cancer Center-Gaffney","status":"RECRUITING","city":"Gaffney","state":"South Carolina","zip":"29341","country":"United States","contacts":[{"name":"Site Public Contact","role":"CONTACT","phone":"864-560-6104","email":"kmertz-rivera@gibbscc.org"},{"name":"Jeremy M. Kilburn","role":"PRINCIPAL_INVESTIGATOR"}],"geoPoint":{"lat":35.07179,"lon":-81.64982}}, "status":"RECRUITING","city":"Greer","state":"South Carolina","zip":"29651","country":"United States","contacts":[{"name":"Site Public Contact","role":"CONTACT","phone":"864-560-6104","email":"kmertz-rivera@gibbscc.org"},{"name":"Jeremy M. Kilburn","role":"PRINCIPAL_INVESTIGATOR"}],"geoPoint":{"lat":34.93873,"lon":-82.22706}},{"facility":"Lancaster Radiation Therapy Center","status":"RECRUITING","city":"Lancaster","state":"South Carolina","zip":"29720","country":"United States","contacts":[{"name":"Site Public Contact","role":"CONTACT","phone":"800-804-9376"},{"name":"John H. Heinzerling","role":"PRINCIPAL_INVESTIGATOR"}],"geoPoint":{"lat":34.72043,"lon":-80.7709}},{"facility":"Rock Hill Radiation Therapy Center","status":"RECRUITING","city":"Rock Hill","state":"South Carolina","zip":"29730","country":"United States","contacts":[{"name":"Site Public Contact","role":"CONTACT","phone":"800-804-9376"},{"name":"John H. Heinzerling","role":"PRINCIPAL_INVESTIGATOR"}],"geoPoint":{"lat":34.92487,"lon":-81.02508}},{"facility":"Levine Cancer Institute-Rock Hill","status":"RECRUITING","city":"Rock Hill","state":"South Carolina","zip":"29732","country":"United States","contacts":[{"name":"Site Public Contact","role":"CONTACT","phone":"800-804-9376"},{"name":"John H. Heinzerling","role":"PRINCIPAL_INVESTIGATOR"}],"geoPoint":{"lat":34.92487,"lon":-81.02508}},{"facility":"Spartanburg Medical Center","status":"RECRUITING","city":"Spartanburg","state":"South Carolina","zip":"29303","country":"United States","contacts":[{"name":"Site Public Contact","role":"CONTACT","phone":"864-560-6104","email":"kmertz-rivera@gibbscc.org"},{"name":"Jeremy M. Kilburn","role":"PRINCIPAL_INVESTIGATOR"}],"geoPoint":{"lat":34.94957,"lon":-81.93205}},{"facility":"SMC Center for Hematology Oncology Union","status":"RECRUITING","city":"Union","state":"South Carolina","zip":"29379","country":"United States","contacts":[{"name":"Site Public Contact","role":"CONTACT","phone":"864-560-6104","email":"kmertz-rivera@gibbscc.org"},{"name":"Jeremy M. Kilburn","role":"PRINCIPAL_INVESTIGATOR"}],"geoPoint":{"lat":34.71541,"lon":-81.62371}},{"facility":"Lexington Medical Center","status":"RECRUITING","city":"West Columbia","state":"South Carolina","zip":"29169","country":"United States","contacts":[{"name":"Site Public Contact","role":"CONTACT","phone":"803-935-8300","email":"research@lexhealth.org"},{"name":"Steven A. Madden","role":"PRINCIPAL_INVESTIGATOR"}],"geoPoint":{"lat":33.99349,"lon":-81.07398}},{"facility":"Sanford Cancer Center Oncology Clinic","status":"RECRUITING","city":"Sioux Falls","state":"South Dakota","zip":"57104","country":"United States","contacts":[{"name":"Site Public Contact","role":"CONTACT","phone":"605-312-3320","email":"OncologyClinicTrialsSF@sanfordhealth.org"},{"name":"Daniel Almquist","role":"PRINCIPAL_INVESTIGATOR"}],"geoPoint":{"lat":43.54369,"lon":-96.72796}},{"facility":"Sanford USD Medical Center - Sioux Falls","status":"RECRUITING","city":"Sioux Falls","state":"South Dakota","zip":"57117-5134","country":"United States","contacts":[{"name":"Site Public Contact","role":"CONTACT","phone":"605-312-3320","email":"OncologyClinicalTrialsSF@SanfordHealth.org"},{"name":"Daniel Almquist","role":"PRINCIPAL_INVESTIGATOR"}],"geoPoint":{"lat":43.54369,"lon":-96.72796}},{"facility":"Baptist Memorial Hospital and Cancer Center-Collierville","status":"RECRUITING","city":"Collierville","state":"Tennessee","zip":"38017","country":"United States","contacts":[{"name":"Site Public Contact","role":"CONTACT","phone":"901-226-1366","email":"BCCclintrials@bmhcc.org"},{"name":"Michael Tomblyn","role":"PRINCIPAL_INVESTIGATOR"}],"geoPoint":{"lat":35.04204,"lon":-89.66453}},{"facility":"Baptist Memorial Hospital and Cancer Center-Memphis","status":"RECRUITING","city":"Memphis","state":"Tennessee","zip":"38120","country":"United States","contacts":[{"name":"Site Public Contact","role":"CONTACT","phone":"901-226-1366","email":"BCCclintrials@bmhcc.org"},{"name":"Michael Tomblyn","role":"PRINCIPAL_INVESTIGATOR"}],"geoPoint":{"lat":35.14953,"lon":-90.04898}},{"facility":"MD Anderson in The Woodlands","status":"RECRUITING","city":"Conroe","state":"Texas","zip":"77384","country":"United States","contacts":[{"name":"Site Public Contact","role":"CONTACT","phone":"866-632-6789","email":"askmdanderson@mdanderson.org"},{"name":"Julianna Bronk","role":"PRINCIPAL_INVESTIGATOR"}],"geoPoint":{"lat":30.31188,"lon":-95.45605}},{"facility":"M D Anderson Cancer Center","status":"RECRUITING","city":"Houston","state":"Texas","zip":"77030","country":"United States","contacts":[{"name":"Site Public Contact","role":"CONTACT","phone":"877-632-6789","email":"askmdanderson@mdanderson.org"},{"name":"Julianna Bronk","role":"PRINCIPAL_INVESTIGATOR"}],"geoPoint":{"lat":29.76328,"lon":-95.36327}},{"facility":"MD Anderson West Houston","status":"RECRUITING","city":"Houston","state":"Texas","zip":"77079","country":"United States","contacts":[{"name":"Site Public Contact","role":"CONTACT","phone":"877-632-6789","email":"askmdanderson@mdanderson.org"},{"name":"Julianna Bronk","role":"PRINCIPAL_INVESTIGATOR"}],"geoPoint":{"lat":29.76328,"lon":-95.36327}},{"facility":"MD Anderson League City","status":"RECRUITING","city":"League City","state":"Texas","zip":"77573","country":"United States","contacts":[{"name":"Site Public Contact","role":"CONTACT","phone":"877-632-6789","email":"askmdanderson@mdanderson.org"},{"name":"Julianna Bronk","role":"PRINCIPAL_INVESTIGATOR"}],"geoPoint":{"lat":29.50745,"lon":-95.09493}},{"facility":"MD Anderson in Sugar Land","status":"RECRUITING","city":"Sugar Land","state":"Texas","zip":"77478","country":"United States","contacts":[{"name":"Site Public Contact","role":"CONTACT","phone":"877-632-6789","email":"askmdanderson@mdanderson.org"},{"name":"Julianna Bronk","role":"PRINCIPAL_INVESTIGATOR"}],"geoPoint":{"lat":29.61968,"lon":-95.63495}},{"facility":"Central Vermont Medical Center/National Life Cancer Treatment","status":"RECRUITING","city":"Berlin Corners","state":"Vermont","zip":"05602","country":"United States","contacts":[{"name":"Site Public Contact","role":"CONTACT","phone":"802-225-5400"},{"name":"Christopher J. Anker","role":"PRINCIPAL_INVESTIGATOR"}],"geoPoint":{"lat":44.21006,"lon":-72.57594}},{"facility":"University of Vermont Medical Center","status":"RECRUITING","city":"Burlington","state":"Vermont","zip":"05401","country":"United States","contacts":[{"name":"Site Public Contact","role":"CONTACT","phone":"802-656-4101","email":"rpo@uvm.edu"},{"name":"Christopher J. Anker","role":"PRINCIPAL_INVESTIGATOR"}],"geoPoint":{"lat":44.47588,"lon":-73.21207}},{"facility":"University of Vermont and State Agricultural College","status":"RECRUITING","city":"Burlington","state":"Vermont","zip":"05405","country":"United States","contacts":[{"name":"Site Public Contact","role":"CONTACT","phone":"802-656-8990","email":"rpo@uvm.edu"},{"name":"Christopher J. Anker","role":"PRINCIPAL_INVESTIGATOR"}],"geoPoint":{"lat":44.47588,"lon":-73.21207}},{"facility":"Dartmouth Cancer Center - North","status":"RECRUITING","city":"Saint Johnsbury","state":"Vermont","zip":"05819","country":"United States","contacts":[{"name":"Site Public Contact","role":"CONTACT","phone":"800-639-6918","email":"cancer.research.nurse@hitchcock.org"},{"name":"Gregory A. Russo","role":"PRINCIPAL_INVESTIGATOR"}],"geoPoint":{"lat":44.41922,"lon":-72.01509}},{"facility":"Legacy Cancer Institute Medical Oncology and Day Treatment","status":"RECRUITING","city":"Vancouver","state":"Washington","zip":"98684","country":"United States","contacts":[{"name":"Site Public Contact","role":"CONTACT","email":"oncologyresearch@lhs.org"},{"name":"Andrew Y. Kee","role":"PRINCIPAL_INVESTIGATOR"}],"geoPoint":{"lat":45.63873,"lon":-122.66149}},{"facility":"Legacy Salmon Creek Hospital","status":"RECRUITING","city":"Vancouver","state":"Washington","zip":"98686","country":"United States","contacts":[{"name":"Site Public Contact","role":"CONTACT","phone":"503-413-2150"},{"name":"Andrew Y. Kee","role":"PRINCIPAL_INVESTIGATOR"}],"geoPoint":{"lat":45.63873,"lon":-122.66149}},{"facility":"Edwards Comprehensive Cancer Center","status":"RECRUITING","city":"Huntington","state":"West Virginia","zip":"25701","country":"United States","contacts":[{"name":"Site Public Contact","role":"CONTACT","phone":"304-399-6566","email":"Christina.Cole@chhi.org"},{"name":"Toni O. Pacioles","role":"PRINCIPAL_INVESTIGATOR"}],"geoPoint":{"lat":38.41925,"lon":-82.44515}},{"facility":"West Virginia University Healthcare","status":"RECRUITING","city":"Morgantown","state":"West Virginia","zip":"26506","country":"United States","contacts":[{"name":"Site Public Contact","role":"CONTACT","phone":"304-293-7374","email":"cancertrialsinfo@hsc.wvu.edu"},{"name":"Phillip M. Pifer","role":"PRINCIPAL_INVESTIGATOR"}],"geoPoint":{"lat":39.62953,"lon":-79.9559}},{"facility":"Langlade Hospital and Cancer Center","status":"RECRUITING","city":"Antigo","state":"Wisconsin","zip":"54409","country":"United States","contacts":[{"name":"Site Public Contact","role":"CONTACT","phone":"715-623-9869","email":"Juli.Alford@aspirus.org"},{"name":"Andrew J. Huang","role":"PRINCIPAL_INVESTIGATOR"}],"geoPoint":{"lat":45.14025,"lon":-89.15234}},{"facility":"Duluth Clinic Ashland","status":"RECRUITING","city":"Ashland","state":"Wisconsin","zip":"54806","country":"United States","contacts":[{"name":"Site Public Contact","role":"CONTACT","phone":"218-786-3308","email":"CancerTrials@EssentiaHealth.org"},{"name":"Bret E. Friday","role":"PRINCIPAL_INVESTIGATOR"}],"geoPoint":{"lat":46.59244,"lon":-90.8838}},{"facility":"Northwest Wisconsin Cancer Center","status":"RECRUITING","city":"Ashland","state":"Wisconsin","zip":"54806","country":"United States","contacts":[{"name":"Site Public Contact","role":"CONTACT","phone":"218-786-3308","email":"CancerTrials@EssentiaHealth.org"},{"name":"Bret E. Friday","role":"PRINCIPAL_INVESTIGATOR"}],"geoPoint":{"lat":46.59244,"lon":-90.8838}},{"facility":"Aurora Cancer Care-Southern Lakes VLCC","status":"RECRUITING","city":"Burlington","state":"Wisconsin","zip":"53105","country":"United States","contacts":[{"name":"Site Public Contact","role":"CONTACT","phone":"414-302-2304","email":"ncorp@aurora.org"},{"name":"Jeffrey A. Kittel","role":"PRINCIPAL_INVESTIGATOR"}],"geoPoint":{"lat":42.67807,"lon":-88.2762}},{"facility":"HSHS Sacred Heart Hospital","status":"SUSPENDED","city":"Eau Claire","state":"Wisconsin","zip":"54701","country":"United States","geoPoint":{"lat":44.81135,"lon":-91.49849}},{"facility":"Marshfield Medical Center-EC Cancer Center","status":"RECRUITING","city":"Eau Claire","state":"Wisconsin","zip":"54701","country":"United States","contacts":[{"name":"Site Public Contact","role":"CONTACT","phone":"800-782-8581","email":"oncology.clinical.trials@marshfieldresearch.org"},{"name":"Anderson A. Bauer","role":"PRINCIPAL_INVESTIGATOR"}],"geoPoint":{"lat":44.81135,"lon":-91.49849}},{"facility":"Aurora Health Care Germantown Health Center","status":"RECRUITING","city":"Germantown","state":"Wisconsin","zip":"53022","country":"United States","contacts":[{"name":"Site Public Contact","role":"CONTACT","phone":"414-302-2304","email":"ncorp@aurora.org"},{"name":"Jeffrey A. Kittel","role":"PRINCIPAL_INVESTIGATOR"}],"geoPoint":{"lat":43.22862,"lon":-88.11037}},{"facility":"Aurora Cancer Care-Grafton","status":"RECRUITING","city":"Grafton","state":"Wisconsin","zip":"53024","country":"United States","contacts":[{"name":"Site Public Contact","role":"CONTACT","phone":"414-302-2304","email":"ncorp@aurora.org"},{"name":"Jeffrey A. Kittel","role":"PRINCIPAL_INVESTIGATOR"}],"geoPoint":{"lat":43.31973,"lon":-87.95342}},{"facility":"Saint Vincent Hospital Cancer Center Green Bay","status":"RECRUITING","city":"Green Bay","state":"Wisconsin","zip":"54301","country":"United States","contacts":[{"name":"Site Public Contact","role":"CONTACT","phone":"920-433-8889","email":"WI_research_admin@hshs.org"},{"name":"Matthew L. Ryan","role":"PRINCIPAL_INVESTIGATOR"}],"geoPoint":{"lat":44.51916,"lon":-88.01983}},{"facility":"Aurora BayCare Medical Center","status":"RECRUITING","city":"Green Bay","state":"Wisconsin","zip":"54311","country":"United States","contacts":[{"name":"Site Public Contact","role":"CONTACT","phone":"414-302-2304","email":"ncorp@aurora.org"},{"name":"Jeffrey A. Kittel","role":"PRINCIPAL_INVESTIGATOR"}],"geoPoint":{"lat":44.51916,"lon":-88.01983}},{"facility":"Essentia Health-Hayward Clinic","status":"RECRUITING","city":"Hayward","state":"Wisconsin","zip":"54843","country":"United States","contacts":[{"name":"Site Public Contact","role":"CONTACT","phone":"218-786-3308","email":"CancerTrials@EssentiaHealth.org"},{"name":"Bret E. Friday","role":"PRINCIPAL_INVESTIGATOR"}],"geoPoint":{"lat":46.01301,"lon":-91.48462}},{"facility":"University of Wisconsin Carbone Cancer Center - Johnson Creek","status":"RECRUITING","city":"Johnson Creek","state":"Wisconsin","zip":"53038","country":"United States","contacts":[{"name":"Site Public Contact","role":"CONTACT","phone":"800-622-8922","email":"clinicaltrials@cancer.wisc.edu"},{"name":"Andrew M. Baschnagel","role":"PRINCIPAL_INVESTIGATOR"}],"geoPoint":{"lat":43.07611,"lon":-88.77427}},{"facility":"Aurora Cancer Care-Kenosha South","status":"RECRUITING","city":"Kenosha","state":"Wisconsin","zip":"53142","country":"United States","contacts":[{"name":"Site Public Contact","role":"CONTACT","phone":"414-302-2304","email":"ncorp@aurora.org"},{"name":"Jeffrey A. Kittel","role":"PRINCIPAL_INVESTIGATOR"}],"geoPoint":{"lat":42.58474,"lon":-87.82119}},{"facility":"William S Middleton VA Medical Center","status":"RECRUITING","city":"Madison","state":"Wisconsin","zip":"53705","country":"United States","contacts":[{"name":"Site Public Contact","role":"CONTACT","phone":"608-256-1901","phoneExt":"17007"},{"name":"Jessica M. Schuster","role":"PRINCIPAL_INVESTIGATOR"}],"geoPoint":{"lat":43.07305,"lon":-89.40123}},{"facility":"University of Wisconsin Carbone Cancer Center - Eastpark Medical Center","status":"RECRUITING","city":"Madison","state":"Wisconsin","zip":"53718","country":"United States","contacts":[{"name":"Site Public Contact","role":"CONTACT","phone":"800-622-8922","email":"clinicaltrials@cancer.wisc.edu"},{"name":"Andrew M. Baschnagel","role":"PRINCIPAL_INVESTIGATOR"}],"geoPoint":{"lat":43.07305,"lon":-89.40123}},{"facility":"University of Wisconsin Carbone Cancer Center - University Hospital","status":"RECRUITING","city":"Madison","state":"Wisconsin","zip":"53792","country":"United States","contacts":[{"name":"Site Public Contact","role":"CONTACT","phone":"800-622-8922","email":"clinicaltrials@cancer.wisc.edu"},{"name":"Andrew M. Baschnagel","role":"PRINCIPAL_INVESTIGATOR"}],"geoPoint":{"lat":43.07305,"lon":-89.40123}},{"facility":"Aurora Bay Area Medical Group-Marinette","status":"RECRUITING","city":"Marinette","state":"Wisconsin","zip":"54143","country":"United States","contacts":[{"name":"Site Public Contact","role":"CONTACT","phone":"414-302-2304","email":"ncorp@aurora.org"},{"name":"Jeffrey A. Kittel","role":"PRINCIPAL_INVESTIGATOR"}],"geoPoint":{"lat":45.09998,"lon":-87.63066}},{"facility":"Marshfield Medical Center-Marshfield","status":"RECRUITING","city":"Marshfield","state":"Wisconsin","zip":"54449","country":"United States","contacts":[{"name":"Site Public Contact","role":"CONTACT","phone":"800-782-8581","email":"oncology.clinical.trials@marshfieldresearch.org"},{"name":"Anderson A. Bauer","role":"PRINCIPAL_INVESTIGATOR"}],"geoPoint":{"lat":44.66885,"lon":-90.1718}},{"facility":"Froedtert Menomonee Falls Hospital","status":"RECRUITING","city":"Menomonee Falls","state":"Wisconsin","zip":"53051","country":"United States","contacts":[{"name":"Site Public Contact","role":"CONTACT","phone":"262-257-5100"},{"name":"Lindsay L. Puckett","role":"PRINCIPAL_INVESTIGATOR"}],"geoPoint":{"lat":43.1789,"lon":-88.11731}},{"facility":"Aurora Cancer Care-Milwaukee","status":"RECRUITING","city":"Milwaukee","state":"Wisconsin","zip":"53209","country":"United States","contacts":[{"name":"Site Public Contact","role":"CONTACT","phone":"414-302-2304","email":"ncorp@aurora.org"},{"name":"Jeffrey A. Kittel","role":"PRINCIPAL_INVESTIGATOR"}],"geoPoint":{"lat":43.0389,"lon":-87.90647}},{"facility":"Aurora Saint Luke's Medical Center","status":"RECRUITING","city":"Milwaukee","state":"Wisconsin","zip":"53215","country":"United States","contacts":[{"name":"Site Public Contact","role":"CONTACT","phone":"414-302-2304","email":"ncorp@aurora.org"},{"name":"Jeffrey A. Kittel","role":"PRINCIPAL_INVESTIGATOR"}],"geoPoint":{"lat":43.0389,"lon":-87.90647}},{"facility":"Medical College of Wisconsin","status":"RECRUITING","city":"Milwaukee","state":"Wisconsin","zip":"53226","country":"United States","contacts":[{"name":"Site Public Contact","role":"CONTACT","phone":"414-805-3666"},{"name":"Lindsay L. Puckett","role":"PRINCIPAL_INVESTIGATOR"}],"geoPoint":{"lat":43.0389,"lon":-87.90647}},{"facility":"Aurora Sinai Medical Center","status":"RECRUITING","city":"Milwaukee","state":"Wisconsin","zip":"53233","country":"United States","contacts":[{"name":"Site Public Contact","role":"CONTACT","phone":"414-302-2304","email":"ncorp@aurora.org"},{"name":"Jeffrey A. Kittel","role":"PRINCIPAL_INVESTIGATOR"}],"geoPoint":{"lat":43.0389,"lon":-87.90647}},{"facility":"Zablocki Veterans Administration Medical Center","status":"RECRUITING","city":"Milwaukee","state":"Wisconsin","zip":"53295","country":"United States","contacts":[{"name":"Site Public Contact","role":"CONTACT","phone":"888-469-6614"},{"name":"Adam D. Currey","role":"PRINCIPAL_INVESTIGATOR"}],"geoPoint":{"lat":43.0389,"lon":-87.90647}},{"facility":"Marshfield Medical Center - Minocqua","status":"RECRUITING","city":"Minocqua","state":"Wisconsin","zip":"54548","country":"United States","contacts":[{"name":"Site Public Contact","role":"CONTACT","phone":"800-782-8581","email":"oncology.clinical.trials@marshfieldresearch.org"},{"name":"Anderson A. Bauer","role":"PRINCIPAL_INVESTIGATOR"}],"geoPoint":{"lat":45.87134,"lon":-89.71098}},{"facility":"ProHealth D N Greenwald Center","status":"RECRUITING","city":"Mukwonago","state":"Wisconsin","zip":"53149","country":"United States","contacts":[{"name":"Site Public Contact","role":"CONTACT","email":"research.institute@phci.org"},{"name":"Timothy R. Wassenaar","role":"PRINCIPAL_INVESTIGATOR"}],"geoPoint":{"lat":42.86668,"lon":-88.33343}},{"facility":"Drexel Town Square Health Center","status":"RECRUITING","city":"Oak Creek","state":"Wisconsin","zip":"53154","country":"United States","contacts":[{"name":"Site Public Contact","role":"CONTACT","phone":"414-805-0505"},{"name":"Lindsay L. Puckett","role":"PRINCIPAL_INVESTIGATOR"}],"geoPoint":{"lat":42.88585,"lon":-87.86314}},{"facility":"ProHealth Oconomowoc Memorial Hospital","status":"RECRUITING","city":"Oconomowoc","state":"Wisconsin","zip":"53066","country":"United States","contacts":[{"name":"Site Public Contact","role":"CONTACT","phone":"262-928-7878"},{"name":"Timothy R. Wassenaar","role":"PRINCIPAL_INVESTIGATOR"}],"geoPoint":{"lat":43.11167,"lon":-88.49927}},{"facility":"Vince Lombardi Cancer Clinic - Oshkosh","status":"RECRUITING","city":"Oshkosh","state":"Wisconsin","zip":"54904","country":"United States","contacts":[{"name":"Site Public Contact","role":"CONTACT","phone":"414-302-2304","email":"ncorp@aurora.org"},{"name":"Jeffrey A. Kittel","role":"PRINCIPAL_INVESTIGATOR"}],"geoPoint":{"lat":44.02471,"lon":-88.54261}},{"facility":"Aurora Cancer Care-Racine","status":"RECRUITING","city":"Racine","state":"Wisconsin","zip":"53406","country":"United States","contacts":[{"name":"Site Public Contact","role":"CONTACT","phone":"414-302-2304","email":"ncorp@aurora.org"},{"name":"Jeffrey A. Kittel","role":"PRINCIPAL_INVESTIGATOR"}],"geoPoint":{"lat":42.72613,"lon":-87.78285}},{"facility":"Aspirus Cancer Care - James Beck Cancer Center","status":"RECRUITING","city":"Rhinelander","state":"Wisconsin","zip":"54501","country":"United States","contacts":[{"name":"Site Public Contact","role":"CONTACT","phone":"715-847-2353","email":"Beth.Knetter@aspirus.org"},{"name":"Andrew J. Huang","role":"PRINCIPAL_INVESTIGATOR"}],"geoPoint":{"lat":45.63662,"lon":-89.41208}},{"facility":"Marshfield Medical Center-Rice Lake","status":"RECRUITING","city":"Rice Lake","state":"Wisconsin","zip":"54868","country":"United States","contacts":[{"name":"Site Public Contact","role":"CONTACT","phone":"800-782-8581","email":"oncology.clinical.trials@marshfieldresearch.org"},{"name":"Anderson A. Bauer","role":"PRINCIPAL_INVESTIGATOR"}],"geoPoint":{"lat":45.50607,"lon":-91.73823}},{"facility":"Saint Vincent Hospital Cancer Center at Sheboygan","status":"RECRUITING","city":"Sheboygan","state":"Wisconsin","zip":"53081","country":"United States","contacts":[{"name":"Site Public Contact","role":"CONTACT","phone":"920-433-8889","email":"wi_research_admin@hshs.org"},{"name":"Matthew L. Ryan","role":"PRINCIPAL_INVESTIGATOR"}],"geoPoint":{"lat":43.75083,"lon":-87.71453}},{"facility":"Vince Lombardi Cancer Clinic-Sheboygan","status":"RECRUITING","city":"Sheboygan","state":"Wisconsin","zip":"53081","country":"United States","contacts":[{"name":"Site Public Contact","role":"CONTACT","phone":"414-302-2304","email":"ncorp@aurora.org"},{"name":"Jeffrey A. Kittel","role":"PRINCIPAL_INVESTIGATOR"}],"geoPoint":{"lat":43.75083,"lon":-87.71453}},{"facility":"Essentia Health-Spooner Clinic","status":"RECRUITING","city":"Spooner","state":"Wisconsin","zip":"54801","country":"United States","contacts":[{"name":"Site Public Contact","role":"CONTACT","phone":"218-786-3308","email":"CancerTrials@EssentiaHealth.org"},{"name":"Bret E. Friday","role":"PRINCIPAL_INVESTIGATOR"}],"geoPoint":{"lat":45.82245,"lon":-91.88934}},{"facility":"Aspirus Cancer Care - Stevens Point","status":"RECRUITING","city":"Stevens Point","state":"Wisconsin","zip":"54481","country":"United States","contacts":[{"name":"Site Public Contact","role":"CONTACT","phone":"715-847-2353","email":"Beth.Knetter@aspirus.org"},{"name":"Andrew J. Huang","role":"PRINCIPAL_INVESTIGATOR"}],"geoPoint":{"lat":44.52358,"lon":-89.57456}},{"facility":"Marshfield Medical Center-River Region at Stevens Point","status":"RECRUITING","city":"Stevens Point","state":"Wisconsin","zip":"54482","country":"United States","contacts":[{"name":"Site Public Contact","role":"CONTACT","phone":"800-782-8581","email":"oncology.clinical.trials@marshfieldresearch.org"},{"name":"Anderson A. Bauer","role":"PRINCIPAL_INVESTIGATOR"}],"geoPoint":{"lat":44.52358,"lon":-89.57456}},{"facility":"Saint Vincent Hospital Cancer Center at Sturgeon Bay","status":"RECRUITING","city":"Sturgeon Bay","state":"Wisconsin","zip":"54235-1495","country":"United States","contacts":[{"name":"Site Public Contact","role":"CONTACT","phone":"920-433-8889","email":"wi_research_admin@hshs.org"},{"name":"Matthew L. Ryan","role":"PRINCIPAL_INVESTIGATOR"}],"geoPoint":{"lat":44.83416,"lon":-87.37704}},{"facility":"Aurora Medical Center in Summit","status":"RECRUITING","city":"Summit","state":"Wisconsin","zip":"53066","country":"United States","contacts":[{"name":"Site Public Contact","role":"CONTACT","phone":"414-302-2304","email":"ncorp@aurora.org"},{"name":"Jeffrey A. Kittel","role":"PRINCIPAL_INVESTIGATOR"}]},{"facility":"Essentia Health Saint Mary's Hospital - Superior","status":"RECRUITING","city":"Superior","state":"Wisconsin","zip":"54880","country":"United States","contacts":[{"name":"Site Public Contact","role":"CONTACT","phone":"701-364-6272"},{"name":"Bret E. Friday","role":"PRINCIPAL_INVESTIGATOR"}],"geoPoint":{"lat":46.72077,"lon":-92.10408}},{"facility":"UW Cancer Center at ProHealth Care","status":"RECRUITING","city":"Waukesha","state":"Wisconsin","zip":"53188","country":"United States","contacts":[{"name":"Site Public Contact","role":"CONTACT","phone":"262-928-5539","email":"Chanda.miller@phci.org"},{"name":"Timothy R. Wassenaar","role":"PRINCIPAL_INVESTIGATOR"}],"geoPoint":{"lat":43.01168,"lon":-88.23148}},{"facility":"Aspirus Regional Cancer Center","status":"RECRUITING","city":"Wausau","state":"Wisconsin","zip":"54401","country":"United States","contacts":[{"name":"Site Public Contact","role":"CONTACT","phone":"877-405-6866"},{"name":"Andrew J. Huang","role":"PRINCIPAL_INVESTIGATOR"}],"geoPoint":{"lat":44.95914,"lon":-89.63012}},{"facility":"Aurora Cancer Care-Milwaukee West","status":"RECRUITING","city":"Wauwatosa","state":"Wisconsin","zip":"53226","country":"United States","contacts":[{"name":"Site Public Contact","role":"CONTACT","phone":"414-302-2304","email":"ncorp@aurora.org"},{"name":"Jeffrey A. Kittel","role":"PRINCIPAL_INVESTIGATOR"}],"geoPoint":{"lat":43.04946,"lon":-88.00759}},{"facility":"Aurora West Allis Medical Center","status":"RECRUITING","city":"West Allis","state":"Wisconsin","zip":"53227","country":"United States","contacts":[{"name":"Site Public Contact","role":"CONTACT","phone":"414-302-2304","email":"ncorp@aurora.org"},{"name":"Jeffrey A. Kittel","role":"PRINCIPAL_INVESTIGATOR"}],"geoPoint":{"lat":43.01668,"lon":-88.00703}},{"facility":"Froedtert West Bend Hospital/Kraemer Cancer Center","status":"RECRUITING","city":"West Bend","state":"Wisconsin","zip":"53095","country":"United States","contacts":[{"name":"Site Public Contact","role":"CONTACT","phone":"414-805-0505"},{"name":"Lindsay L. Puckett","role":"PRINCIPAL_INVESTIGATOR"}],"geoPoint":{"lat":43.42528,"lon":-88.18343}},{"facility":"Marshfield Medical Center - Weston","status":"RECRUITING","city":"Weston","state":"Wisconsin","zip":"54476","country":"United States","contacts":[{"name":"Site Public Contact","role":"CONTACT","phone":"800-782-8581","email":"oncology.clinical.trials@marshfieldresearch.org"},{"name":"Anderson A. Bauer","role":"PRINCIPAL_INVESTIGATOR"}],"geoPoint":{"lat":44.8908,"lon":-89.54762}},{"facility":"Aspirus Cancer Care - Wisconsin Rapids","status":"RECRUITING","city":"Wisconsin Rapids","state":"Wisconsin","zip":"54494","country":"United States","contacts":[{"name":"Site Public Contact","role":"CONTACT","phone":"715-422-7718"},{"name":"Andrew J. Huang","role":"PRINCIPAL_INVESTIGATOR"}],"geoPoint":{"lat":44.38358,"lon":-89.81735}},{"facility":"Ottawa Hospital and Cancer Center-General Campus","status":"RECRUITING","city":"Ottawa","state":"Ontario","zip":"K1H 8L6","country":"Canada","contacts":[{"name":"Site Public Contact","role":"CONTACT","phone":"613-761-4395"},{"name":"Robert M. MacRae","role":"PRINCIPAL_INVESTIGATOR"}],"geoPoint":{"lat":45.41117,"lon":-75.69812}}]}, 

    "key_inclusion_summary": [
      "Pathologically proven diagnosis of non-operable stage IIB or III, node positive non-small cell lung cancer (NSCLC).",
      "Primary tumor must be 7 cm or less.",
      "Eastern Cooperative Oncology Group (ECOG) performance status of 0-2.",
      "No evidence of distant metastases based on FDG PET/CT scan.",
      "Patient is deemed clinically appropriate for curative intent definitive combined modality therapy."
    ],
    "key_exclusion_summary": [
      "Prior radiotherapy to the study cancer.",
      "Patients without an identifiable primary tumor and at least one radiographically-involved lymph node.",
      "Centrally located primary tumor less than 2 cm from involved nodal disease that would result in significant overlap of radiation fields.",
      "Participants who are pregnant or nursing.",
      "Prior or concurrent malignancy whose natural history or treatment has the potential to interfere with the study."
    ]
  }