{"protocolSection":{"identificationModule":{"nctId":"NCT05953337","orgStudyIdInfo":{"id":"ABK-CA-PROT-85"},"organization":{"fullName":"ABK Biomedical","class":"INDUSTRY"},"briefTitle":"Radioembolization Trial Utilizing Eye90 Microspheres™ for the Treatment of Hepatocellular Carcinoma (HCC)","officialTitle":"Radioembolization Oncology Trial Utilizing Transarterial Eye90 (ROUTE 90) for the Treatment of Hepatocellular Carcinoma (HCC)"},"statusModule":{"statusVerifiedDate":"2025-08","overallStatus":"RECRUITING","expandedAccessInfo":{"hasExpandedAccess":false},"startDateStruct":{"date":"2023-09-21","type":"ACTUAL"},"primaryCompletionDateStruct":{"date":"2025-10","type":"ESTIMATED"},"completionDateStruct":{"date":"2025-10","type":"ESTIMATED"},"studyFirstSubmitDate":"2023-07-12","studyFirstSubmitQcDate":"2023-07-12","studyFirstPostDateStruct":{"date":"2023-07-20","type":"ACTUAL"},"lastUpdateSubmitDate":"2025-08-26","lastUpdatePostDateStruct":{"date":"2025-08-27","type":"ESTIMATED"}},"sponsorCollaboratorsModule":{"responsibleParty":{"type":"SPONSOR"},"leadSponsor":{"name":"ABK Biomedical","class":"INDUSTRY"}},"oversightModule":{"oversightHasDmc":true,"isFdaRegulatedDrug":false,"isFdaRegulatedDevice":true,"isUnapprovedDevice":true},"descriptionModule":{"briefSummary":"This is a prospective, multi-center, open-label study to evaluate the effectiveness and safety of Eye90 microspheres® in the treatment of subjects with unresectable Hepatocellular Carcinoma (HCC). Eye90 microspheres is a medical device containing yttrium-90 (Y-90), a radioactive material, and provides local radiation brachytherapy for the treatment of liver tumors."},"conditionsModule":{"conditions":["Hepatocellular Carcinoma","Hepatocellular Carcinoma Non-resectable","Liver Cancer"],"keywords":["Hepatocellular Carcinoma","Liver Cancer","Liver Diseases","Internal radiation brachytherapy","Radioembolization","Y90","Yttrium-90","Eye90 microspheres"]},"designModule":{"studyType":"INTERVENTIONAL","phases":["NA"],"designInfo":{"allocation":"NA","interventionModel":"SINGLE_GROUP","primaryPurpose":"TREATMENT","maskingInfo":{"masking":"NONE"}},"enrollmentInfo":{"count":120,"type":"ESTIMATED"}},"armsInterventionsModule":{"armGroups":[{"label":"EYE90 Microspheres Treatment","type":"EXPERIMENTAL","description":"Radioembolization with Eye90 Microspheres","interventionNames":["Device: EYE90 Microspheres Treatment"]}],"interventions":[{"type":"DEVICE","name":"EYE90 Microspheres Treatment","description":"Y90 glass microspheres","armGroupLabels":["EYE90 Microspheres Treatment"]}]},"outcomesModule":{"primaryOutcomes":[{"measure":"Overall response rate (ORR)","description":"The percentage of subjects with ORR using local mRECIST, as assessed by independent panel review.","timeFrame":"6 months"},{"measure":"Duration of response (DoR)","description":"DoR is defined as response ≥ 6 months for ≥ 60% of responders first occurrence of CR or PR","timeFrame":"6 months"},{"measure":"Incidence of adverse events (AEs)","description":"Incidence of AEs, grouped by System Organ Class (SOC) and Preferred Term (PT), relatedness to study treatment/procedure, and severity.","timeFrame":"12 months"},{"measure":"Incidence of serious adverse events (SAEs)","description":"Incidence of SAEs, grouped by SOC and PT, relatedness to study treatment/procedure, and severity.","timeFrame":"12 months"}]},"eligibilityModule":{"eligibilityCriteria":"Inclusion Criteria:\n\n* Must have a confirmed diagnosis of HCC by imaging confirmation with Liver Imaging Reporting and Data System (LIRADS) category 5 or confirmation of HCC via biopsy.\n* No extra hepatic disease.\n* Up to 3 lesions with at least one lesion ≥ 2 cm in diameter (long axis) measurable by computed tomography (CT), CBCT, or MRI. At least one lesion must be identified as a target lesion as defined by mRECIST.\n* Maximal single lesion size of ≤ 8 cm and sum of the maximal tumor dimensions of ≤ 12 cm with the entire tumor burden expected to be treatable within the perfused volume.\n* Intent to treat all lesions within a single session.\n* Hypervascular on CBCT, CT, or MRI.\n* Evidence that \\> 33% of the total liver volume is disease-free and will be spared Eye90 treatment.\n* Life expectancy of ≥ 6 months.\n* ≥ 18 years old at the time of informed consent\n\nExclusion Criteria:\n\n* Platelet count \\<50,000/microliter or prothrombin (PT) activity \\> 50% normal.\n* Hemoglobin ≤ 8.5 g/dL (subjects that are non-responders to transfusion or medical management must be excluded).\n* INR \\> 1.7 (if anticoagulated, reversal must be achieved prior to any angiographic procedures).\n* ALT \\> 5x upper limit.\n* AST \\> 5x upper limit.\n* Bilirubin ≥ 2.0 mg/dL.\n* eGFR ≤ 50 mL/min/BSA.\n* Macrovascular invasion.\n* Incompetent biliary duct system, prior biliary intervention, or a compromised Ampulla of Vater.\n* Estimated lung dose \\> 30 Gy as calculated using the lung shunt fraction and partition model.","healthyVolunteers":false,"sex":"ALL","minimumAge":"18 Years","maximumAge":"99 Years","stdAges":["ADULT","OLDER_ADULT"]},"contactsLocationsModule":{"centralContacts":[{"name":"ABK Biomedical","role":"CONTACT","phone":"902.442.4009","email":"safety@abkbiomedical.com"}],"overallOfficials":[{"name":"Andrew Kennedy, MD","affiliation":"Director, Radiation Oncology Research at Sarah Cannon","role":"PRINCIPAL_INVESTIGATOR"},{"name":"Ammar Sarwar, MD","affiliation":"Director of Radiation Oncology Research, Beth Israel Deaconess Medical Center","role":"PRINCIPAL_INVESTIGATOR"},{"name":"Aravind Arepally, MD","affiliation":"ABK Biomedical, Inc","role":"STUDY_DIRECTOR"}],"locations":[{"facility":"The University of Arizona Cancer Center","status":"RECRUITING","city":"Tucson","state":"Arizona","zip":"85719","country":"United States","contacts":[{"name":"Study Coordinator","role":"CONTACT"},{"name":"Shamar Young, MD","role":"PRINCIPAL_INVESTIGATOR"}],"geoPoint":{"lat":32.22174,"lon":-110.92648}},{"facility":"University of California - Irvine","status":"RECRUITING","city":"Orange","state":"California","zip":"92867","country":"United States","contacts":[{"name":"Study Coordinator","role":"CONTACT"},{"name":"Nadine Abi-Jaoudeh, MD","role":"PRINCIPAL_INVESTIGATOR"}],"geoPoint":{"lat":33.78779,"lon":-117.85311}},{"facility":"AdventHealth Radiation Oncology at Altamonte Springs","status":"RECRUITING","city":"Altamonte Springs","state":"Florida","zip":"32701","country":"United States","contacts":[{"name":"Study Coordinator","role":"CONTACT"},{"name":"Ravi Shridhar, MD","role":"PRINCIPAL_INVESTIGATOR"}],"geoPoint":{"lat":28.66111,"lon":-81.36562}},{"facility":"Miami Cardiac and Vascular Institute at Baptist Hospital Miami","status":"RECRUITING","city":"Miami","state":"Florida","zip":"33176","country":"United States","contacts":[{"name":"Study Coordinator","role":"CONTACT"},{"name":"Ripal Gandhi, MD","role":"PRINCIPAL_INVESTIGATOR"}],"geoPoint":{"lat":25.77427,"lon":-80.19366}},{"facility":"Emory University Hospital Midtown","status":"RECRUITING","city":"Atlanta","state":"Georgia","zip":"30308","country":"United States","contacts":[{"name":"Study Coordinator","role":"CONTACT"},{"name":"Zachary Bercu, MD","role":"PRINCIPAL_INVESTIGATOR"}],"geoPoint":{"lat":33.749,"lon":-84.38798}},{"facility":"Piedmont Hospital","status":"RECRUITING","city":"Atlanta","state":"Georgia","zip":"30309","country":"United States","contacts":[{"name":"Study Coordinator","role":"CONTACT"},{"name":"Rahul Maheshwari, MD","role":"PRINCIPAL_INVESTIGATOR"}],"geoPoint":{"lat":33.749,"lon":-84.38798}},{"facility":"Northwestern University Memorial Hospital","status":"RECRUITING","city":"Chicago","state":"Illinois","zip":"60611","country":"United States","contacts":[{"name":"Study Coordinator","role":"CONTACT"},{"name":"Andrew Gordon, MD","role":"PRINCIPAL_INVESTIGATOR"}],"geoPoint":{"lat":41.85003,"lon":-87.65005}},{"facility":"University of Illinois Hospital and Health Sciences System","status":"RECRUITING","city":"Chicago","state":"Illinois","zip":"60612","country":"United States","contacts":[{"name":"Study Coordinator","role":"CONTACT"},{"name":"Ron Gaba, MD","role":"PRINCIPAL_INVESTIGATOR"}],"geoPoint":{"lat":41.85003,"lon":-87.65005}},{"facility":"University of Iowa Health Care","status":"RECRUITING","city":"Iowa City","state":"Iowa","zip":"52242","country":"United States","contacts":[{"name":"Study Coordinator","role":"CONTACT"},{"name":"Michael Hummel, MD","role":"PRINCIPAL_INVESTIGATOR"}],"geoPoint":{"lat":41.66113,"lon":-91.53017}},{"facility":"University of Louisville","status":"RECRUITING","city":"Louisville","state":"Kentucky","zip":"40202","country":"United States","contacts":[{"name":"Study Coordinator","role":"CONTACT"},{"name":"Robert Martin, MD","role":"PRINCIPAL_INVESTIGATOR"}],"geoPoint":{"lat":38.25424,"lon":-85.75941}},{"facility":"Ochsner Clinic Foundation","status":"RECRUITING","city":"New Orleans","state":"Louisiana","zip":"70121","country":"United States","contacts":[{"name":"Study Coordinator, MD","role":"CONTACT"},{"name":"Juan Gimenez, MD","role":"PRINCIPAL_INVESTIGATOR"}],"geoPoint":{"lat":29.95465,"lon":-90.07507}},{"facility":"Beth Israel Deaconess","status":"RECRUITING","city":"Boston","state":"Massachusetts","zip":"02215","country":"United States","contacts":[{"name":"Study Coordinator","role":"CONTACT"},{"name":"Ammar Sarwar, MD","role":"PRINCIPAL_INVESTIGATOR"}],"geoPoint":{"lat":42.35843,"lon":-71.05977}},{"facility":"University of Missouri - Ellis Fischel Cancer Center","status":"RECRUITING","city":"Columbia","state":"Missouri","zip":"65212","country":"United States","contacts":[{"name":"Study Coordinator","role":"CONTACT"},{"name":"Ryan Davis, MD","role":"PRINCIPAL_INVESTIGATOR"}],"geoPoint":{"lat":38.95171,"lon":-92.33407}},{"facility":"SSM Health Saint Louis University","status":"RECRUITING","city":"St Louis","state":"Missouri","zip":"63104","country":"United States","contacts":[{"name":"Study Coordinator","role":"CONTACT"},{"name":"Kirubahara Vaheesan, MD","role":"PRINCIPAL_INVESTIGATOR"}],"geoPoint":{"lat":38.62727,"lon":-90.19789}},{"facility":"Weill Cornell Medicine-New York Presbyterian Hospital","status":"RECRUITING","city":"New York","state":"New York","zip":"10065","country":"United States","contacts":[{"name":"Study Coordinator","role":"CONTACT"},{"name":"Adam Talenfeld, MD","role":"PRINCIPAL_INVESTIGATOR"}],"geoPoint":{"lat":40.71427,"lon":-74.00597}},{"facility":"Charlotte Radiology","status":"RECRUITING","city":"Charlotte","state":"North Carolina","zip":"28202","country":"United States","contacts":[{"name":"Study Coordinator","role":"CONTACT"},{"name":"Eric Wang, MD","role":"PRINCIPAL_INVESTIGATOR"}],"geoPoint":{"lat":35.22709,"lon":-80.84313}},{"facility":"Hospital of the University of Pennsylvania","status":"RECRUITING","city":"Philadelphia","state":"Pennsylvania","zip":"19104","country":"United States","contacts":[{"name":"Study Coordinator","role":"CONTACT"},{"name":"Gregory Nadolski, MD","role":"PRINCIPAL_INVESTIGATOR"}],"geoPoint":{"lat":39.95238,"lon":-75.16362}},{"facility":"HCA Healthcare Research Institute (Sarah Cannon)","status":"RECRUITING","city":"Nashville","state":"Tennessee","zip":"37203","country":"United States","contacts":[{"name":"Study Coordinator","role":"CONTACT"},{"name":"Andrew Kennedy, MD","role":"PRINCIPAL_INVESTIGATOR"}],"geoPoint":{"lat":36.16589,"lon":-86.78444}},{"facility":"University of Utah","status":"RECRUITING","city":"Salt Lake City","state":"Utah","zip":"84112","country":"United States","contacts":[{"name":"Study Coordinator","role":"CONTACT"},{"name":"Ziga Cizman, MD","role":"PRINCIPAL_INVESTIGATOR"}],"geoPoint":{"lat":40.76078,"lon":-111.89105}},{"facility":"Inland Imaging","status":"RECRUITING","city":"Spokane","state":"Washington","zip":"99203","country":"United States","contacts":[{"name":"Study Coordinator","role":"CONTACT"},{"name":"Jayson Brower, MD","role":"PRINCIPAL_INVESTIGATOR"}],"geoPoint":{"lat":47.65966,"lon":-117.42908}},{"facility":"Froedtert Hospital/Medical College of Wisconsin","status":"RECRUITING","city":"Milwaukee","state":"Wisconsin","zip":"53226","country":"United States","contacts":[{"name":"Study Coordinator","role":"CONTACT"},{"name":"William Rilling, MD","role":"PRINCIPAL_INVESTIGATOR"}],"geoPoint":{"lat":43.0389,"lon":-87.90647}},{"facility":"Vancouver Coastal Health Research Institution (VCHRI)","status":"RECRUITING","city":"Vancouver","state":"British Columbia","zip":"V5Z 1M9","country":"Canada","contacts":[{"name":"Study Coordinator","role":"CONTACT"},{"name":"Ravjot Dhatt, MD","role":"PRINCIPAL_INVESTIGATOR"}],"geoPoint":{"lat":49.24966,"lon":-123.11934}}]},"ipdSharingStatementModule":{"ipdSharing":"NO"}},"derivedSection":{"miscInfoModule":{"versionHolder":"2025-11-04"},"conditionBrowseModule":{"meshes":[{"id":"D006528","term":"Carcinoma, Hepatocellular"},{"id":"D008113","term":"Liver Neoplasms"},{"id":"D008107","term":"Liver Diseases"}],"ancestors":[{"id":"D000230","term":"Adenocarcinoma"},{"id":"D002277","term":"Carcinoma"},{"id":"D009375","term":"Neoplasms, Glandular and Epithelial"},{"id":"D009370","term":"Neoplasms by Histologic Type"},{"id":"D009369","term":"Neoplasms"},{"id":"D004067","term":"Digestive System Neoplasms"},{"id":"D009371","term":"Neoplasms by Site"},{"id":"D004066","term":"Digestive System Diseases"}]}},"hasResults":false}