{
  "nct_id": "NCT04402788",
  "official_title": "RAndomized Phase II/III Trial of Consolidation Radiation + Immunotherapy for ES-SCLC: RAPTOR Trial",
  "brief_title": "Testing the Addition of Radiation Therapy to the Usual Immune Therapy Treatment (Atezolizumab) for Extensive Stage Small Cell Lung Cancer, The RAPTOR Trial",
  "cancer_type_display": "A study for patients with extensive stage small cell lung cancer who have responded to initial chemotherapy and immunotherapy.",
  "cancer_tags": ["Extensive Stage Lung Small Cell Carcinoma"],
  "link_to_trial": "https://clinicaltrials.gov/study/NCT04402788",
  "phase": "Phase 2/Phase 3",
  "recruitment_status": "RECRUITING",
  "last_update_date": "2025-10-31",
  "enrollment": 138,
  "min_age": 18,
  "max_age": null,
  "sex": "ALL",
  "is_metastatic_allowed": true,
  "performance_status_scale": "ECOG",
  "performance_status_values": [0, 1, 2],
  "min_prior_lines": null,
  "max_prior_lines": null,
  "prior_treatments_required": [
    "4-6 cycles of etoposide/platinum (E/P) doublet plus atezolizumab"
  ],
  "prior_treatments_excluded": [
    "Prior radiotherapy in the thorax that would result in overlapping RT fields",
    "Prior immunotherapy that resulted in pneumonitis"
  ],
  "principal_investigator": "Quynh-Nhu Nguyen",
  "site_name": null,
  "contact_email": null,
  "contact_phone": null,
  "locations": [
    {
      "facility": "University of Alabama at Birmingham Cancer Center",
      "status": "ACTIVE_NOT_RECRUITING",
      "city": "Birmingham",
      "state": "Alabama",
      "zip": "35233",
      "country": "United States",
      "geoPoint": { "lat": 33.52066, "lon": -86.80249 }
    },
    {
      "facility": "Katmai Oncology Group",
      "status": "RECRUITING",
      "city": "Anchorage",
      "state": "Alaska",
      "zip": "99508",
      "country": "United States",
      "contacts": [
        {
          "name": "Site Public Contact",
          "role": "CONTACT",
          "phone": "907-212-6871",
          "email": "AKPAMC.OncologyResearchSupport@providence.org"
        },
        { "name": "Dan S. Zuckerman", "role": "PRINCIPAL_INVESTIGATOR" }
      ],
      "geoPoint": { "lat": 61.21806, "lon": -149.90028 }
    },
    {
      "facility": "Cancer Center at Saint Joseph's",
      "status": "RECRUITING",
      "city": "Phoenix",
      "state": "Arizona",
      "zip": "85004",
      "country": "United States",
      "contacts": [
        {
          "name": "Site Public Contact",
          "role": "CONTACT",
          "phone": "720-874-1881",
          "email": "ResearchInstituteInquiries@CommonSpirit.org"
        },
        { "name": "Shahzad Siddique", "role": "PRINCIPAL_INVESTIGATOR" }
      ],
      "geoPoint": { "lat": 33.44838, "lon": -112.07404 }
    },
    {
      "facility": "Mayo Clinic Hospital in Arizona",
      "status": "SUSPENDED",
      "city": "Phoenix",
      "state": "Arizona",
      "zip": "85054",
      "country": "United States",
      "geoPoint": { "lat": 33.44838, "lon": -112.07404 }
    },
    {
      "facility": "Mayo Clinic in Arizona",
      "status": "SUSPENDED",
      "city": "Scottsdale",
      "state": "Arizona",
      "zip": "85259",
      "country": "United States",
      "geoPoint": { "lat": 33.50921, "lon": -111.89903 }
    },
    {
      "facility": "Banner University Medical Center - Tucson",
      "status": "ACTIVE_NOT_RECRUITING",
      "city": "Tucson",
      "state": "Arizona",
      "zip": "85719",
      "country": "United States",
      "geoPoint": { "lat": 32.22174, "lon": -110.92648 }
    },
    {
      "facility": "University of Arizona Cancer Center-North Campus",
      "status": "ACTIVE_NOT_RECRUITING",
      "city": "Tucson",
      "state": "Arizona",
      "zip": "85719",
      "country": "United States",
      "geoPoint": { "lat": 32.22174, "lon": -110.92648 }
    },
    {
      "facility": "NEA Baptist Memorial Hospital and Fowler Family Cancer Center - Jonesboro",
      "status": "RECRUITING",
      "city": "Jonesboro",
      "state": "Arkansas",
      "zip": "72401",
      "country": "United States",
      "contacts": [
        {
          "name": "Site Public Contact",
          "role": "CONTACT",
          "phone": "870-936-7066",
          "email": "Emily.Carvell@bmhcc.org"
        },
        { "name": "Philip E. Lammers", "role": "PRINCIPAL_INVESTIGATOR" }
      ],
      "geoPoint": { "lat": 35.8423, "lon": -90.70428 }
    },
    {
      "facility": "UCI Health - Chao Family Comprehensive Cancer Center and Ambulatory Care",
      "status": "RECRUITING",
      "city": "Irvine",
      "state": "California",
      "zip": "92612",
      "country": "United States",
      "contacts": [
        {
          "name": "Site Public Contact",
          "role": "CONTACT",
          "phone": "877-827-8839",
          "email": "ucstudy@uci.edu"
        },
        { "name": "Jeremy P. Harris", "role": "PRINCIPAL_INVESTIGATOR" }
      ],
      "geoPoint": { "lat": 33.66946, "lon": -117.82311 }
    },
    {
      "facility": "UC Irvine Health/Chao Family Comprehensive Cancer Center",
      "status": "ACTIVE_NOT_RECRUITING",
      "city": "Orange",
      "state": "California",
      "zip": "92868",
      "country": "United States",
      "geoPoint": { "lat": 33.78779, "lon": -117.85311 }
    },
    {
      "facility": "Palo Alto Medical Foundation Health Care",
      "status": "RECRUITING",
      "city": "Palo Alto",
      "state": "California",
      "zip": "94301",
      "country": "United States",
      "contacts": [
        {
          "name": "Site Public Contact",
          "role": "CONTACT",
          "email": "clinicalresearch@sutterhealth.org"
        },
        { "name": "Christopher U. Jones", "role": "PRINCIPAL_INVESTIGATOR" }
      ],
      "geoPoint": { "lat": 37.44188, "lon": -122.14302 }
    },
    {
      "facility": "Sutter Cancer Centers Radiation Oncology Services-Roseville",
      "status": "RECRUITING",
      "city": "Roseville",
      "state": "California",
      "zip": "95661",
      "country": "United States",
      "contacts": [
        {
          "name": "Site Public Contact",
          "role": "CONTACT",
          "email": "clinicalresearch@sutterhealth.org"
        },
        { "name": "Christopher U. Jones", "role": "PRINCIPAL_INVESTIGATOR" }
      ],
      "geoPoint": { "lat": 38.75212, "lon": -121.28801 }
    },
    {
      "facility": "Sutter Medical Center Sacramento",
      "status": "RECRUITING",
      "city": "Sacramento",
      "state": "California",
      "zip": "95816",
      "country": "United States",
      "contacts": [
        {
          "name": "Site Public Contact",
          "role": "CONTACT",
          "email": "clinicalresearch@sutterhealth.org"
        },
        { "name": "Christopher U. Jones", "role": "PRINCIPAL_INVESTIGATOR" }
      ],
      "geoPoint": { "lat": 38.58157, "lon": -121.4944 }
    },
    {
      "facility": "California Pacific Medical Center-Pacific Campus",
      "status": "RECRUITING",
      "city": "San Francisco",
      "state": "California",
      "zip": "94115",
      "country": "United States",
      "contacts": [
        {
          "name": "Site Public Contact",
          "role": "CONTACT",
          "email": "clinicalresearch@sutterhealth.org"
        },
        { "name": "Christopher U. Jones", "role": "PRINCIPAL_INVESTIGATOR" }
      ],
      "geoPoint": { "lat": 37.77493, "lon": -122.41942 }
    },
    {
      "facility": "Palo Alto Medical Foundation-Sunnyvale",
      "status": "RECRUITING",
      "city": "Sunnyvale",
      "state": "California",
      "zip": "94086",
      "country": "United States",
      "contacts": [
        {
          "name": "Site Public Contact",
          "role": "CONTACT",
          "email": "clinicalresearch@sutterhealth.org"
        },
        { "name": "Christopher U. Jones", "role": "PRINCIPAL_INVESTIGATOR" }
      ],
      "geoPoint": { "lat": 37.36883, "lon": -122.03635 }
    },
    {
      "facility": "Penrose-Saint Francis Healthcare",
      "status": "SUSPENDED",
      "city": "Colorado Springs",
      "state": "Colorado",
      "zip": "80907",
      "country": "United States",
      "geoPoint": { "lat": 38.83388, "lon": -104.82136 }
    },
    {
      "facility": "Rocky Mountain Cancer Centers-Penrose",
      "status": "SUSPENDED",
      "city": "Colorado Springs",
      "state": "Colorado",
      "zip": "80907",
      "country": "United States",
      "geoPoint": { "lat": 38.83388, "lon": -104.82136 }
    },
    {
      "facility": "UCHealth Memorial Hospital Central",
      "status": "ACTIVE_NOT_RECRUITING",
      "city": "Colorado Springs",
      "state": "Colorado",
      "zip": "80909",
      "country": "United States",
      "geoPoint": { "lat": 38.83388, "lon": -104.82136 }
    },
    {
      "facility": "Memorial Hospital North",
      "status": "ACTIVE_NOT_RECRUITING",
      "city": "Colorado Springs",
      "state": "Colorado",
      "zip": "80920",
      "country": "United States",
      "geoPoint": { "lat": 38.83388, "lon": -104.82136 }
    },
    {
      "facility": "Poudre Valley Hospital",
      "status": "ACTIVE_NOT_RECRUITING",
      "city": "Fort Collins",
      "state": "Colorado",
      "zip": "80524",
      "country": "United States",
      "geoPoint": { "lat": 40.58526, "lon": -105.08442 }
    },
    {
      "facility": "Cancer Care and Hematology-Fort Collins",
      "status": "ACTIVE_NOT_RECRUITING",
      "city": "Fort Collins",
      "state": "Colorado",
      "zip": "80528",
      "country": "United States",
      "geoPoint": { "lat": 40.58526, "lon": -105.08442 }
    },
    {
      "facility": "UCHealth Greeley Hospital",
      "status": "ACTIVE_NOT_RECRUITING",
      "city": "Greeley",
      "state": "Colorado",
      "zip": "80631",
      "country": "United States",
      "geoPoint": { "lat": 40.42331, "lon": -104.70913 }
    },
    {
      "facility": "Medical Center of the Rockies",
      "status": "ACTIVE_NOT_RECRUITING",
      "city": "Loveland",
      "state": "Colorado",
      "zip": "80538",
      "country": "United States",
      "geoPoint": { "lat": 40.39776, "lon": -105.07498 }
    },
    {
      "facility": "Smilow Cancer Hospital Care Center-Fairfield",
      "status": "RECRUITING",
      "city": "Fairfield",
      "state": "Connecticut",
      "zip": "06824",
      "country": "United States",
      "contacts": [
        {
          "name": "Site Public Contact",
          "role": "CONTACT",
          "phone": "203-785-5702",
          "email": "canceranswers@yale.edu"
        },
        { "name": "Henry S. Park", "role": "PRINCIPAL_INVESTIGATOR" }
      ],
      "geoPoint": { "lat": 41.14121, "lon": -73.26373 }
    },
    {
      "facility": "Smilow Cancer Hospital Care Center at Greenwich",
      "status": "RECRUITING",
      "city": "Greenwich",
      "state": "Connecticut",
      "zip": "06830",
      "country": "United States",
      "contacts": [
        {
          "name": "Site Public Contact",
          "role": "CONTACT",
          "phone": "203-785-5702",
          "email": "canceranswers@yale.edu"
        },
        { "name": "Henry S. Park", "role": "PRINCIPAL_INVESTIGATOR" }
      ],
      "geoPoint": { "lat": 41.02649, "lon": -73.62846 }
    },
    {
      "facility": "Smilow Cancer Hospital Care Center - Guilford",
      "status": "RECRUITING",
      "city": "Guilford",
      "state": "Connecticut",
      "zip": "06437",
      "country": "United States",
      "contacts": [
        {
          "name": "Site Public Contact",
          "role": "CONTACT",
          "phone": "203-785-5702",
          "email": "canceranswers@yale.edu"
        },
        { "name": "Henry S. Park", "role": "PRINCIPAL_INVESTIGATOR" }
      ],
      "geoPoint": { "lat": 41.28899, "lon": -72.68176 }
    },
    {
      "facility": "Smilow Cancer Hospital-Hamden Care Center",
      "status": "RECRUITING",
      "city": "Hamden",
      "state": "Connecticut",
      "zip": "06518",
      "country": "United States",
      "contacts": [
        {
          "name": "Site Public Contact",
          "role": "CONTACT",
          "phone": "203-785-5702",
          "email": "canceranswers@yale.edu"
        },
        { "name": "Henry S. Park", "role": "PRINCIPAL_INVESTIGATOR" }
      ],
      "geoPoint": { "lat": 41.39593, "lon": -72.89677 }
    },
    {
      "facility": "Yale University",
      "status": "RECRUITING",
      "city": "New Haven",
      "state": "Connecticut",
      "zip": "06520",
      "country": "United States",
      "contacts": [
        {
          "name": "Site Public Contact",
          "role": "CONTACT",
          "phone": "203-785-5702",
          "email": "canceranswers@yale.edu"
        },
        { "name": "Henry S. Park", "role": "PRINCIPAL_INVESTIGATOR" }
      ],
      "geoPoint": { "lat": 41.30815, "lon": -72.92816 }
    },
    {
      "facility": "Yale-New Haven Hospital North Haven Medical Center",
      "status": "RECRUITING",
      "city": "North Haven",
      "state": "Connecticut",
      "zip": "06473",
      "country": "United States",
      "contacts": [
        {
          "name": "Site Public Contact",
          "role": "CONTACT",
          "phone": "203-785-5702",
          "email": "canceranswers@yale.edu"
        },
        { "name": "Henry S. Park", "role": "PRINCIPAL_INVESTIGATOR" }
      ],
      "geoPoint": { "lat": 41.39093, "lon": -72.85954 }
    },
    {
      "facility": "Smilow Cancer Hospital Care Center at Long Ridge",
      "status": "RECRUITING",
      "city": "Stamford",
      "state": "Connecticut",
      "zip": "06902",
      "country": "United States",
      "contacts": [
        {
          "name": "Site Public Contact",
          "role": "CONTACT",
          "phone": "203-785-5702",
          "email": "canceranswers@yale.edu"
        },
        { "name": "Henry S. Park", "role": "PRINCIPAL_INVESTIGATOR" }
      ],
      "geoPoint": { "lat": 41.05343, "lon": -73.53873 }
    },
    {
      "facility": "Smilow Cancer Hospital-Torrington Care Center",
      "status": "RECRUITING",
      "city": "Torrington",
      "state": "Connecticut",
      "zip": "06790",
      "country": "United States",
      "contacts": [
        {
          "name": "Site Public Contact",
          "role": "CONTACT",
          "phone": "203-785-5702",
          "email": "canceranswers@yale.edu"
        },
        { "name": "Henry S. Park", "role": "PRINCIPAL_INVESTIGATOR" }
      ],
      "geoPoint": { "lat": 41.80065, "lon": -73.12122 }
    },
    {
      "facility": "Smilow Cancer Hospital Care Center-Trumbull",
      "status": "RECRUITING",
      "city": "Trumbull",
      "state": "Connecticut",
      "zip": "06611",
      "country": "United States",
      "contacts": [
        {
          "name": "Site Public Contact",
          "role": "CONTACT",
          "phone": "203-785-5702",
          "email": "canceranswers@yale.edu"
        },
        { "name": "Henry S. Park", "role": "PRINCIPAL_INVESTIGATOR" }
      ],
      "geoPoint": { "lat": 41.24287, "lon": -73.20067 }
    },
    {
      "facility": "Smilow Cancer Hospital-Waterbury Care Center",
      "status": "RECRUITING",
      "city": "Waterbury",
      "state": "Connecticut",
      "zip": "06708",
      "country": "United States",
      "contacts": [
        {
          "name": "Site Public Contact",
          "role": "CONTACT",
          "phone": "203-785-5702",
          "email": "canceranswers@yale.edu"
        },
        { "name": "Henry S. Park", "role": "PRINCIPAL_INVESTIGATOR" }
      ],
      "geoPoint": { "lat": 41.55815, "lon": -73.0515 }
    },
    {
      "facility": "Smilow Cancer Hospital Care Center - Waterford",
      "status": "RECRUITING",
      "city": "Waterford",
      "state": "Connecticut",
      "zip": "06385",
      "country": "United States",
      "contacts": [
        {
          "name": "Site Public Contact",
          "role": "CONTACT",
          "phone": "203-785-5702",
          "email": "canceranswers@yale.edu"
        },
        { "name": "Henry S. Park", "role": "PRINCIPAL_INVESTIGATOR" }
      ],
      "geoPoint": { "lat": 41.3417, "lon": -72.13597 }
    },
    {
      "facility": "Beebe South Coastal Health Campus",
      "status": "RECRUITING",
      "city": "Millville",
      "state": "Delaware",
      "zip": "19967",
      "country": "United States",
      "contacts": [
        {
          "name": "Site Public Contact",
          "role": "CONTACT",
          "phone": "302-291-6730",
          "email": "research@beebehealthcare.org"
        },
        { "name": "Gregory A. Masters", "role": "PRINCIPAL_INVESTIGATOR" }
      ],
      "geoPoint": { "lat": 38.54956, "lon": -75.12324 }
    },
    {
      "facility": "Helen F Graham Cancer Center",
      "status": "RECRUITING",
      "city": "Newark",
      "state": "Delaware",
      "zip": "19713",
      "country": "United States",
      "contacts": [
        {
          "name": "Site Public Contact",
          "role": "CONTACT",
          "phone": "302-623-4450",
          "email": "lbarone@christianacare.org"
        },
        { "name": "Gregory A. Masters", "role": "PRINCIPAL_INVESTIGATOR" }
      ],
      "geoPoint": { "lat": 39.68372, "lon": -75.74966 }
    },
    {
      "facility": "Medical Oncology Hematology Consultants PA",
      "status": "RECRUITING",
      "city": "Newark",
      "state": "Delaware",
      "zip": "19713",
      "country": "United States",
      "contacts": [
        {
          "name": "Site Public Contact",
          "role": "CONTACT",
          "phone": "302-623-4450",
          "email": "lbarone@christianacare.org"
        },
        { "name": "Gregory A. Masters", "role": "PRINCIPAL_INVESTIGATOR" }
      ],
      "geoPoint": { "lat": 39.68372, "lon": -75.74966 }
    },
    {
      "facility": "Beebe Health Campus",
      "status": "RECRUITING",
      "city": "Rehoboth Beach",
      "state": "Delaware",
      "zip": "19971",
      "country": "United States",
      "contacts": [
        {
          "name": "Site Public Contact",
          "role": "CONTACT",
          "phone": "302-291-6730",
          "email": "research@beebehealthcare.org"
        },
        { "name": "Gregory A. Masters", "role": "PRINCIPAL_INVESTIGATOR" }
      ],
      "geoPoint": { "lat": 38.72095, "lon": -75.07601 }
    },
    {
      "facility": "Mount Sinai Comprehensive Cancer Center at Aventura",
      "status": "ACTIVE_NOT_RECRUITING",
      "city": "Aventura",
      "state": "Florida",
      "zip": "33180",
      "country": "United States",
      "geoPoint": { "lat": 25.95648, "lon": -80.13921 }
    },
    {
      "facility": "UM Sylvester Comprehensive Cancer Center at Coral Gables",
      "status": "RECRUITING",
      "city": "Coral Gables",
      "state": "Florida",
      "zip": "33146",
      "country": "United States",
      "contacts": [
        {
          "name": "Site Public Contact",
          "role": "CONTACT",
          "phone": "305-243-2647"
        },
        { "name": "Alan Libardi Dal Pra", "role": "PRINCIPAL_INVESTIGATOR" }
      ],
      "geoPoint": { "lat": 25.72149, "lon": -80.26838 }
    },
    {
      "facility": "UM Sylvester Comprehensive Cancer Center at Deerfield Beach",
      "status": "RECRUITING",
      "city": "Deerfield Beach",
      "state": "Florida",
      "zip": "33442",
      "country": "United States",
      "contacts": [
        {
          "name": "Site Public Contact",
          "role": "CONTACT",
          "phone": "305-243-2647"
        },
        { "name": "Alan Libardi Dal Pra", "role": "PRINCIPAL_INVESTIGATOR" }
      ],
      "geoPoint": { "lat": 26.31841, "lon": -80.09977 }
    },
    {
      "facility": "Mayo Clinic in Florida",
      "status": "WITHDRAWN",
      "city": "Jacksonville",
      "state": "Florida",
      "zip": "32224-9980",
      "country": "United States",
      "geoPoint": { "lat": 30.33218, "lon": -81.65565 }
    },
    {
      "facility": "University of Miami Miller School of Medicine-Sylvester Cancer Center",
      "status": "RECRUITING",
      "city": "Miami",
      "state": "Florida",
      "zip": "33136",
      "country": "United States",
      "contacts": [
        {
          "name": "Site Public Contact",
          "role": "CONTACT",
          "phone": "305-243-2647"
        },
        { "name": "Alan Libardi Dal Pra", "role": "PRINCIPAL_INVESTIGATOR" }
      ],
      "geoPoint": { "lat": 25.77427, "lon": -80.19366 }
    },
    {
      "facility": "Mount Sinai Medical Center",
      "status": "ACTIVE_NOT_RECRUITING",
      "city": "Miami Beach",
      "state": "Florida",
      "zip": "33140",
      "country": "United States",
      "geoPoint": { "lat": 25.79065, "lon": -80.13005 }
    },
    {
      "facility": "Orlando Health Cancer Institute",
      "status": "RECRUITING",
      "city": "Orlando",
      "state": "Florida",
      "zip": "32806",
      "country": "United States",
      "contacts": [
        {
          "name": "Site Public Contact",
          "role": "CONTACT",
          "phone": "321-841-7246",
          "email": "CancerClinicalTrials@orlandohealth.com"
        },
        { "name": "Jennifer E. Tseng", "role": "PRINCIPAL_INVESTIGATOR" }
      ],
      "geoPoint": { "lat": 28.53834, "lon": -81.37924 }
    },
    {
      "facility": "Cleveland Clinic-Weston",
      "status": "ACTIVE_NOT_RECRUITING",
      "city": "Weston",
      "state": "Florida",
      "zip": "33331",
      "country": "United States",
      "geoPoint": { "lat": 26.10037, "lon": -80.39977 }
    },
    {
      "facility": "Grady Health System",
      "status": "RECRUITING",
      "city": "Atlanta",
      "state": "Georgia",
      "zip": "30303",
      "country": "United States",
      "contacts": [
        {
          "name": "Site Public Contact",
          "role": "CONTACT",
          "phone": "404-778-1868"
        },
        { "name": "Sibo Tian", "role": "PRINCIPAL_INVESTIGATOR" }
      ],
      "geoPoint": { "lat": 33.749, "lon": -84.38798 }
    },
    {
      "facility": "Emory University Hospital Midtown",
      "status": "RECRUITING",
      "city": "Atlanta",
      "state": "Georgia",
      "zip": "30308",
      "country": "United States",
      "contacts": [
        {
          "name": "Site Public Contact",
          "role": "CONTACT",
          "phone": "888-946-7447"
        },
        { "name": "Sibo Tian", "role": "PRINCIPAL_INVESTIGATOR" }
      ],
      "geoPoint": { "lat": 33.749, "lon": -84.38798 }
    },
    {
      "facility": "Emory University Hospital/Winship Cancer Institute",
      "status": "RECRUITING",
      "city": "Atlanta",
      "state": "Georgia",
      "zip": "30322",
      "country": "United States",
      "contacts": [
        {
          "name": "Site Public Contact",
          "role": "CONTACT",
          "phone": "404-778-1868"
        },
        { "name": "Sibo Tian", "role": "PRINCIPAL_INVESTIGATOR" }
      ],
      "geoPoint": { "lat": 33.749, "lon": -84.38798 }
    },
    {
      "facility": "Emory Saint Joseph's Hospital",
      "status": "RECRUITING",
      "city": "Atlanta",
      "state": "Georgia",
      "zip": "30342",
      "country": "United States",
      "contacts": [
        {
          "name": "Site Public Contact",
          "role": "CONTACT",
          "phone": "404-851-7115"
        },
        { "name": "Sibo Tian", "role": "PRINCIPAL_INVESTIGATOR" }
      ],
      "geoPoint": { "lat": 33.749, "lon": -84.38798 }
    },
    {
      "facility": "CTCA at Southeastern Regional Medical Center",
      "status": "RECRUITING",
      "city": "Newnan",
      "state": "Georgia",
      "zip": "30265",
      "country": "United States",
      "contacts": [
        {
          "name": "Site Public Contact",
          "role": "CONTACT",
          "phone": "770-400-6629"
        },
        { "name": "Kristin A. Higgins", "role": "PRINCIPAL_INVESTIGATOR" }
      ],
      "geoPoint": { "lat": 33.38067, "lon": -84.79966 }
    },
    {
      "facility": "Memorial Health University Medical Center",
      "status": "SUSPENDED",
      "city": "Savannah",
      "state": "Georgia",
      "zip": "31404",
      "country": "United States",
      "geoPoint": { "lat": 32.08354, "lon": -81.09983 }
    },
    {
      "facility": "Lewis Cancer and Research Pavilion at Saint Joseph's/Candler",
      "status": "ACTIVE_NOT_RECRUITING",
      "city": "Savannah",
      "state": "Georgia",
      "zip": "31405",
      "country": "United States",
      "geoPoint": { "lat": 32.08354, "lon": -81.09983 }
    },
    {
      "facility": "Hawaii Cancer Care Inc - Waterfront Plaza",
      "status": "ACTIVE_NOT_RECRUITING",
      "city": "Honolulu",
      "state": "Hawaii",
      "zip": "96813",
      "country": "United States",
      "geoPoint": { "lat": 21.30694, "lon": -157.85833 }
    },
    {
      "facility": "Queen's Cancer Cenrer - POB I",
      "status": "ACTIVE_NOT_RECRUITING",
      "city": "Honolulu",
      "state": "Hawaii",
      "zip": "96813",
      "country": "United States",
      "geoPoint": { "lat": 21.30694, "lon": -157.85833 }
    },
    {
      "facility": "Queen's Medical Center",
      "status": "ACTIVE_NOT_RECRUITING",
      "city": "Honolulu",
      "state": "Hawaii",
      "zip": "96813",
      "country": "United States",
      "geoPoint": { "lat": 21.30694, "lon": -157.85833 }
    },
    {
      "facility": "Straub Clinic and Hospital",
      "status": "ACTIVE_NOT_RECRUITING",
      "city": "Honolulu",
      "state": "Hawaii",
      "zip": "96813",
      "country": "United States",
      "geoPoint": { "lat": 21.30694, "lon": -157.85833 }
    },
    {
      "facility": "University of Hawaii Cancer Center",
      "status": "ACTIVE_NOT_RECRUITING",
      "city": "Honolulu",
      "state": "Hawaii",
      "zip": "96813",
      "country": "United States",
      "geoPoint": { "lat": 21.30694, "lon": -157.85833 }
    },
    {
      "facility": "Hawaii Cancer Care Inc-Liliha",
      "status": "ACTIVE_NOT_RECRUITING",
      "city": "Honolulu",
      "state": "Hawaii",
      "zip": "96817",
      "country": "United States",
      "geoPoint": { "lat": 21.30694, "lon": -157.85833 }
    },
    {
      "facility": "Queen's Cancer Center - Kuakini",
      "status": "ACTIVE_NOT_RECRUITING",
      "city": "Honolulu",
      "state": "Hawaii",
      "zip": "96817",
      "country": "United States",
      "geoPoint": { "lat": 21.30694, "lon": -157.85833 }
    },
    {
      "facility": "The Cancer Center of Hawaii-Liliha",
      "status": "ACTIVE_NOT_RECRUITING",
      "city": "Honolulu",
      "state": "Hawaii",
      "zip": "96817",
      "country": "United States",
      "geoPoint": { "lat": 21.30694, "lon": -157.85833 }
    },
    {
      "facility": "Kapiolani Medical Center for Women and Children",
      "status": "ACTIVE_NOT_RECRUITING",
      "city": "Honolulu",
      "state": "Hawaii",
      "zip": "96826",
      "country": "United States",
      "geoPoint": { "lat": 21.30694, "lon": -157.85833 }
    },
    {
      "facility": "Wilcox Memorial Hospital and Kauai Medical Clinic",
      "status": "ACTIVE_NOT_RECRUITING",
      "city": "Lihue",
      "state": "Hawaii",
      "zip": "96766",
      "country": "United States",
      "geoPoint": { "lat": 21.98121, "lon": -159.3721 }
    },
    {
      "facility": "Hawaii Cancer Care - Westridge",
      "status": "ACTIVE_NOT_RECRUITING",
      "city": "‘Aiea",
      "state": "Hawaii",
      "zip": "96701",
      "country": "United States",
      "geoPoint": { "lat": 21.38222, "lon": -157.93361 }
    },
    {
      "facility": "Pali Momi Medical Center",
      "status": "ACTIVE_NOT_RECRUITING",
      "city": "‘Aiea",
      "state": "Hawaii",
      "zip": "96701",
      "country": "United States",
      "geoPoint": { "lat": 21.38222, "lon": -157.93361 }
    },
    {
      "facility": "Saint Alphonsus Cancer Care Center-Boise",
      "status": "RECRUITING",
      "city": "Boise",
      "state": "Idaho",
      "zip": "83706",
      "country": "United States",
      "contacts": [
        {
          "name": "Site Public Contact",
          "role": "CONTACT",
          "phone": "734-712-3671",
          "email": "stephanie.couch@stjoeshealth.org"
        },
        { "name": "Tareq Al baghdadi", "role": "PRINCIPAL_INVESTIGATOR" }
      ],
      "geoPoint": { "lat": 43.6135, "lon": -116.20345 }
    },
    {
      "facility": "Saint Luke's Cancer Institute - Boise",
      "status": "SUSPENDED",
      "city": "Boise",
      "state": "Idaho",
      "zip": "83712",
      "country": "United States",
      "geoPoint": { "lat": 43.6135, "lon": -116.20345 }
    },
    {
      "facility": "Saint Alphonsus Cancer Care Center-Caldwell",
      "status": "RECRUITING",
      "city": "Caldwell",
      "state": "Idaho",
      "zip": "83605",
      "country": "United States",
      "contacts": [
        {
          "name": "Site Public Contact",
          "role": "CONTACT",
          "phone": "734-712-3671",
          "email": "stephanie.couch@stjoeshealth.org"
        },
        { "name": "Tareq Al baghdadi", "role": "PRINCIPAL_INVESTIGATOR" }
      ],
      "geoPoint": { "lat": 43.66294, "lon": -116.68736 }
    },
    {
      "facility": "Saint Luke's Cancer Institute - Fruitland",
      "status": "SUSPENDED",
      "city": "Fruitland",
      "state": "Idaho",
      "zip": "83619",
      "country": "United States",
      "geoPoint": { "lat": 44.00766, "lon": -116.91655 }
    },
    {
      "facility": "Saint Luke's Cancer Institute - Meridian",
      "status": "SUSPENDED",
      "city": "Meridian",
      "state": "Idaho",
      "zip": "83642",
      "country": "United States",
      "geoPoint": { "lat": 43.61211, "lon": -116.39151 }
    },
    {
      "facility": "Saint Alphonsus Cancer Care Center-Nampa",
      "status": "RECRUITING",
      "city": "Nampa",
      "state": "Idaho",
      "zip": "83687",
      "country": "United States",
      "contacts": [
        {
          "name": "Site Public Contact",
          "role": "CONTACT",
          "phone": "406-969-6060",
          "email": "mccinfo@mtcancer.org"
        },
        { "name": "Tareq Al baghdadi", "role": "PRINCIPAL_INVESTIGATOR" }
      ],
      "geoPoint": { "lat": 43.54072, "lon": -116.56346 }
    },
    {
      "facility": "Saint Luke's Cancer Institute - Nampa",
      "status": "SUSPENDED",
      "city": "Nampa",
      "state": "Idaho",
      "zip": "83687",
      "country": "United States",
      "geoPoint": { "lat": 43.54072, "lon": -116.56346 }
    },
    {
      "facility": "Saint Luke's Cancer Institute - Twin Falls",
      "status": "SUSPENDED",
      "city": "Twin Falls",
      "state": "Idaho",
      "zip": "83301",
      "country": "United States",
      "geoPoint": { "lat": 42.56297, "lon": -114.46087 }
    },
    {
      "facility": "Illinois CancerCare-Bloomington",
      "status": "ACTIVE_NOT_RECRUITING",
      "city": "Bloomington",
      "state": "Illinois",
      "zip": "61704",
      "country": "United States",
      "geoPoint": { "lat": 40.4842, "lon": -88.99369 }
    },
    {
      "facility": "Illinois CancerCare-Canton",
      "status": "ACTIVE_NOT_RECRUITING",
      "city": "Canton",
      "state": "Illinois",
      "zip": "61520",
      "country": "United States",
      "geoPoint": { "lat": 40.55809, "lon": -90.03512 }
    },
    {
      "facility": "Illinois CancerCare-Carthage",
      "status": "ACTIVE_NOT_RECRUITING",
      "city": "Carthage",
      "state": "Illinois",
      "zip": "62321",
      "country": "United States",
      "geoPoint": { "lat": 40.41643, "lon": -91.13625 }
    },
    {
      "facility": "Centralia Oncology Clinic",
      "status": "SUSPENDED",
      "city": "Centralia",
      "state": "Illinois",
      "zip": "62801",
      "country": "United States",
      "geoPoint": { "lat": 38.52505, "lon": -89.1334 }
    },
    {
      "facility": "University of Illinois",
      "status": "RECRUITING",
      "city": "Chicago",
      "state": "Illinois",
      "zip": "60612",
      "country": "United States",
      "contacts": [
        {
          "name": "Site Public Contact",
          "role": "CONTACT",
          "phone": "312-355-3046"
        },
        { "name": "Matthew Koshy", "role": "PRINCIPAL_INVESTIGATOR" }
      ],
      "geoPoint": { "lat": 41.85003, "lon": -87.65005 }
    },
    {
      "facility": "Carle at The Riverfront",
      "status": "RECRUITING",
      "city": "Danville",
      "state": "Illinois",
      "zip": "61832",
      "country": "United States",
      "contacts": [
        {
          "name": "Site Public Contact",
          "role": "CONTACT",
          "phone": "800-446-5532",
          "email": "Research@Carle.com"
        },
        { "name": "Sinisa Stanic", "role": "PRINCIPAL_INVESTIGATOR" }
      ],
      "geoPoint": { "lat": 40.12448, "lon": -87.63002 }
    },
    {
      "facility": "Cancer Care Specialists of Illinois - Decatur",
      "status": "SUSPENDED",
      "city": "Decatur",
      "state": "Illinois",
      "zip": "62526",
      "country": "United States",
      "geoPoint": { "lat": 39.84031, "lon": -88.9548 }
    },
    {
      "facility": "Decatur Memorial Hospital",
      "status": "RECRUITING",
      "city": "Decatur",
      "state": "Illinois",
      "zip": "62526",
      "country": "United States",
      "contacts": [
        {
          "name": "Site Public Contact",
          "role": "CONTACT",
          "phone": "217-876-4762",
          "email": "morganthaler.jodi@mhsil.com"
        },
        { "name": "Bryan A. Faller", "role": "PRINCIPAL_INVESTIGATOR" }
      ],
      "geoPoint": { "lat": 39.84031, "lon": -88.9548 }
    },
    {
      "facility": "Carle Physician Group-Effingham",
      "status": "RECRUITING",
      "city": "Effingham",
      "state": "Illinois",
      "zip": "62401",
      "country": "United States",
      "contacts": [
        {
          "name": "Site Public Contact",
          "role": "CONTACT",
          "phone": "800-446-5532",
          "email": "Research@carle.com"
        },
        { "name": "Sinisa Stanic", "role": "PRINCIPAL_INVESTIGATOR" }
      ],
      "geoPoint": { "lat": 39.12004, "lon": -88.54338 }
    },
    {
      "facility": "Crossroads Cancer Center",
      "status": "RECRUITING",
      "city": "Effingham",
      "state": "Illinois",
      "zip": "62401",
      "country": "United States",
      "contacts": [
        {
          "name": "Site Public Contact",
          "role": "CONTACT",
          "phone": "217-876-4762",
          "email": "morganthaler.jodi@mhsil.com"
        },
        { "name": "Bryan A. Faller", "role": "PRINCIPAL_INVESTIGATOR" }
      ],
      "geoPoint": { "lat": 39.12004, "lon": -88.54338 }
    },
    {
      "facility": "Elmhurst Memorial Hospital",
      "status": "RECRUITING",
      "city": "Elmhurst",
      "state": "Illinois",
      "zip": "60126",
      "country": "United States",
      "contacts": [
        {
          "name": "Site Public Contact",
          "role": "CONTACT",
          "phone": "630-758-5460",
          "email": "Jrohde@emhc.org"
        },
        { "name": "Maria I. Quejada", "role": "PRINCIPAL_INVESTIGATOR" }
      ],
      "geoPoint": { "lat": 41.89947, "lon": -87.94034 }
    },
    {
      "facility": "Illinois CancerCare-Eureka",
      "status": "ACTIVE_NOT_RECRUITING",
      "city": "Eureka",
      "state": "Illinois",
      "zip": "61530",
      "country": "United States",
      "geoPoint": { "lat": 40.72143, "lon": -89.27286 }
    },
    {
      "facility": "Illinois CancerCare-Galesburg",
      "status": "ACTIVE_NOT_RECRUITING",
      "city": "Galesburg",
      "state": "Illinois",
      "zip": "61401",
      "country": "United States",
      "geoPoint": { "lat": 40.94782, "lon": -90.37124 }
    },
    {
      "facility": "Western Illinois Cancer Treatment Center",
      "status": "ACTIVE_NOT_RECRUITING",
      "city": "Galesburg",
      "state": "Illinois",
      "zip": "61401",
      "country": "United States",
      "geoPoint": { "lat": 40.94782, "lon": -90.37124 }
    },
    {
      "facility": "Illinois CancerCare-Kewanee Clinic",
      "status": "ACTIVE_NOT_RECRUITING",
      "city": "Kewanee",
      "state": "Illinois",
      "zip": "61443",
      "country": "United States",
      "geoPoint": { "lat": 41.24559, "lon": -89.92483 }
    },
    {
      "facility": "Illinois CancerCare-Macomb",
      "status": "ACTIVE_NOT_RECRUITING",
      "city": "Macomb",
      "state": "Illinois",
      "zip": "61455",
      "country": "United States",
      "geoPoint": { "lat": 40.45921, "lon": -90.6718 }
    },
    {
      "facility": "Carle Physician Group-Mattoon/Charleston",
      "status": "RECRUITING",
      "city": "Mattoon",
      "state": "Illinois",
      "zip": "61938",
      "country": "United States",
      "contacts": [
        {
          "name": "Site Public Contact",
          "role": "CONTACT",
          "phone": "800-446-5532",
          "email": "Research@carle.com"
        },
        { "name": "Sinisa Stanic", "role": "PRINCIPAL_INVESTIGATOR" }
      ],
      "geoPoint": { "lat": 39.48309, "lon": -88.37283 }
    },
    {
      "facility": "Edward Hospital/Cancer Center",
      "status": "RECRUITING",
      "city": "Naperville",
      "state": "Illinois",
      "zip": "60540",
      "country": "United States",
      "contacts": [
        {
          "name": "Site Public Contact",
          "role": "CONTACT",
          "phone": "630-646-6075"
        },
        { "name": "Maria I. Quejada", "role": "PRINCIPAL_INVESTIGATOR" }
      ],
      "geoPoint": { "lat": 41.78586, "lon": -88.14729 }
    },
    {
      "facility": "Cancer Care Center of O'Fallon",
      "status": "SUSPENDED",
      "city": "O'Fallon",
      "state": "Illinois",
      "zip": "62269",
      "country": "United States",
      "geoPoint": { "lat": 38.59227, "lon": -89.91121 }
    },
    {
      "facility": "HSHS Saint Elizabeth's Hospital",
      "status": "RECRUITING",
      "city": "O'Fallon",
      "state": "Illinois",
      "zip": "62269",
      "country": "United States",
      "contacts": [
        {
          "name": "Site Public Contact",
          "role": "CONTACT",
          "phone": "217-876-4762",
          "email": "morganthaler.jodi@mhsil.com"
        },
        { "name": "Bryan A. Faller", "role": "PRINCIPAL_INVESTIGATOR" }
      ],
      "geoPoint": { "lat": 38.59227, "lon": -89.91121 }
    },
    {
      "facility": "Illinois CancerCare-Ottawa Clinic",
      "status": "ACTIVE_NOT_RECRUITING",
      "city": "Ottawa",
      "state": "Illinois",
      "zip": "61350",
      "country": "United States",
      "geoPoint": { "lat": 41.34559, "lon": -88.84258 }
    },
    {
      "facility": "Illinois CancerCare-Pekin",
      "status": "ACTIVE_NOT_RECRUITING",
      "city": "Pekin",
      "state": "Illinois",
      "zip": "61554",
      "country": "United States",
      "geoPoint": { "lat": 40.56754, "lon": -89.64066 }
    },
    {
      "facility": "Illinois CancerCare-Peoria",
      "status": "ACTIVE_NOT_RECRUITING",
      "city": "Peoria",
      "state": "Illinois",
      "zip": "61615",
      "country": "United States",
      "geoPoint": { "lat": 40.69365, "lon": -89.58899 }
    },
    {
      "facility": "Methodist Medical Center of Illinois",
      "status": "ACTIVE_NOT_RECRUITING",
      "city": "Peoria",
      "state": "Illinois",
      "zip": "61636",
      "country": "United States",
      "geoPoint": { "lat": 40.69365, "lon": -89.58899 }
    },
    {
      "facility": "OSF Saint Francis Medical Center",
      "status": "ACTIVE_NOT_RECRUITING",
      "city": "Peoria",
      "state": "Illinois",
      "zip": "61637",
      "country": "United States",
      "geoPoint": { "lat": 40.69365, "lon": -89.58899 }
    },
    {
      "facility": "Illinois CancerCare-Peru",
      "status": "ACTIVE_NOT_RECRUITING",
      "city": "Peru",
      "state": "Illinois",
      "zip": "61354",
      "country": "United States",
      "geoPoint": { "lat": 41.32753, "lon": -89.12897 }
    },
    {
      "facility": "Edward Hospital/Cancer Center?Plainfield",
      "status": "RECRUITING",
      "city": "Plainfield",
      "state": "Illinois",
      "zip": "60585",
      "country": "United States",
      "contacts": [
        {
          "name": "Site Public Contact",
          "role": "CONTACT",
          "phone": "630-646-6075",
          "email": "Cancerresearch@edward.org"
        },
        { "name": "Maria I. Quejada", "role": "PRINCIPAL_INVESTIGATOR" }
      ],
      "geoPoint": { "lat": 41.62697, "lon": -88.20395 }
    },
    {
      "facility": "Illinois CancerCare-Princeton",
      "status": "ACTIVE_NOT_RECRUITING",
      "city": "Princeton",
      "state": "Illinois",
      "zip": "61356",
      "country": "United States",
      "geoPoint": { "lat": 41.36809, "lon": -89.46481 }
    },
    {
      "facility": "UW Health Carbone Cancer Center Rockford",
      "status": "RECRUITING",
      "city": "Rockford",
      "state": "Illinois",
      "zip": "61114",
      "country": "United States",
      "contacts": [
        {
          "name": "Site Public Contact",
          "role": "CONTACT",
          "phone": "779-696-9378",
          "email": "lkline@uwhealth.org"
        },
        { "name": "Fahrettin Covut", "role": "PRINCIPAL_INVESTIGATOR" }
      ],
      "geoPoint": { "lat": 42.27113, "lon": -89.094 }
    },
    {
      "facility": "Southern Illinois University School of Medicine",
      "status": "SUSPENDED",
      "city": "Springfield",
      "state": "Illinois",
      "zip": "62702",
      "country": "United States",
      "geoPoint": { "lat": 39.80172, "lon": -89.64371 }
    },
    {
      "facility": "Springfield Clinic",
      "status": "SUSPENDED",
      "city": "Springfield",
      "state": "Illinois",
      "zip": "62702",
      "country": "United States",
      "geoPoint": { "lat": 39.80172, "lon": -89.64371 }
    },
    {
      "facility": "Springfield Memorial Hospital",
      "status": "RECRUITING",
      "city": "Springfield",
      "state": "Illinois",
      "zip": "62781",
      "country": "United States",
      "contacts": [
        {
          "name": "Site Public Contact",
          "role": "CONTACT",
          "phone": "217-528-7541",
          "email": "pallante.beth@mhsil.com"
        },
        { "name": "Bryan A. Faller", "role": "PRINCIPAL_INVESTIGATOR" }
      ],
      "geoPoint": { "lat": 39.80172, "lon": -89.64371 }
    },
    {
      "facility": "Carle Cancer Center",
      "status": "RECRUITING",
      "city": "Urbana",
      "state": "Illinois",
      "zip": "61801",
      "country": "United States",
      "contacts": [
        {
          "name": "Site Public Contact",
          "role": "CONTACT",
          "phone": "800-446-5532",
          "email": "Research@carle.com"
        },
        { "name": "Sinisa Stanic", "role": "PRINCIPAL_INVESTIGATOR" }
      ],
      "geoPoint": { "lat": 40.11059, "lon": -88.20727 }
    },
    {
      "facility": "The Carle Foundation Hospital",
      "status": "SUSPENDED",
      "city": "Urbana",
      "state": "Illinois",
      "zip": "61801",
      "country": "United States",
      "geoPoint": { "lat": 40.11059, "lon": -88.20727 }
    },
    {
      "facility": "Illinois CancerCare - Washington",
      "status": "ACTIVE_NOT_RECRUITING",
      "city": "Washington",
      "state": "Illinois",
      "zip": "61571",
      "country": "United States",
      "geoPoint": { "lat": 40.70365, "lon": -89.40731 }
    },
    {
      "facility": "Northwest Cancer Center - Main Campus",
      "status": "RECRUITING",
      "city": "Crown Point",
      "state": "Indiana",
      "zip": "46307",
      "country": "United States",
      "contacts": [
        {
          "name": "Site Public Contact",
          "role": "CONTACT",
          "phone": "219-310-2550"
        },
        { "name": "Sinisa Stanic", "role": "PRINCIPAL_INVESTIGATOR" }
      ],
      "geoPoint": { "lat": 41.41698, "lon": -87.36531 }
    },
    {
      "facility": "Northwest Oncology LLC",
      "status": "RECRUITING",
      "city": "Dyer",
      "state": "Indiana",
      "zip": "46311",
      "country": "United States",
      "contacts": [
        {
          "name": "Site Public Contact",
          "role": "CONTACT",
          "phone": "219-924-8178"
        },
        { "name": "Sinisa Stanic", "role": "PRINCIPAL_INVESTIGATOR" }
      ],
      "geoPoint": { "lat": 41.4942, "lon": -87.52171 }
    },
    {
      "facility": "Northwest Cancer Center - Hobart",
      "status": "RECRUITING",
      "city": "Hobart",
      "state": "Indiana",
      "zip": "46342",
      "country": "United States",
      "contacts": [
        {
          "name": "Site Public Contact",
          "role": "CONTACT",
          "phone": "219-947-1795"
        },
        { "name": "Sinisa Stanic", "role": "PRINCIPAL_INVESTIGATOR" }
      ],
      "geoPoint": { "lat": 41.53226, "lon": -87.25504 }
    },
    {
      "facility": "Saint Mary Medical Center",
      "status": "RECRUITING",
      "city": "Hobart",
      "state": "Indiana",
      "zip": "46342",
      "country": "United States",
      "contacts": [
        {
          "name": "Site Public Contact",
          "role": "CONTACT",
          "phone": "219-836-6875",
          "email": "CancerResearch@COMHS.org"
        },
        { "name": "Sinisa Stanic", "role": "PRINCIPAL_INVESTIGATOR" }
      ],
      "geoPoint": { "lat": 41.53226, "lon": -87.25504 }
    },
    {
      "facility": "The Community Hospital",
      "status": "RECRUITING",
      "city": "Munster",
      "state": "Indiana",
      "zip": "46321",
      "country": "United States",
      "contacts": [
        {
          "name": "Site Public Contact",
          "role": "CONTACT",
          "phone": "219-836-3349"
        },
        { "name": "Sinisa Stanic", "role": "PRINCIPAL_INVESTIGATOR" }
      ],
      "geoPoint": { "lat": 41.56448, "lon": -87.51254 }
    },
    {
      "facility": "Women's Diagnostic Center - Munster",
      "status": "RECRUITING",
      "city": "Munster",
      "state": "Indiana",
      "zip": "46321",
      "country": "United States",
      "contacts": [
        {
          "name": "Site Public Contact",
          "role": "CONTACT",
          "phone": "219-934-8869",
          "email": "mnicholson@comhs.org"
        },
        { "name": "Sinisa Stanic", "role": "PRINCIPAL_INVESTIGATOR" }
      ],
      "geoPoint": { "lat": 41.56448, "lon": -87.51254 }
    },
    {
      "facility": "Baptist Health Floyd",
      "status": "RECRUITING",
      "city": "New Albany",
      "state": "Indiana",
      "zip": "47150",
      "country": "United States",
      "contacts": [
        {
          "name": "Site Public Contact",
          "role": "CONTACT",
          "phone": "412-339-5294",
          "email": "Roster@nrgoncology.org"
        },
        { "name": "Wangjian Zhong", "role": "PRINCIPAL_INVESTIGATOR" }
      ],
      "geoPoint": { "lat": 38.28562, "lon": -85.82413 }
    },
    {
      "facility": "Northwest Cancer Center - Valparaiso",
      "status": "RECRUITING",
      "city": "Valparaiso",
      "state": "Indiana",
      "zip": "46383",
      "country": "United States",
      "contacts": [
        {
          "name": "Site Public Contact",
          "role": "CONTACT",
          "phone": "219-836-6875",
          "email": "CancerResearch@COMHS.org"
        },
        { "name": "Sinisa Stanic", "role": "PRINCIPAL_INVESTIGATOR" }
      ],
      "geoPoint": { "lat": 41.47309, "lon": -87.06114 }
    },
    {
      "facility": "UI Health Care Mission Cancer and Blood - Ankeny Clinic",
      "status": "RECRUITING",
      "city": "Ankeny",
      "state": "Iowa",
      "zip": "50023",
      "country": "United States",
      "contacts": [
        {
          "name": "Site Public Contact",
          "role": "CONTACT",
          "phone": "515-241-3305"
        },
        { "name": "Seema Harichand-Herdt", "role": "PRINCIPAL_INVESTIGATOR" }
      ],
      "geoPoint": { "lat": 41.72971, "lon": -93.60577 }
    },
    {
      "facility": "Physicians' Clinic of Iowa PC",
      "status": "RECRUITING",
      "city": "Cedar Rapids",
      "state": "Iowa",
      "zip": "52402",
      "country": "United States",
      "contacts": [
        {
          "name": "Site Public Contact",
          "role": "CONTACT",
          "phone": "319-297-2900"
        },
        { "name": "Bharat Jenigiri", "role": "PRINCIPAL_INVESTIGATOR" }
      ],
      "geoPoint": { "lat": 42.00833, "lon": -91.64407 }
    },
    {
      "facility": "Mercy Cancer Center-West Lakes",
      "status": "RECRUITING",
      "city": "Clive",
      "state": "Iowa",
      "zip": "50325",
      "country": "United States",
      "contacts": [
        {
          "name": "Site Public Contact",
          "role": "CONTACT",
          "phone": "515-358-6613",
          "email": "cancerresearch@mercydesmoines.org"
        },
        { "name": "Richard L. Deming", "role": "PRINCIPAL_INVESTIGATOR" }
      ],
      "geoPoint": { "lat": 41.60304, "lon": -93.72411 }
    },
    {
      "facility": "UI Health Care Mission Cancer and Blood - West Des Moines Clinic",
      "status": "RECRUITING",
      "city": "Clive",
      "state": "Iowa",
      "zip": "50325",
      "country": "United States",
      "contacts": [
        {
          "name": "Site Public Contact",
          "role": "CONTACT",
          "phone": "515-241-3305"
        },
        { "name": "Seema Harichand-Herdt", "role": "PRINCIPAL_INVESTIGATOR" }
      ],
      "geoPoint": { "lat": 41.60304, "lon": -93.72411 }
    },
    {
      "facility": "Heartland Oncology and Hematology LLP",
      "status": "RECRUITING",
      "city": "Council Bluffs",
      "state": "Iowa",
      "zip": "51503",
      "country": "United States",
      "contacts": [
        {
          "name": "Site Public Contact",
          "role": "CONTACT",
          "phone": "712-322-4136"
        },
        { "name": "Tien-Shew W. Huang", "role": "PRINCIPAL_INVESTIGATOR" }
      ],
      "geoPoint": { "lat": 41.26194, "lon": -95.86083 }
    },
    {
      "facility": "Methodist Jennie Edmundson Hospital",
      "status": "RECRUITING",
      "city": "Council Bluffs",
      "state": "Iowa",
      "zip": "51503",
      "country": "United States",
      "contacts": [
        {
          "name": "Site Public Contact",
          "role": "CONTACT",
          "phone": "402-354-7939",
          "email": "kathryn.bartz@nmhs.org"
        },
        { "name": "Tien-Shew W. Huang", "role": "PRINCIPAL_INVESTIGATOR" }
      ],
      "geoPoint": { "lat": 41.26194, "lon": -95.86083 }
    },
    {
      "facility": "Greater Regional Medical Center",
      "status": "RECRUITING",
      "city": "Creston",
      "state": "Iowa",
      "zip": "50801",
      "country": "United States",
      "contacts": [
        {
          "name": "Site Public Contact",
          "role": "CONTACT",
          "phone": "515-358-6613",
          "email": "cancerresearch@mercydesmoines.org"
        },
        { "name": "Richard L. Deming", "role": "PRINCIPAL_INVESTIGATOR" }
      ],
      "geoPoint": { "lat": 41.0586, "lon": -94.36135 }
    },
    {
      "facility": "Iowa Methodist Medical Center",
      "status": "RECRUITING",
      "city": "Des Moines",
      "state": "Iowa",
      "zip": "50309",
      "country": "United States",
      "contacts": [
        {
          "name": "Site Public Contact",
          "role": "CONTACT",
          "phone": "515-241-6727"
        },
        { "name": "Seema Harichand-Herdt", "role": "PRINCIPAL_INVESTIGATOR" }
      ],
      "geoPoint": { "lat": 41.60054, "lon": -93.60911 }
    },
    {
      "facility": "UI Health Care Mission Cancer and Blood - Des Moines Clinic",
      "status": "RECRUITING",
      "city": "Des Moines",
      "state": "Iowa",
      "zip": "50309",
      "country": "United States",
      "contacts": [
        {
          "name": "Site Public Contact",
          "role": "CONTACT",
          "phone": "515-241-3305"
        },
        { "name": "Seema Harichand-Herdt", "role": "PRINCIPAL_INVESTIGATOR" }
      ],
      "geoPoint": { "lat": 41.60054, "lon": -93.60911 }
    },
    {
      "facility": "Broadlawns Medical Center",
      "status": "RECRUITING",
      "city": "Des Moines",
      "state": "Iowa",
      "zip": "50314",
      "country": "United States",
      "contacts": [
        {
          "name": "Site Public Contact",
          "role": "CONTACT",
          "phone": "515-282-2200"
        },
        { "name": "Seema Harichand-Herdt", "role": "PRINCIPAL_INVESTIGATOR" }
      ],
      "geoPoint": { "lat": 41.60054, "lon": -93.60911 }
    },
    {
      "facility": "Mercy Medical Center - Des Moines",
      "status": "RECRUITING",
      "city": "Des Moines",
      "state": "Iowa",
      "zip": "50314",
      "country": "United States",
      "contacts": [
        {
          "name": "Site Public Contact",
          "role": "CONTACT",
          "phone": "515-358-6613",
          "email": "cancerresearch@mercydesmoines.org"
        },
        { "name": "Richard L. Deming", "role": "PRINCIPAL_INVESTIGATOR" }
      ],
      "geoPoint": { "lat": 41.60054, "lon": -93.60911 }
    },
    {
      "facility": "UI Health Care Mission Cancer and Blood - Laurel Clinic",
      "status": "RECRUITING",
      "city": "Des Moines",
      "state": "Iowa",
      "zip": "50314",
      "country": "United States",
      "contacts": [
        {
          "name": "Site Public Contact",
          "role": "CONTACT",
          "phone": "515-241-3305"
        },
        { "name": "Seema Harichand-Herdt", "role": "PRINCIPAL_INVESTIGATOR" }
      ],
      "geoPoint": { "lat": 41.60054, "lon": -93.60911 }
    },
    {
      "facility": "Iowa Lutheran Hospital",
      "status": "SUSPENDED",
      "city": "Des Moines",
      "state": "Iowa",
      "zip": "50316",
      "country": "United States",
      "geoPoint": { "lat": 41.60054, "lon": -93.60911 }
    },
    {
      "facility": "UI Health Care Mission Cancer and Blood - Waukee Clinic",
      "status": "RECRUITING",
      "city": "Waukee",
      "state": "Iowa",
      "zip": "50263",
      "country": "United States",
      "contacts": [
        {
          "name": "Site Public Contact",
          "role": "CONTACT",
          "phone": "515-241-3305"
        },
        { "name": "Seema Harichand-Herdt", "role": "PRINCIPAL_INVESTIGATOR" }
      ],
      "geoPoint": { "lat": 41.61166, "lon": -93.88523 }
    },
    {
      "facility": "Methodist West Hospital",
      "status": "SUSPENDED",
      "city": "West Des Moines",
      "state": "Iowa",
      "zip": "50266-7700",
      "country": "United States",
      "geoPoint": { "lat": 41.57721, "lon": -93.71133 }
    },
    {
      "facility": "Mercy Medical Center-West Lakes",
      "status": "RECRUITING",
      "city": "West Des Moines",
      "state": "Iowa",
      "zip": "50266",
      "country": "United States",
      "contacts": [
        {
          "name": "Site Public Contact",
          "role": "CONTACT",
          "phone": "515-358-6613",
          "email": "cancerresearch@mercydesmoines.org"
        },
        { "name": "Richard L. Deming", "role": "PRINCIPAL_INVESTIGATOR" }
      ],
      "geoPoint": { "lat": 41.57721, "lon": -93.71133 }
    },
    {
      "facility": "Ascension Via Christi Hospitals Wichita",
      "status": "RECRUITING",
      "city": "Wichita",
      "state": "Kansas",
      "zip": "67214",
      "country": "United States",
      "contacts": [
        {
          "name": "Site Public Contact",
          "role": "CONTACT",
          "phone": "316-291-4774",
          "email": "research@viachristi.org"
        },
        { "name": "Dennis F. Moore", "role": "PRINCIPAL_INVESTIGATOR" }
      ],
      "geoPoint": { "lat": 37.69224, "lon": -97.33754 }
    },
    {
      "facility": "Saint Joseph Hospital East",
      "status": "RECRUITING",
      "city": "Lexington",
      "state": "Kentucky",
      "zip": "40509",
      "country": "United States",
      "contacts": [
        {
          "name": "Site Public Contact",
          "role": "CONTACT",
          "phone": "720-874-1881",
          "email": "ResearchInstituteInquiries@CommonSpirit.org"
        },
        { "name": "Shahzad Siddique", "role": "PRINCIPAL_INVESTIGATOR" }
      ],
      "geoPoint": { "lat": 37.98869, "lon": -84.47772 }
    },
    {
      "facility": "Norton Hospital Pavilion and Medical Campus",
      "status": "ACTIVE_NOT_RECRUITING",
      "city": "Louisville",
      "state": "Kentucky",
      "zip": "40202",
      "country": "United States",
      "geoPoint": { "lat": 38.25424, "lon": -85.75941 }
    },
    {
      "facility": "The James Graham Brown Cancer Center at University of Louisville",
      "status": "RECRUITING",
      "city": "Louisville",
      "state": "Kentucky",
      "zip": "40202",
      "country": "United States",
      "contacts": [
        {
          "name": "Site Public Contact",
          "role": "CONTACT",
          "phone": "502-562-3429"
        },
        { "name": "Neal E. Dunlap", "role": "PRINCIPAL_INVESTIGATOR" }
      ],
      "geoPoint": { "lat": 38.25424, "lon": -85.75941 }
    },
    {
      "facility": "Baptist Health Louisville",
      "status": "RECRUITING",
      "city": "Louisville",
      "state": "Kentucky",
      "zip": "40207",
      "country": "United States",
      "contacts": [
        {
          "name": "Site Public Contact",
          "role": "CONTACT",
          "phone": "502-897-8592",
          "email": "Cbcresearch@bhsi.com"
        },
        { "name": "Wangjian Zhong", "role": "PRINCIPAL_INVESTIGATOR" }
      ],
      "geoPoint": { "lat": 38.25424, "lon": -85.75941 }
    },
    {
      "facility": "Norton Audubon Hospital and Medical Campus",
      "status": "ACTIVE_NOT_RECRUITING",
      "city": "Louisville",
      "state": "Kentucky",
      "zip": "40217",
      "country": "United States",
      "geoPoint": { "lat": 38.25424, "lon": -85.75941 }
    },
    {
      "facility": "Norton Brownsboro Hospital and Medical Campus",
      "status": "ACTIVE_NOT_RECRUITING",
      "city": "Louisville",
      "state": "Kentucky",
      "zip": "40241",
      "country": "United States",
      "geoPoint": { "lat": 38.25424, "lon": -85.75941 }
    },
    {
      "facility": "UofL Health Medical Center Northeast",
      "status": "RECRUITING",
      "city": "Louisville",
      "state": "Kentucky",
      "zip": "40245",
      "country": "United States",
      "contacts": [
        {
          "name": "Site Public Contact",
          "role": "CONTACT",
          "phone": "502-852-2755",
          "email": "ctoinfo@louisville.edu"
        },
        { "name": "Neal E. Dunlap", "role": "PRINCIPAL_INVESTIGATOR" }
      ],
      "geoPoint": { "lat": 38.25424, "lon": -85.75941 }
    },
    {
      "facility": "MaineHealth Coastal Cancer Treatment Center",
      "status": "RECRUITING",
      "city": "Bath",
      "state": "Maine",
      "zip": "04530",
      "country": "United States",
      "contacts": [
        {
          "name": "Site Public Contact",
          "role": "CONTACT",
          "phone": "412-339-5294",
          "email": "Roster@nrgoncology.org"
        },
        { "name": "Vatche Tchekmedyian", "role": "PRINCIPAL_INVESTIGATOR" }
      ],
      "geoPoint": { "lat": 43.91064, "lon": -69.8206 }
    },
    {
      "facility": "MaineHealth Maine Medical Center - Portland",
      "status": "RECRUITING",
      "city": "Portland",
      "state": "Maine",
      "zip": "04102",
      "country": "United States",
      "contacts": [
        {
          "name": "Site Public Contact",
          "role": "CONTACT",
          "phone": "207-396-8670",
          "email": "clinicalresearch@mainehealth.org"
        },
        { "name": "Vatche Tchekmedyian", "role": "PRINCIPAL_INVESTIGATOR" }
      ],
      "geoPoint": { "lat": 43.65737, "lon": -70.2589 }
    },
    {
      "facility": "MaineHealth Cancer Care Center of York County",
      "status": "RECRUITING",
      "city": "Sanford",
      "state": "Maine",
      "zip": "04073",
      "country": "United States",
      "contacts": [
        {
          "name": "Site Public Contact",
          "role": "CONTACT",
          "phone": "207-459-1600"
        },
        { "name": "Vatche Tchekmedyian", "role": "PRINCIPAL_INVESTIGATOR" }
      ],
      "geoPoint": { "lat": 43.43925, "lon": -70.77422 }
    },
    {
      "facility": "MaineHealth Maine Medical Center- Scarborough",
      "status": "RECRUITING",
      "city": "Scarborough",
      "state": "Maine",
      "zip": "04074",
      "country": "United States",
      "contacts": [
        {
          "name": "Site Public Contact",
          "role": "CONTACT",
          "phone": "207-396-8670",
          "email": "clinicalresearch@mainehealth.org"
        },
        { "name": "Vatche Tchekmedyian", "role": "PRINCIPAL_INVESTIGATOR" }
      ],
      "geoPoint": { "lat": 43.57814, "lon": -70.32172 }
    },
    {
      "facility": "MaineHealth Cancer Care and IV Therapy - South Portland",
      "status": "RECRUITING",
      "city": "South Portland",
      "state": "Maine",
      "zip": "04106",
      "country": "United States",
      "contacts": [
        {
          "name": "Site Public Contact",
          "role": "CONTACT",
          "phone": "207-396-8670",
          "email": "clinicalresearch@mainehealth.org"
        },
        { "name": "Vatche Tchekmedyian", "role": "PRINCIPAL_INVESTIGATOR" }
      ],
      "geoPoint": { "lat": 43.64147, "lon": -70.24088 }
    },
    {
      "facility": "University of Maryland/Greenebaum Cancer Center",
      "status": "ACTIVE_NOT_RECRUITING",
      "city": "Baltimore",
      "state": "Maryland",
      "zip": "21201",
      "country": "United States",
      "geoPoint": { "lat": 39.29038, "lon": -76.61219 }
    },
    {
      "facility": "UM Upper Chesapeake Medical Center",
      "status": "ACTIVE_NOT_RECRUITING",
      "city": "Bel Air",
      "state": "Maryland",
      "zip": "21014",
      "country": "United States",
      "geoPoint": { "lat": 39.53594, "lon": -76.34829 }
    },
    {
      "facility": "Central Maryland Radiation Oncology in Howard County",
      "status": "ACTIVE_NOT_RECRUITING",
      "city": "Columbia",
      "state": "Maryland",
      "zip": "21044",
      "country": "United States",
      "geoPoint": { "lat": 39.24038, "lon": -76.83942 }
    },
    {
      "facility": "UM Baltimore Washington Medical Center/Tate Cancer Center",
      "status": "ACTIVE_NOT_RECRUITING",
      "city": "Glen Burnie",
      "state": "Maryland",
      "zip": "21061",
      "country": "United States",
      "geoPoint": { "lat": 39.16261, "lon": -76.62469 }
    },
    {
      "facility": "Boston Medical Center",
      "status": "RECRUITING",
      "city": "Boston",
      "state": "Massachusetts",
      "zip": "02118",
      "country": "United States",
      "contacts": [
        {
          "name": "Site Public Contact",
          "role": "CONTACT",
          "phone": "617-638-8265"
        },
        { "name": "Umit Tapan", "role": "PRINCIPAL_INVESTIGATOR" }
      ],
      "geoPoint": { "lat": 42.35843, "lon": -71.05977 }
    },
    {
      "facility": "Lowell General Hospital",
      "status": "RECRUITING",
      "city": "Lowell",
      "state": "Massachusetts",
      "zip": "01854",
      "country": "United States",
      "contacts": [
        {
          "name": "Site Public Contact",
          "role": "CONTACT",
          "phone": "978-788-7084",
          "email": "ghincks@lowellgeneral.org"
        },
        { "name": "Ruchi Hamal", "role": "PRINCIPAL_INVESTIGATOR" }
      ],
      "geoPoint": { "lat": 42.63342, "lon": -71.31617 }
    },
    {
      "facility": "UMass Memorial Medical Center - University Campus",
      "status": "RECRUITING",
      "city": "Worcester",
      "state": "Massachusetts",
      "zip": "01655",
      "country": "United States",
      "contacts": [
        {
          "name": "Site Public Contact",
          "role": "CONTACT",
          "phone": "508-856-3216",
          "email": "cancer.research@umassmed.edu"
        },
        { "name": "William V. Walsh", "role": "PRINCIPAL_INVESTIGATOR" }
      ],
      "geoPoint": { "lat": 42.26259, "lon": -71.80229 }
    },
    {
      "facility": "Trinity Health IHA Medical Group Hematology Oncology - Brighton",
      "status": "RECRUITING",
      "city": "Brighton",
      "state": "Michigan",
      "zip": "48114",
      "country": "United States",
      "contacts": [
        {
          "name": "Site Public Contact",
          "role": "CONTACT",
          "phone": "734-712-7251",
          "email": "MCRCwebsitecontactform@stjoeshealth.org"
        },
        { "name": "Tareq Al baghdadi", "role": "PRINCIPAL_INVESTIGATOR" }
      ],
      "geoPoint": { "lat": 42.52948, "lon": -83.78022 }
    },
    {
      "facility": "Trinity Health Medical Center - Brighton",
      "status": "RECRUITING",
      "city": "Brighton",
      "state": "Michigan",
      "zip": "48114",
      "country": "United States",
      "contacts": [
        {
          "name": "Site Public Contact",
          "role": "CONTACT",
          "phone": "734-712-7251",
          "email": "MCRCwebsitecontactform@stjoeshealth.org"
        },
        { "name": "Tareq Al baghdadi", "role": "PRINCIPAL_INVESTIGATOR" }
      ],
      "geoPoint": { "lat": 42.52948, "lon": -83.78022 }
    },
    {
      "facility": "Trinity Health IHA Medical Group Hematology Oncology - Canton",
      "status": "RECRUITING",
      "city": "Canton",
      "state": "Michigan",
      "zip": "48188",
      "country": "United States",
      "contacts": [
        {
          "name": "Site Public Contact",
          "role": "CONTACT",
          "phone": "734-712-7251",
          "email": "MCRCwebsitecontactform@stjoeshealth.org"
        },
        { "name": "Tareq Al baghdadi", "role": "PRINCIPAL_INVESTIGATOR" }
      ],
      "geoPoint": { "lat": 42.30865, "lon": -83.48216 }
    },
    {
      "facility": "Trinity Health Medical Center - Canton",
      "status": "RECRUITING",
      "city": "Canton",
      "state": "Michigan",
      "zip": "48188",
      "country": "United States",
      "contacts": [
        {
          "name": "Site Public Contact",
          "role": "CONTACT",
          "phone": "734-712-7251",
          "email": "MCRCwebsitecontactform@stjoeshealth.org"
        },
        { "name": "Tareq Al baghdadi", "role": "PRINCIPAL_INVESTIGATOR" }
      ],
      "geoPoint": { "lat": 42.30865, "lon": -83.48216 }
    },
    {
      "facility": "Chelsea Hospital",
      "status": "RECRUITING",
      "city": "Chelsea",
      "state": "Michigan",
      "zip": "48118",
      "country": "United States",
      "contacts": [
        {
          "name": "Site Public Contact",
          "role": "CONTACT",
          "phone": "734-712-7251",
          "email": "MCRCwebsitecontactform@stjoeshealth.org"
        },
        { "name": "Tareq Al baghdadi", "role": "PRINCIPAL_INVESTIGATOR" }
      ],
      "geoPoint": { "lat": 42.31807, "lon": -84.02181 }
    },
    {
      "facility": "Trinity Health IHA Medical Group Hematology Oncology - Chelsea Hospital",
      "status": "RECRUITING",
      "city": "Chelsea",
      "state": "Michigan",
      "zip": "48118",
      "country": "United States",
      "contacts": [
        {
          "name": "Site Public Contact",
          "role": "CONTACT",
          "phone": "734-712-7251",
          "email": "MCRCwebsitecontactform@stjoeshealth.org"
        },
        { "name": "Tareq Al baghdadi", "role": "PRINCIPAL_INVESTIGATOR" }
      ],
      "geoPoint": { "lat": 42.31807, "lon": -84.02181 }
    },
    {
      "facility": "McLaren Cancer Institute-Clarkston",
      "status": "RECRUITING",
      "city": "Clarkston",
      "state": "Michigan",
      "zip": "48346",
      "country": "United States",
      "contacts": [
        {
          "name": "Site Public Contact",
          "role": "CONTACT",
          "phone": "313-576-9790",
          "email": "ctoadmin@karmanos.org"
        },
        { "name": "Brian K. Yeh", "role": "PRINCIPAL_INVESTIGATOR" }
      ],
      "geoPoint": { "lat": 42.73586, "lon": -83.41883 }
    },
    {
      "facility": "Wayne State University/Karmanos Cancer Institute",
      "status": "RECRUITING",
      "city": "Detroit",
      "state": "Michigan",
      "zip": "48201",
      "country": "United States",
      "contacts": [
        {
          "name": "Site Public Contact",
          "role": "CONTACT",
          "phone": "313-576-9790",
          "email": "ctoadmin@karmanos.org"
        },
        { "name": "Brian K. Yeh", "role": "PRINCIPAL_INVESTIGATOR" }
      ],
      "geoPoint": { "lat": 42.33143, "lon": -83.04575 }
    },
    {
      "facility": "Weisberg Cancer Treatment Center",
      "status": "RECRUITING",
      "city": "Farmington Hills",
      "state": "Michigan",
      "zip": "48334",
      "country": "United States",
      "contacts": [
        {
          "name": "Site Public Contact",
          "role": "CONTACT",
          "phone": "313-576-9790",
          "email": "ctoadmin@karmanos.org"
        },
        { "name": "Brian K. Yeh", "role": "PRINCIPAL_INVESTIGATOR" }
      ],
      "geoPoint": { "lat": 42.48531, "lon": -83.37716 }
    },
    {
      "facility": "Genesys Hurley Cancer Institute",
      "status": "RECRUITING",
      "city": "Flint",
      "state": "Michigan",
      "zip": "48503",
      "country": "United States",
      "contacts": [
        {
          "name": "Site Public Contact",
          "role": "CONTACT",
          "phone": "810-762-8038",
          "email": "wstrong@ghci.org"
        },
        { "name": "Tareq Al baghdadi", "role": "PRINCIPAL_INVESTIGATOR" }
      ],
      "geoPoint": { "lat": 43.01253, "lon": -83.68746 }
    },
    {
      "facility": "Hurley Medical Center",
      "status": "RECRUITING",
      "city": "Flint",
      "state": "Michigan",
      "zip": "48503",
      "country": "United States",
      "contacts": [
        {
          "name": "Site Public Contact",
          "role": "CONTACT",
          "phone": "810-762-8038",
          "email": "wstrong@ghci.org"
        },
        { "name": "Tareq Al baghdadi", "role": "PRINCIPAL_INVESTIGATOR" }
      ],
      "geoPoint": { "lat": 43.01253, "lon": -83.68746 }
    },
    {
      "facility": "McLaren Cancer Institute-Flint",
      "status": "RECRUITING",
      "city": "Flint",
      "state": "Michigan",
      "zip": "48532",
      "country": "United States",
      "contacts": [
        {
          "name": "Site Public Contact",
          "role": "CONTACT",
          "phone": "313-576-9790",
          "email": "ctoadmin@karmanos.org"
        },
        { "name": "Brian K. Yeh", "role": "PRINCIPAL_INVESTIGATOR" }
      ],
      "geoPoint": { "lat": 43.01253, "lon": -83.68746 }
    },
    {
      "facility": "Bronson Methodist Hospital",
      "status": "RECRUITING",
      "city": "Kalamazoo",
      "state": "Michigan",
      "zip": "49007",
      "country": "United States",
      "contacts": [
        {
          "name": "Site Public Contact",
          "role": "CONTACT",
          "phone": "616-391-1230",
          "email": "crcwm-regulatory@crcwm.org"
        },
        { "name": "Kathleen Y. Butler", "role": "PRINCIPAL_INVESTIGATOR" }
      ],
      "geoPoint": { "lat": 42.29171, "lon": -85.58723 }
    },
    {
      "facility": "West Michigan Cancer Center",
      "status": "RECRUITING",
      "city": "Kalamazoo",
      "state": "Michigan",
      "zip": "49007",
      "country": "United States",
      "contacts": [
        {
          "name": "Site Public Contact",
          "role": "CONTACT",
          "phone": "616-391-1230",
          "email": "crcwm-regulatory@crcwm.org"
        },
        { "name": "Kathleen Y. Butler", "role": "PRINCIPAL_INVESTIGATOR" }
      ],
      "geoPoint": { "lat": 42.29171, "lon": -85.58723 }
    },
    {
      "facility": "Beacon Kalamazoo",
      "status": "SUSPENDED",
      "city": "Kalamazoo",
      "state": "Michigan",
      "zip": "49048",
      "country": "United States",
      "geoPoint": { "lat": 42.29171, "lon": -85.58723 }
    },
    {
      "facility": "Karmanos Cancer Institute at McLaren Greater Lansing",
      "status": "RECRUITING",
      "city": "Lansing",
      "state": "Michigan",
      "zip": "48910",
      "country": "United States",
      "contacts": [
        {
          "name": "Site Public Contact",
          "role": "CONTACT",
          "phone": "313-576-9790",
          "email": "ctoadmin@karmanos.org"
        },
        { "name": "Brian K. Yeh", "role": "PRINCIPAL_INVESTIGATOR" }
      ],
      "geoPoint": { "lat": 42.73253, "lon": -84.55553 }
    },
    {
      "facility": "University of Michigan Health - Sparrow Lansing",
      "status": "RECRUITING",
      "city": "Lansing",
      "state": "Michigan",
      "zip": "48912",
      "country": "United States",
      "contacts": [
        {
          "name": "Site Public Contact",
          "role": "CONTACT",
          "phone": "517-364-3712",
          "email": "harsha.trivedi@umhsparrow.org"
        },
        { "name": "Tareq Al baghdadi", "role": "PRINCIPAL_INVESTIGATOR" }
      ],
      "geoPoint": { "lat": 42.73253, "lon": -84.55553 }
    },
    {
      "facility": "McLaren Cancer Institute-Lapeer Region",
      "status": "RECRUITING",
      "city": "Lapeer",
      "state": "Michigan",
      "zip": "48446",
      "country": "United States",
      "contacts": [
        {
          "name": "Site Public Contact",
          "role": "CONTACT",
          "phone": "313-576-9790",
          "email": "ctoadmin@karmanos.org"
        },
        { "name": "Brian K. Yeh", "role": "PRINCIPAL_INVESTIGATOR" }
      ],
      "geoPoint": { "lat": 43.05142, "lon": -83.31883 }
    },
    {
      "facility": "Trinity Health Saint Mary Mercy Livonia Hospital",
      "status": "RECRUITING",
      "city": "Livonia",
      "state": "Michigan",
      "zip": "48154",
      "country": "United States",
      "contacts": [
        {
          "name": "Site Public Contact",
          "role": "CONTACT",
          "phone": "734-712-7251",
          "email": "MCRCwebsitecontactform@stjoeshealth.org"
        },
        { "name": "Tareq Al baghdadi", "role": "PRINCIPAL_INVESTIGATOR" }
      ],
      "geoPoint": { "lat": 42.36837, "lon": -83.35271 }
    },
    {
      "facility": "MyMichigan Medical Center Midland",
      "status": "SUSPENDED",
      "city": "Midland",
      "state": "Michigan",
      "zip": "48670",
      "country": "United States",
      "geoPoint": { "lat": 43.61558, "lon": -84.24721 }
    },
    {
      "facility": "McLaren Cancer Institute-Macomb",
      "status": "RECRUITING",
      "city": "Mount Clemens",
      "state": "Michigan",
      "zip": "48043",
      "country": "United States",
      "contacts": [
        {
          "name": "Site Public Contact",
          "role": "CONTACT",
          "phone": "313-576-9790",
          "email": "ctoadmin@karmanos.org"
        },
        { "name": "Brian K. Yeh", "role": "PRINCIPAL_INVESTIGATOR" }
      ],
      "geoPoint": { "lat": 42.59726, "lon": -82.87798 }
    },
    {
      "facility": "Henry Ford Health Providence Novi Hospital",
      "status": "RECRUITING",
      "city": "Novi",
      "state": "Michigan",
      "zip": "48374",
      "country": "United States",
      "contacts": [
        {
          "name": "Site Public Contact",
          "role": "CONTACT",
          "phone": "248-849-5332",
          "email": "kfife3@hfhs.org"
        },
        { "name": "Adam M. Forman", "role": "PRINCIPAL_INVESTIGATOR" }
      ],
      "geoPoint": { "lat": 42.48059, "lon": -83.47549 }
    },
    {
      "facility": "McLaren-Port Huron",
      "status": "RECRUITING",
      "city": "Port Huron",
      "state": "Michigan",
      "zip": "48060",
      "country": "United States",
      "contacts": [
        {
          "name": "Site Public Contact",
          "role": "CONTACT",
          "phone": "313-576-9790",
          "email": "ctoadmin@karmanos.org"
        },
        { "name": "Brian K. Yeh", "role": "PRINCIPAL_INVESTIGATOR" }
      ],
      "geoPoint": { "lat": 42.97086, "lon": -82.42491 }
    },
    {
      "facility": "Corewell Health William Beaumont University Hospital",
      "status": "RECRUITING",
      "city": "Royal Oak",
      "state": "Michigan",
      "zip": "48073",
      "country": "United States",
      "contacts": [
        {
          "name": "Site Public Contact",
          "role": "CONTACT",
          "phone": "248-551-7695"
        },
        { "name": "Inga S. Grills", "role": "PRINCIPAL_INVESTIGATOR" }
      ],
      "geoPoint": { "lat": 42.48948, "lon": -83.14465 }
    },
    {
      "facility": "MyMichigan Medical Center Saginaw",
      "status": "RECRUITING",
      "city": "Saginaw",
      "state": "Michigan",
      "zip": "48601",
      "country": "United States",
      "contacts": [
        {
          "name": "Site Public Contact",
          "role": "CONTACT",
          "phone": "734-712-7251",
          "email": "MCRCwebsitecontactform@stjoeshealth.org"
        },
        { "name": "Tareq Al baghdadi", "role": "PRINCIPAL_INVESTIGATOR" }
      ],
      "geoPoint": { "lat": 43.41947, "lon": -83.95081 }
    },
    {
      "facility": "Oncology Hematology Associates of Saginaw Valley PC",
      "status": "SUSPENDED",
      "city": "Saginaw",
      "state": "Michigan",
      "zip": "48604",
      "country": "United States",
      "geoPoint": { "lat": 43.41947, "lon": -83.95081 }
    },
    {
      "facility": "Henry Ford Health Providence Southfield Hospital",
      "status": "RECRUITING",
      "city": "Southfield",
      "state": "Michigan",
      "zip": "48075",
      "country": "United States",
      "contacts": [
        {
          "name": "Site Public Contact",
          "role": "CONTACT",
          "phone": "248-849-5332",
          "email": "kfife3@hfhs.org"
        },
        { "name": "Adam M. Forman", "role": "PRINCIPAL_INVESTIGATOR" }
      ],
      "geoPoint": { "lat": 42.47337, "lon": -83.22187 }
    },
    {
      "facility": "MyMichigan Medical Center Tawas",
      "status": "RECRUITING",
      "city": "Tawas City",
      "state": "Michigan",
      "zip": "48764",
      "country": "United States",
      "contacts": [
        {
          "name": "Site Public Contact",
          "role": "CONTACT",
          "phone": "734-712-7251",
          "email": "MCRCwebsitecontactform@stjoeshealth.org"
        },
        { "name": "Tareq Al baghdadi", "role": "PRINCIPAL_INVESTIGATOR" }
      ],
      "geoPoint": { "lat": 44.26946, "lon": -83.5147 }
    },
    {
      "facility": "Corewell Health Beaumont Troy Hospital",
      "status": "RECRUITING",
      "city": "Troy",
      "state": "Michigan",
      "zip": "48085",
      "country": "United States",
      "contacts": [
        {
          "name": "Site Public Contact",
          "role": "CONTACT",
          "phone": "248-551-7695"
        },
        { "name": "Inga S. Grills", "role": "PRINCIPAL_INVESTIGATOR" }
      ],
      "geoPoint": { "lat": 42.60559, "lon": -83.14993 }
    },
    {
      "facility": "Saint Mary's Oncology/Hematology Associates of West Branch",
      "status": "SUSPENDED",
      "city": "West Branch",
      "state": "Michigan",
      "zip": "48661",
      "country": "United States",
      "geoPoint": { "lat": 44.27641, "lon": -84.23861 }
    },
    {
      "facility": "Mayo Clinic Health System in Albert Lea",
      "status": "WITHDRAWN",
      "city": "Albert Lea",
      "state": "Minnesota",
      "zip": "56007",
      "country": "United States",
      "geoPoint": { "lat": 43.64801, "lon": -93.36827 }
    },
    {
      "facility": "Sanford Joe Lueken Cancer Center",
      "status": "RECRUITING",
      "city": "Bemidji",
      "state": "Minnesota",
      "zip": "56601",
      "country": "United States",
      "contacts": [
        {
          "name": "Site Public Contact",
          "role": "CONTACT",
          "phone": "218-333-5000",
          "email": "OncologyClinicalTrialsFargo@sanfordhealth.org"
        },
        { "name": "Daniel Almquist", "role": "PRINCIPAL_INVESTIGATOR" }
      ],
      "geoPoint": { "lat": 47.47356, "lon": -94.88028 }
    },
    {
      "facility": "Mercy Hospital",
      "status": "RECRUITING",
      "city": "Coon Rapids",
      "state": "Minnesota",
      "zip": "55433",
      "country": "United States",
      "contacts": [
        {
          "name": "Site Public Contact",
          "role": "CONTACT",
          "phone": "952-993-1517",
          "email": "mmcorc@healthpartners.com"
        },
        { "name": "Charles Shideman", "role": "PRINCIPAL_INVESTIGATOR" }
      ],
      "geoPoint": { "lat": 45.11997, "lon": -93.28773 }
    },
    {
      "facility": "Saint Luke's Hospital of Duluth",
      "status": "RECRUITING",
      "city": "Duluth",
      "state": "Minnesota",
      "zip": "55805",
      "country": "United States",
      "contacts": [
        {
          "name": "Site Public Contact",
          "role": "CONTACT",
          "phone": "218-249-7825",
          "email": "kdean@slhduluth.com"
        },
        { "name": "Nils D. Arvold", "role": "PRINCIPAL_INVESTIGATOR" }
      ],
      "geoPoint": { "lat": 46.78327, "lon": -92.10658 }
    },
    {
      "facility": "Unity Hospital",
      "status": "ACTIVE_NOT_RECRUITING",
      "city": "Fridley",
      "state": "Minnesota",
      "zip": "55432",
      "country": "United States",
      "geoPoint": { "lat": 45.08608, "lon": -93.26328 }
    },
    {
      "facility": "Saint John's Hospital - Healtheast",
      "status": "RECRUITING",
      "city": "Maplewood",
      "state": "Minnesota",
      "zip": "55109",
      "country": "United States",
      "contacts": [
        {
          "name": "Site Public Contact",
          "role": "CONTACT",
          "phone": "952-993-1517",
          "email": "mmcorc@healthpartners.com"
        },
        { "name": "Charles Shideman", "role": "PRINCIPAL_INVESTIGATOR" }
      ],
      "geoPoint": { "lat": 44.95302, "lon": -92.99522 }
    },
    {
      "facility": "Abbott-Northwestern Hospital",
      "status": "RECRUITING",
      "city": "Minneapolis",
      "state": "Minnesota",
      "zip": "55407",
      "country": "United States",
      "contacts": [
        {
          "name": "Site Public Contact",
          "role": "CONTACT",
          "phone": "952-993-1517",
          "email": "mmcorc@healthpartners.com"
        },
        { "name": "Charles Shideman", "role": "PRINCIPAL_INVESTIGATOR" }
      ],
      "geoPoint": { "lat": 44.97997, "lon": -93.26384 }
    },
    {
      "facility": "Mayo Clinic in Rochester",
      "status": "WITHDRAWN",
      "city": "Rochester",
      "state": "Minnesota",
      "zip": "55905",
      "country": "United States",
      "geoPoint": { "lat": 44.02163, "lon": -92.4699 }
    },
    {
      "facility": "Coborn Cancer Center at Saint Cloud Hospital",
      "status": "RECRUITING",
      "city": "Saint Cloud",
      "state": "Minnesota",
      "zip": "56303",
      "country": "United States",
      "contacts": [
        {
          "name": "Site Public Contact",
          "role": "CONTACT",
          "phone": "877-229-4907",
          "email": "coborncancercenter@centracare.com"
        },
        { "name": "Donald J. Jurgens", "role": "PRINCIPAL_INVESTIGATOR" }
      ],
      "geoPoint": { "lat": 45.5608, "lon": -94.16249 }
    },
    {
      "facility": "Regions Hospital",
      "status": "RECRUITING",
      "city": "Saint Paul",
      "state": "Minnesota",
      "zip": "55101",
      "country": "United States",
      "contacts": [
        {
          "name": "Site Public Contact",
          "role": "CONTACT",
          "phone": "952-993-1517",
          "email": "mmcorc@healthpartners.com"
        },
        { "name": "Charles Shideman", "role": "PRINCIPAL_INVESTIGATOR" }
      ],
      "geoPoint": { "lat": 44.94441, "lon": -93.09327 }
    },
    {
      "facility": "Baptist Memorial Hospital and Cancer Center-Desoto",
      "status": "RECRUITING",
      "city": "Southhaven",
      "state": "Mississippi",
      "zip": "38671",
      "country": "United States",
      "contacts": [
        {
          "name": "Site Public Contact",
          "role": "CONTACT",
          "phone": "901-226-1366",
          "email": "BCCclintrials@bmhcc.org"
        },
        { "name": "Philip E. Lammers", "role": "PRINCIPAL_INVESTIGATOR" }
      ],
      "geoPoint": { "lat": 34.99176, "lon": -90.12759 }
    },
    {
      "facility": "Saint Francis Medical Center",
      "status": "RECRUITING",
      "city": "Cape Girardeau",
      "state": "Missouri",
      "zip": "63703",
      "country": "United States",
      "contacts": [
        {
          "name": "Site Public Contact",
          "role": "CONTACT",
          "phone": "573-334-2230",
          "email": "sfmc@sfmc.net"
        },
        { "name": "Bryan A. Faller", "role": "PRINCIPAL_INVESTIGATOR" }
      ],
      "geoPoint": { "lat": 37.30588, "lon": -89.51815 }
    },
    {
      "facility": "MU Health - University Hospital/Ellis Fischel Cancer Center",
      "status": "ACTIVE_NOT_RECRUITING",
      "city": "Columbia",
      "state": "Missouri",
      "zip": "65212",
      "country": "United States",
      "geoPoint": { "lat": 38.95171, "lon": -92.33407 }
    },
    {
      "facility": "Parkland Health Center - Farmington",
      "status": "RECRUITING",
      "city": "Farmington",
      "state": "Missouri",
      "zip": "63640",
      "country": "United States",
      "contacts": [
        {
          "name": "Site Public Contact",
          "role": "CONTACT",
          "phone": "314-996-5569"
        },
        { "name": "Bryan A. Faller", "role": "PRINCIPAL_INVESTIGATOR" }
      ],
      "geoPoint": { "lat": 37.78088, "lon": -90.42179 }
    },
    {
      "facility": "Sainte Genevieve County Memorial Hospital",
      "status": "RECRUITING",
      "city": "Sainte Genevieve",
      "state": "Missouri",
      "zip": "63670",
      "country": "United States",
      "contacts": [
        {
          "name": "Site Public Contact",
          "role": "CONTACT",
          "phone": "314-996-5569"
        },
        { "name": "Bryan A. Faller", "role": "PRINCIPAL_INVESTIGATOR" }
      ],
      "geoPoint": { "lat": 37.98144, "lon": -90.04178 }
    },
    {
      "facility": "Missouri Baptist Medical Center",
      "status": "RECRUITING",
      "city": "St Louis",
      "state": "Missouri",
      "zip": "63131",
      "country": "United States",
      "contacts": [
        {
          "name": "Site Public Contact",
          "role": "CONTACT",
          "phone": "314-996-5569"
        },
        { "name": "Bryan A. Faller", "role": "PRINCIPAL_INVESTIGATOR" }
      ],
      "geoPoint": { "lat": 38.62727, "lon": -90.19789 }
    },
    {
      "facility": "Mercy Hospital Saint Louis",
      "status": "RECRUITING",
      "city": "St Louis",
      "state": "Missouri",
      "zip": "63141",
      "country": "United States",
      "contacts": [
        {
          "name": "Site Public Contact",
          "role": "CONTACT",
          "phone": "314-251-7066"
        },
        { "name": "Jay W. Carlson", "role": "PRINCIPAL_INVESTIGATOR" }
      ],
      "geoPoint": { "lat": 38.62727, "lon": -90.19789 }
    },
    {
      "facility": "Missouri Baptist Sullivan Hospital",
      "status": "RECRUITING",
      "city": "Sullivan",
      "state": "Missouri",
      "zip": "63080",
      "country": "United States",
      "contacts": [
        {
          "name": "Site Public Contact",
          "role": "CONTACT",
          "phone": "314-996-5569"
        },
        { "name": "Bryan A. Faller", "role": "PRINCIPAL_INVESTIGATOR" }
      ],
      "geoPoint": { "lat": 38.2081, "lon": -91.16042 }
    },
    {
      "facility": "BJC Outpatient Center at Sunset Hills",
      "status": "RECRUITING",
      "city": "Sunset Hills",
      "state": "Missouri",
      "zip": "63127",
      "country": "United States",
      "contacts": [
        {
          "name": "Site Public Contact",
          "role": "CONTACT",
          "phone": "314-996-5569"
        },
        { "name": "Bryan A. Faller", "role": "PRINCIPAL_INVESTIGATOR" }
      ],
      "geoPoint": { "lat": 38.53894, "lon": -90.40734 }
    },
    {
      "facility": "Bozeman Health Deaconess Hospital",
      "status": "RECRUITING",
      "city": "Bozeman",
      "state": "Montana",
      "zip": "59715",
      "country": "United States",
      "contacts": [
        {
          "name": "Site Public Contact",
          "role": "CONTACT",
          "phone": "406-969-6060",
          "email": "mccinfo@mtcancer.org"
        },
        { "name": "John M. Schallenkamp", "role": "PRINCIPAL_INVESTIGATOR" }
      ],
      "geoPoint": { "lat": 45.67965, "lon": -111.03856 }
    },
    {
      "facility": "Benefis Sletten Cancer Institute",
      "status": "RECRUITING",
      "city": "Great Falls",
      "state": "Montana",
      "zip": "59405",
      "country": "United States",
      "contacts": [
        {
          "name": "Site Public Contact",
          "role": "CONTACT",
          "phone": "406-969-6060",
          "email": "mccinfo@mtcancer.org"
        },
        { "name": "John M. Schallenkamp", "role": "PRINCIPAL_INVESTIGATOR" }
      ],
      "geoPoint": { "lat": 47.50024, "lon": -111.30081 }
    },
    {
      "facility": "Nebraska Cancer Specialists/Oncology Hematology West PC - MECC",
      "status": "RECRUITING",
      "city": "Omaha",
      "state": "Nebraska",
      "zip": "68114",
      "country": "United States",
      "contacts": [
        {
          "name": "Site Public Contact",
          "role": "CONTACT",
          "phone": "402-334-4773"
        },
        { "name": "Tien-Shew W. Huang", "role": "PRINCIPAL_INVESTIGATOR" }
      ],
      "geoPoint": { "lat": 41.25626, "lon": -95.94043 }
    },
    {
      "facility": "Nebraska Methodist Hospital",
      "status": "RECRUITING",
      "city": "Omaha",
      "state": "Nebraska",
      "zip": "68114",
      "country": "United States",
      "contacts": [
        {
          "name": "Site Public Contact",
          "role": "CONTACT",
          "phone": "402-354-5144"
        },
        { "name": "Tien-Shew W. Huang", "role": "PRINCIPAL_INVESTIGATOR" }
      ],
      "geoPoint": { "lat": 41.25626, "lon": -95.94043 }
    },
    {
      "facility": "University of Nebraska Medical Center",
      "status": "ACTIVE_NOT_RECRUITING",
      "city": "Omaha",
      "state": "Nebraska",
      "zip": "68198",
      "country": "United States",
      "geoPoint": { "lat": 41.25626, "lon": -95.94043 }
    },
    {
      "facility": "Renown Regional Medical Center",
      "status": "RECRUITING",
      "city": "Reno",
      "state": "Nevada",
      "zip": "89502",
      "country": "United States",
      "contacts": [
        {
          "name": "Site Public Contact",
          "role": "CONTACT",
          "phone": "702-384-0013",
          "email": "research@sncrf.org"
        },
        { "name": "John A. Ellerton", "role": "PRINCIPAL_INVESTIGATOR" }
      ],
      "geoPoint": { "lat": 39.52963, "lon": -119.8138 }
    },
    {
      "facility": "Dartmouth Hitchcock Medical Center/Dartmouth Cancer Center",
      "status": "RECRUITING",
      "city": "Lebanon",
      "state": "New Hampshire",
      "zip": "03756",
      "country": "United States",
      "contacts": [
        {
          "name": "Site Public Contact",
          "role": "CONTACT",
          "phone": "800-639-6918",
          "email": "cancer.research.nurse@dartmouth.edu"
        },
        { "name": "Alexander D. Fuld", "role": "PRINCIPAL_INVESTIGATOR" }
      ],
      "geoPoint": { "lat": 43.64229, "lon": -72.25176 }
    },
    {
      "facility": "Cooper Hospital University Medical Center",
      "status": "ACTIVE_NOT_RECRUITING",
      "city": "Camden",
      "state": "New Jersey",
      "zip": "08103",
      "country": "United States",
      "geoPoint": { "lat": 39.92595, "lon": -75.11962 }
    },
    {
      "facility": "Capital Health Medical Center-Hopewell",
      "status": "RECRUITING",
      "city": "Pennington",
      "state": "New Jersey",
      "zip": "08534",
      "country": "United States",
      "contacts": [
        {
          "name": "Site Public Contact",
          "role": "CONTACT",
          "phone": "609-394-4130",
          "email": "clinicaltrials@capitalhealth.org"
        },
        { "name": "Nikhil Thaker", "role": "PRINCIPAL_INVESTIGATOR" }
      ],
      "geoPoint": { "lat": 40.32844, "lon": -74.79072 }
    },
    {
      "facility": "MD Anderson Cancer Center at Cooper-Voorhees",
      "status": "ACTIVE_NOT_RECRUITING",
      "city": "Voorhees Township",
      "state": "New Jersey",
      "zip": "08043",
      "country": "United States",
      "geoPoint": { "lat": 40.4795, "lon": -74.49062 }
    },
    {
      "facility": "Lovelace Medical Center-Saint Joseph Square",
      "status": "ACTIVE_NOT_RECRUITING",
      "city": "Albuquerque",
      "state": "New Mexico",
      "zip": "87102",
      "country": "United States",
      "geoPoint": { "lat": 35.08449, "lon": -106.65114 }
    },
    {
      "facility": "University of New Mexico Cancer Center",
      "status": "ACTIVE_NOT_RECRUITING",
      "city": "Albuquerque",
      "state": "New Mexico",
      "zip": "87106",
      "country": "United States",
      "geoPoint": { "lat": 35.08449, "lon": -106.65114 }
    },
    {
      "facility": "Lovelace Radiation Oncology",
      "status": "ACTIVE_NOT_RECRUITING",
      "city": "Albuquerque",
      "state": "New Mexico",
      "zip": "87109",
      "country": "United States",
      "geoPoint": { "lat": 35.08449, "lon": -106.65114 }
    },
    {
      "facility": "Hematology Oncology Associates of CNY at Camillus",
      "status": "RECRUITING",
      "city": "Camillus",
      "state": "New York",
      "zip": "13031",
      "country": "United States",
      "contacts": [
        {
          "name": "Site Public Contact",
          "role": "CONTACT",
          "phone": "315-472-7504"
        },
        { "name": "Steven M. Duffy", "role": "PRINCIPAL_INVESTIGATOR" }
      ],
      "geoPoint": { "lat": 43.03923, "lon": -76.3041 }
    },
    {
      "facility": "Sands Cancer Center",
      "status": "ACTIVE_NOT_RECRUITING",
      "city": "Canandaigua",
      "state": "New York",
      "zip": "14424",
      "country": "United States",
      "geoPoint": { "lat": 42.87423, "lon": -77.28804 }
    },
    {
      "facility": "Hematology Oncology Associates of Central New York-East Syracuse",
      "status": "RECRUITING",
      "city": "East Syracuse",
      "state": "New York",
      "zip": "13057",
      "country": "United States",
      "contacts": [
        {
          "name": "Site Public Contact",
          "role": "CONTACT",
          "phone": "315-472-7504"
        },
        { "name": "Steven M. Duffy", "role": "PRINCIPAL_INVESTIGATOR" }
      ],
      "geoPoint": { "lat": 43.06534, "lon": -76.07853 }
    },
    {
      "facility": "Mount Sinai Chelsea",
      "status": "ACTIVE_NOT_RECRUITING",
      "city": "New York",
      "state": "New York",
      "zip": "10011",
      "country": "United States",
      "geoPoint": { "lat": 40.71427, "lon": -74.00597 }
    },
    {
      "facility": "Mount Sinai West",
      "status": "ACTIVE_NOT_RECRUITING",
      "city": "New York",
      "state": "New York",
      "zip": "10019",
      "country": "United States",
      "geoPoint": { "lat": 40.71427, "lon": -74.00597 }
    },
    {
      "facility": "Mount Sinai Hospital",
      "status": "RECRUITING",
      "city": "New York",
      "state": "New York",
      "zip": "10029",
      "country": "United States",
      "contacts": [
        {
          "name": "Site Public Contact",
          "role": "CONTACT",
          "phone": "212-824-7309",
          "email": "CCTO@mssm.edu"
        },
        { "name": "Robert M. Samstein", "role": "PRINCIPAL_INVESTIGATOR" }
      ],
      "geoPoint": { "lat": 40.71427, "lon": -74.00597 }
    },
    {
      "facility": "Wilmot Cancer Institute Radiation Oncology at Greece",
      "status": "ACTIVE_NOT_RECRUITING",
      "city": "Rochester",
      "state": "New York",
      "zip": "14606",
      "country": "United States",
      "geoPoint": { "lat": 43.15478, "lon": -77.61556 }
    },
    {
      "facility": "University of Rochester",
      "status": "ACTIVE_NOT_RECRUITING",
      "city": "Rochester",
      "state": "New York",
      "zip": "14642",
      "country": "United States",
      "geoPoint": { "lat": 43.15478, "lon": -77.61556 }
    },
    {
      "facility": "Stony Brook University Medical Center",
      "status": "RECRUITING",
      "city": "Stony Brook",
      "state": "New York",
      "zip": "11794",
      "country": "United States",
      "contacts": [
        {
          "name": "Site Public Contact",
          "role": "CONTACT",
          "phone": "800-862-2215"
        },
        { "name": "Kartik M. Mani", "role": "PRINCIPAL_INVESTIGATOR" }
      ],
      "geoPoint": { "lat": 40.92565, "lon": -73.14094 }
    },
    {
      "facility": "State University of New York Upstate Medical University",
      "status": "RECRUITING",
      "city": "Syracuse",
      "state": "New York",
      "zip": "13210",
      "country": "United States",
      "contacts": [
        {
          "name": "Site Public Contact",
          "role": "CONTACT",
          "phone": "315-464-5476"
        },
        { "name": "Michael D. Mix", "role": "PRINCIPAL_INVESTIGATOR" }
      ],
      "geoPoint": { "lat": 43.04812, "lon": -76.14742 }
    },
    {
      "facility": "Montefiore Medical Center-Einstein Campus",
      "status": "ACTIVE_NOT_RECRUITING",
      "city": "The Bronx",
      "state": "New York",
      "zip": "10461",
      "country": "United States",
      "geoPoint": { "lat": 40.84985, "lon": -73.86641 }
    },
    {
      "facility": "Montefiore Medical Center-Weiler Hospital",
      "status": "ACTIVE_NOT_RECRUITING",
      "city": "The Bronx",
      "state": "New York",
      "zip": "10461",
      "country": "United States",
      "geoPoint": { "lat": 40.84985, "lon": -73.86641 }
    },
    {
      "facility": "Montefiore Medical Center - Moses Campus",
      "status": "ACTIVE_NOT_RECRUITING",
      "city": "The Bronx",
      "state": "New York",
      "zip": "10467",
      "country": "United States",
      "geoPoint": { "lat": 40.84985, "lon": -73.86641 }
    },
    {
      "facility": "Westchester Medical Center",
      "status": "RECRUITING",
      "city": "Valhalla",
      "state": "New York",
      "zip": "10595",
      "country": "United States",
      "contacts": [
        {
          "name": "Site Public Contact",
          "role": "CONTACT",
          "phone": "412-339-5294",
          "email": "Roster@nrgoncology.org"
        },
        { "name": "Aviva Berkowitz", "role": "PRINCIPAL_INVESTIGATOR" }
      ],
      "geoPoint": { "lat": 41.07482, "lon": -73.77513 }
    },
    {
      "facility": "Atrium Health Stanly/LCI-Albemarle",
      "status": "RECRUITING",
      "city": "Albemarle",
      "state": "North Carolina",
      "zip": "28002",
      "country": "United States",
      "contacts": [
        {
          "name": "Site Public Contact",
          "role": "CONTACT",
          "phone": "800-804-9376"
        },
        { "name": "John H. Heinzerling", "role": "PRINCIPAL_INVESTIGATOR" }
      ],
      "geoPoint": { "lat": 35.35014, "lon": -80.20006 }
    },
    {
      "facility": "Carolinas Medical Center/Levine Cancer Institute",
      "status": "RECRUITING",
      "city": "Charlotte",
      "state": "North Carolina",
      "zip": "28203",
      "country": "United States",
      "contacts": [
        {
          "name": "Site Public Contact",
          "role": "CONTACT",
          "phone": "800-804-9376"
        },
        { "name": "John H. Heinzerling", "role": "PRINCIPAL_INVESTIGATOR" }
      ],
      "geoPoint": { "lat": 35.22709, "lon": -80.84313 }
    },