{
  "nct_id": "NCT04402788",
  "official_title": "RAndomized Phase II/III Trial of Consolidation Radiation + Immunotherapy for ES-SCLC: RAPTOR Trial",
  "brief_title": "Testing the Addition of Radiation Therapy to the Usual Immune Therapy Treatment (Atezolizumab) for Extensive Stage Small Cell Lung Cancer, The RAPTOR Trial",
  "cancer_type_display": "A study for patients with extensive stage small cell lung cancer who have responded to initial chemotherapy and immunotherapy.",
  "cancer_tags": ["Extensive Stage Lung Small Cell Carcinoma"],
  "link_to_trial": "https://clinicaltrials.gov/study/NCT04402788",
  "phase": "Phase 2/Phase 3",
  "recruitment_status": "RECRUITING",
  "last_update_date": "2025-10-31",
  "enrollment": 138,
  "min_age": 18,
  "max_age": null,
  "sex": "ALL",
  "is_metastatic_allowed": true,
  "performance_status_scale": "ECOG",
  "performance_status_values": [0, 1, 2],
  "min_prior_lines": null,
  "max_prior_lines": null,
  "prior_treatments_required": [
    "4-6 cycles of etoposide/platinum (E/P) doublet plus atezolizumab"
  ],
  "prior_treatments_excluded": [
    "Prior radiotherapy in the thorax that would result in overlapping RT fields",
    "Prior immunotherapy that resulted in pneumonitis"
  ],
  "principal_investigator": "Quynh-Nhu Nguyen",
  "site_name": null,
  "contact_email": null,
  "contact_phone": null,
  "locations": [
    {
      "facility": "University of Alabama at Birmingham Cancer Center",
      "status": "ACTIVE_NOT_RECRUITING",
      "city": "Birmingham",
      "state": "Alabama",
      "zip": "35233",
      "country": "United States",
      "geoPoint": { "lat": 33.52066, "lon": -86.80249 }
    },
    {
      "facility": "Katmai Oncology Group",
      "status": "RECRUITING",
      "city": "Anchorage",
      "state": "Alaska",
      "zip": "99508",
      "country": "United States",
      "contacts": [
        {
          "name": "Site Public Contact",
          "role": "CONTACT",
          "phone": "907-212-6871",
          "email": "AKPAMC.OncologyResearchSupport@providence.org"
        },
        { "name": "Dan S. Zuckerman", "role": "PRINCIPAL_INVESTIGATOR" }
      ],
      "geoPoint": { "lat": 61.21806, "lon": -149.90028 }
    },
    {
      "facility": "Cancer Center at Saint Joseph's",
      "status": "RECRUITING",
      "city": "Phoenix",
      "state": "Arizona",
      "zip": "85004",
      "country": "United States",
      "contacts": [
        {
          "name": "Site Public Contact",
          "role": "CONTACT",
          "phone": "720-874-1881",
          "email": "ResearchInstituteInquiries@CommonSpirit.org"
        },
        { "name": "Shahzad Siddique", "role": "PRINCIPAL_INVESTIGATOR" }
      ],
      "geoPoint": { "lat": 33.44838, "lon": -112.07404 }
    },
    {
      "facility": "Mayo Clinic Hospital in Arizona",
      "status": "SUSPENDED",
      "city": "Phoenix",
      "state": "Arizona",
      "zip": "85054",
      "country": "United States",
      "geoPoint": { "lat": 33.44838, "lon": -112.07404 }
    },
    {
      "facility": "Mayo Clinic in Arizona",
      "status": "SUSPENDED",
      "city": "Scottsdale",
      "state": "Arizona",
      "zip": "85259",
      "country": "United States",
      "geoPoint": { "lat": 33.50921, "lon": -111.89903 }
    },
    {
      "facility": "Banner University Medical Center - Tucson",
      "status": "ACTIVE_NOT_RECRUITING",
      "city": "Tucson",
      "state": "Arizona",
      "zip": "85719",
      "country": "United States",
      "geoPoint": { "lat": 32.22174, "lon": -110.92648 }
    },
    {
      "facility": "University of Arizona Cancer Center-North Campus",
      "status": "ACTIVE_NOT_RECRUITING",
      "city": "Tucson",
      "state": "Arizona",
      "zip": "85719",
      "country": "United States",
      "geoPoint": { "lat": 32.22174, "lon": -110.92648 }
    },
    {
      "facility": "NEA Baptist Memorial Hospital and Fowler Family Cancer Center - Jonesboro",
      "status": "RECRUITING",
      "city": "Jonesboro",
      "state": "Arkansas",
      "zip": "72401",
      "country": "United States",
      "contacts": [
        {
          "name": "Site Public Contact",
          "role": "CONTACT",
          "phone": "870-936-7066",
          "email": "Emily.Carvell@bmhcc.org"
        },
        { "name": "Philip E. Lammers", "role": "PRINCIPAL_INVESTIGATOR" }
      ],
      "geoPoint": { "lat": 35.8423, "lon": -90.70428 }
    },
    {
      "facility": "UCI Health - Chao Family Comprehensive Cancer Center and Ambulatory Care",
      "status": "RECRUITING",
      "city": "Irvine",
      "state": "California",
      "zip": "92612",
      "country": "United States",
      "contacts": [
        {
          "name": "Site Public Contact",
          "role": "CONTACT",
          "phone": "877-827-8839",
          "email": "ucstudy@uci.edu"
        },
        { "name": "Jeremy P. Harris", "role": "PRINCIPAL_INVESTIGATOR" }
      ],
      "geoPoint": { "lat": 33.66946, "lon": -117.82311 }
    },
    {
      "facility": "UC Irvine Health/Chao Family Comprehensive Cancer Center",
      "status": "ACTIVE_NOT_RECRUITING",
      "city": "Orange",
      "state": "California",
      "zip": "92868",
      "country": "United States",
      "geoPoint": { "lat": 33.78779, "lon": -117.85311 }
    },
    {
      "facility": "Palo Alto Medical Foundation Health Care",
      "status": "RECRUITING",
      "city": "Palo Alto",
      "state": "California",
      "zip": "94301",
      "country": "United States",
      "contacts": [
        {
          "name": "Site Public Contact",
          "role": "CONTACT",
          "email": "clinicalresearch@sutterhealth.org"
        },
        { "name": "Christopher U. Jones", "role": "PRINCIPAL_INVESTIGATOR" }
      ],
      "geoPoint": { "lat": 37.44188, "lon": -122.14302 }
    },
    {
      "facility": "Sutter Cancer Centers Radiation Oncology Services-Roseville",
      "status": "RECRUITING",
      "city": "Roseville",
      "state": "California",
      "zip": "95661",
      "country": "United States",
      "contacts": [
        {
          "name": "Site Public Contact",
          "role": "CONTACT",
          "email": "clinicalresearch@sutterhealth.org"
        },
        { "name": "Christopher U. Jones", "role": "PRINCIPAL_INVESTIGATOR" }
      ],
      "geoPoint": { "lat": 38.75212, "lon": -121.28801 }
    },
    {
      "facility": "Sutter Medical Center Sacramento",
      "status": "RECRUITING",
      "city": "Sacramento",
      "state": "California",
      "zip": "95816",
      "country": "United States",
      "contacts": [
        {
          "name": "Site Public Contact",
          "role": "CONTACT",
          "email": "clinicalresearch@sutterhealth.org"
        },
        { "name": "Christopher U. Jones", "role": "PRINCIPAL_INVESTIGATOR" }
      ],
      "geoPoint": { "lat": 38.58157, "lon": -121.4944 }
    },
    {
      "facility": "California Pacific Medical Center-Pacific Campus",
      "status": "RECRUITING",
      "city": "San Francisco",
      "state": "California",
      "zip": "94115",
      "country": "United States",
      "contacts": [
        {
          "name": "Site Public Contact",
          "role": "CONTACT",
          "email": "clinicalresearch@sutterhealth.org"
        },
        { "name": "Christopher U. Jones", "role": "PRINCIPAL_INVESTIGATOR" }
      ],
      "geoPoint": { "lat": 37.77493, "lon": -122.41942 }
    },
    {
      "facility": "Palo Alto Medical Foundation-Sunnyvale",
      "status": "RECRUITING",
      "city": "Sunnyvale",
      "state": "California",
      "zip": "94086",
      "country": "United States",
      "contacts": [
        {
          "name": "Site Public Contact",
          "role": "CONTACT",
          "email": "clinicalresearch@sutterhealth.org"
        },
        { "name": "Christopher U. Jones", "role": "PRINCIPAL_INVESTIGATOR" }
      ],
      "geoPoint": { "lat": 37.36883, "lon": -122.03635 }
    },
    {
      "facility": "Penrose-Saint Francis Healthcare",
      "status": "SUSPENDED",
      "city": "Colorado Springs",
      "state": "Colorado",
      "zip": "80907",
      "country": "United States",
      "geoPoint": { "lat": 38.83388, "lon": -104.82136 }
    },
    {
      "facility": "Rocky Mountain Cancer Centers-Penrose",
      "status": "SUSPENDED",
      "city": "Colorado Springs",
      "state": "Colorado",
      "zip": "80907",
      "country": "United States",
      "geoPoint": { "lat": 38.83388, "lon": -104.82136 }
    },
    {
      "facility": "UCHealth Memorial Hospital Central",
      "status": "ACTIVE_NOT_RECRUITING",
      "city": "Colorado Springs",
      "state": "Colorado",
      "zip": "80909",
      "country": "United States",
      "geoPoint": { "lat": 38.83388, "lon": -104.82136 }
    },
    {
      "facility": "Memorial Hospital North",
      "status": "ACTIVE_NOT_RECRUITING",
      "city": "Colorado Springs",
      "state": "Colorado",
      "zip": "80920",
      "country": "United States",
      "geoPoint": { "lat": 38.83388, "lon": -104.82136 }
    },
    {
      "facility": "Poudre Valley Hospital",
      "status": "ACTIVE_NOT_RECRUITING",
      "city": "Fort Collins",
      "state": "Colorado",
      "zip": "80524",
      "country": "United States",
      "geoPoint": { "lat": 40.58526, "lon": -105.08442 }
    },
    {
      "facility": "Cancer Care and Hematology-Fort Collins",
      "status": "ACTIVE_NOT_RECRUITING",
      "city": "Fort Collins",
      "state": "Colorado",
      "zip": "80528",
      "country": "United States",
      "geoPoint": { "lat": 40.58526, "lon": -105.08442 }
    },
    {
      "facility": "UCHealth Greeley Hospital",
      "status": "ACTIVE_NOT_RECRUITING",
      "city": "Greeley",
      "state": "Colorado",
      "zip": "80631",
      "country": "United States",
      "geoPoint": { "lat": 40.42331, "lon": -104.70913 }
    },
    {
      "facility": "Medical Center of the Rockies",
      "status": "ACTIVE_NOT_RECRUITING",
      "city": "Loveland",
      "state": "Colorado",
      "zip": "80538",
      "country": "United States",
      "geoPoint": { "lat": 40.39776, "lon": -105.07498 }
    },
    {
      "facility": "Smilow Cancer Hospital Care Center-Fairfield",
      "status": "RECRUITING",
      "city": "Fairfield",
      "state": "Connecticut",
      "zip": "06824",
      "country": "United States",
      "contacts": [
        {
          "name": "Site Public Contact",
          "role": "CONTACT",
          "phone": "203-785-5702",
          "email": "canceranswers@yale.edu"
        },
        { "name": "Henry S. Park", "role": "PRINCIPAL_INVESTIGATOR" }
      ],
      "geoPoint": { "lat": 41.14121, "lon": -73.26373 }
    },
    {
      "facility": "Smilow Cancer Hospital Care Center at Greenwich",
      "status": "RECRUITING",
      "city": "Greenwich",
      "state": "Connecticut",
      "zip": "06830",
      "country": "United States",
      "contacts": [
        {
          "name": "Site Public Contact",
          "role": "CONTACT",
          "phone": "203-785-5702",
          "email": "canceranswers@yale.edu"
        },
        { "name": "Henry S. Park", "role": "PRINCIPAL_INVESTIGATOR" }
      ],
      "geoPoint": { "lat": 41.02649, "lon": -73.62846 }
    },
    {
      "facility": "Smilow Cancer Hospital Care Center - Guilford",
      "status": "RECRUITING",
      "city": "Guilford",
      "state": "Connecticut",
      "zip": "06437",
      "country": "United States",
      "contacts": [
        {
          "name": "Site Public Contact",
          "role": "CONTACT",
          "phone": "203-785-5702",
          "email": "canceranswers@yale.edu"
        },
        { "name": "Henry S. Park", "role": "PRINCIPAL_INVESTIGATOR" }
      ],
      "geoPoint": { "lat": 41.28899, "lon": -72.68176 }
    },
    {
      "facility": "Smilow Cancer Hospital-Hamden Care Center",
      "status": "RECRUITING",
      "city": "Hamden",
      "state": "Connecticut",
      "zip": "06518",
      "country": "United States",
      "contacts": [
        {
          "name": "Site Public Contact",
          "role": "CONTACT",
          "phone": "203-785-5702",
          "email": "canceranswers@yale.edu"
        },
        { "name": "Henry S. Park", "role": "PRINCIPAL_INVESTIGATOR" }
      ],
      "geoPoint": { "lat": 41.39593, "lon": -72.89677 }
    },
    {
      "facility": "Yale University",
      "status": "RECRUITING",
      "city": "New Haven",
      "state": "Connecticut",
      "zip": "06520",
      "country": "United States",
      "contacts": [
        {
          "name": "Site Public Contact",
          "role": "CONTACT",
          "phone": "203-785-5702",
          "email": "canceranswers@yale.edu"
        },
        { "name": "Henry S. Park", "role": "PRINCIPAL_INVESTIGATOR" }
      ],
      "geoPoint": { "lat": 41.30815, "lon": -72.92816 }
    },
    {
      "facility": "Yale-New Haven Hospital North Haven Medical Center",
      "status": "RECRUITING",
      "city": "North Haven",
      "state": "Connecticut",
      "zip": "06473",
      "country": "United States",
      "contacts": [
        {
          "name": "Site Public Contact",
          "role": "CONTACT",
          "phone": "203-785-5702",
          "email": "canceranswers@yale.edu"
        },
        { "name": "Henry S. Park", "role": "PRINCIPAL_INVESTIGATOR" }
      ],
      "geoPoint": { "lat": 41.39093, "lon": -72.85954 }
    },
    {
      "facility": "Smilow Cancer Hospital Care Center at Long Ridge",
      "status": "RECRUITING",
      "city": "Stamford",
      "state": "Connecticut",
      "zip": "06902",
      "country": "United States",
      "contacts": [
        {
          "name": "Site Public Contact",
          "role": "CONTACT",
          "phone": "203-785-5702",
          "email": "canceranswers@yale.edu"
        },
        { "name": "Henry S. Park", "role": "PRINCIPAL_INVESTIGATOR" }
      ],
      "geoPoint": { "lat": 41.05343, "lon": -73.53873 }
    },
    {
      "facility": "Smilow Cancer Hospital-Torrington Care Center",
      "status": "RECRUITING",
      "city": "Torrington",
      "state": "Connecticut",
      "zip": "06790",
      "country": "United States",
      "contacts": [
        {
          "name": "Site Public Contact",
          "role": "CONTACT",
          "phone": "203-785-5702",
          "email": "canceranswers@yale.edu"
        },
        { "name": "Henry S. Park", "role": "PRINCIPAL_INVESTIGATOR" }
      ],
      "geoPoint": { "lat": 41.80065, "lon": -73.12122 }
    },
    {
      "facility": "Smilow Cancer Hospital Care Center-Trumbull",
      "status": "RECRUITING",
      "city": "Trumbull",
      "state": "Connecticut",
      "zip": "06611",
      "country": "United States",
      "contacts": [
        {
          "name": "Site Public Contact",
          "role": "CONTACT",
          "phone": "203-785-5702",
          "email": "canceranswers@yale.edu"
        },
        { "name": "Henry S. Park", "role": "PRINCIPAL_INVESTIGATOR" }
      ],
      "geoPoint": { "lat": 41.24287, "lon": -73.20067 }
    },
    {
      "facility": "Smilow Cancer Hospital-Waterbury Care Center",
      "status": "RECRUITING",
      "city": "Waterbury",
      "state": "Connecticut",
      "zip": "06708",
      "country": "United States",
      "contacts": [
        {
          "name": "Site Public Contact",
          "role": "CONTACT",
          "phone": "203-785-5702",
          "email": "canceranswers@yale.edu"
        },
        { "name": "Henry S. Park", "role": "PRINCIPAL_INVESTIGATOR" }
      ],
      "geoPoint": { "lat": 41.55815, "lon": -73.0515 }
    },
    {
      "facility": "Smilow Cancer Hospital Care Center - Waterford",
      "status": "RECRUITING",
      "city": "Waterford",
      "state": "Connecticut",
      "zip": "06385",
      "country": "United States",
      "contacts": [
        {
          "name": "Site Public Contact",
          "role": "CONTACT",
          "phone": "203-785-5702",
          "email": "canceranswers@yale.edu"
        },
        { "name": "Henry S. Park", "role": "PRINCIPAL_INVESTIGATOR" }
      ],
      "geoPoint": { "lat": 41.3417, "lon": -72.13597 }
    },
    {
      "facility": "Beebe South Coastal Health Campus",
      "status": "RECRUITING",
      "city": "Millville",
      "state": "Delaware",
      "zip": "19967",
      "country": "United States",
      "contacts": [
        {
          "name": "Site Public Contact",
          "role": "CONTACT",
          "phone": "302-291-6730",
          "email": "research@beebehealthcare.org"
        },
        { "name": "Gregory A. Masters", "role": "PRINCIPAL_INVESTIGATOR" }
      ],
      "geoPoint": { "lat": 38.54956, "lon": -75.12324 }
    },
    {
      "facility": "Helen F Graham Cancer Center",
      "status": "RECRUITING",
      "city": "Newark",
      "state": "Delaware",
      "zip": "19713",
      "country": "United States",
      "contacts": [
        {
          "name": "Site Public Contact",
          "role": "CONTACT",
          "phone": "302-623-4450",
          "email": "lbarone@christianacare.org"
        },
        { "name": "Gregory A. Masters", "role": "PRINCIPAL_INVESTIGATOR" }
      ],
      "geoPoint": { "lat": 39.68372, "lon": -75.74966 }
    },
    {
      "facility": "Medical Oncology Hematology Consultants PA",
      "status": "RECRUITING",
      "city": "Newark",
      "state": "Delaware",
      "zip": "19713",
      "country": "United States",
      "contacts": [
        {
          "name": "Site Public Contact",
          "role": "CONTACT",
          "phone": "302-623-4450",
          "email": "lbarone@christianacare.org"
        },
        { "name": "Gregory A. Masters", "role": "PRINCIPAL_INVESTIGATOR" }
      ],
      "geoPoint": { "lat": 39.68372, "lon": -75.74966 }
    },
    {
      "facility": "Beebe Health Campus",
      "status": "RECRUITING",
      "city": "Rehoboth Beach",
      "state": "Delaware",
      "zip": "19971",
      "country": "United States",
      "contacts": [
        {
          "name": "Site Public Contact",
          "role": "CONTACT",
          "phone": "302-291-6730",
          "email": "research@beebehealthcare.org"
        },
        { "name": "Gregory A. Masters", "role": "PRINCIPAL_INVESTIGATOR" }
      ],
      "geoPoint": { "lat": 38.72095, "lon": -75.07601 }
    },
    {
      "facility": "Mount Sinai Comprehensive Cancer Center at Aventura",
      "status": "ACTIVE_NOT_RECRUITING",
      "city": "Aventura",
      "state": "Florida",
      "zip": "33180",
      "country": "United States",
      "geoPoint": { "lat": 25.95648, "lon": -80.13921 }
    },
    {
      "facility": "UM Sylvester Comprehensive Cancer Center at Coral Gables",
      "status": "RECRUITING",
      "city": "Coral Gables",
      "state": "Florida",
      "zip": "33146",
      "country": "United States",
      "contacts": [
        {
          "name": "Site Public Contact",
          "role": "CONTACT",
          "phone": "305-243-2647"
        },
        { "name": "Alan Libardi Dal Pra", "role": "PRINCIPAL_INVESTIGATOR" }
      ],
      "geoPoint": { "lat": 25.72149, "lon": -80.26838 }
    },
    {
      "facility": "UM Sylvester Comprehensive Cancer Center at Deerfield Beach",
      "status": "RECRUITING",
      "city": "Deerfield Beach",
      "state": "Florida",
      "zip": "33442",
      "country": "United States",
      "contacts": [
        {
          "name": "Site Public Contact",
          "role": "CONTACT",
          "phone": "305-243-2647"
        },
        { "name": "Alan Libardi Dal Pra", "role": "PRINCIPAL_INVESTIGATOR" }
      ],
      "geoPoint": { "lat": 26.31841, "lon": -80.09977 }
    },
    {
      "facility": "Mayo Clinic in Florida",
      "status": "WITHDRAWN",
      "city": "Jacksonville",
      "state": "Florida",
      "zip": "32224-9980",
      "country": "United States",
      "geoPoint": { "lat": 30.33218, "lon": -81.65565 }
    },
    {
      "facility": "University of Miami Miller School of Medicine-Sylvester Cancer Center",
      "status": "RECRUITING",
      "city": "Miami",
      "state": "Florida",
      "zip": "33136",
      "country": "United States",
      "contacts": [
        {
          "name": "Site Public Contact",
          "role": "CONTACT",
          "phone": "305-243-2647"
        },
        { "name": "Alan Libardi Dal Pra", "role": "PRINCIPAL_INVESTIGATOR" }
      ],
      "geoPoint": { "lat": 25.77427, "lon": -80.19366 }
    },
    {
      "facility": "Mount Sinai Medical Center",
      "status": "ACTIVE_NOT_RECRUITING",
      "city": "Miami Beach",
      "state": "Florida",
      "zip": "33140",
      "country": "United States",
      "geoPoint": { "lat": 25.79065, "lon": -80.13005 }
    },
    {
      "facility": "Orlando Health Cancer Institute",
      "status": "RECRUITING",
      "city": "Orlando",
      "state": "Florida",
      "zip": "32806",
      "country": "United States",
      "contacts": [
        {
          "name": "Site Public Contact",
          "role": "CONTACT",
          "phone": "321-841-7246",
          "email": "CancerClinicalTrials@orlandohealth.com"
        },
        { "name": "Jennifer E. Tseng", "role": "PRINCIPAL_INVESTIGATOR" }
      ],
      "geoPoint": { "lat": 28.53834, "lon": -81.37924 }
    },
    {
      "facility": "Cleveland Clinic-Weston",
      "status": "ACTIVE_NOT_RECRUITING",
      "city": "Weston",
      "state": "Florida",
      "zip": "33331",
      "country": "United States",
      "geoPoint": { "lat": 26.10037, "lon": -80.39977 }
    },
    {
      "facility": "Grady Health System",
      "status": "RECRUITING",
      "city": "Atlanta",
      "state": "Georgia",
      "zip": "30303",
      "country": "United States",
      "contacts": [
        {
          "name": "Site Public Contact",
          "role": "CONTACT",
          "phone": "404-778-1868"
        },
        { "name": "Sibo Tian", "role": "PRINCIPAL_INVESTIGATOR" }
      ],
      "geoPoint": { "lat": 33.749, "lon": -84.38798 }
    },
    {
      "facility": "Emory University Hospital Midtown",
      "status": "RECRUITING",
      "city": "Atlanta",
      "state": "Georgia",
      "zip": "30308",
      "country": "United States",
      "contacts": [
        {
          "name": "Site Public Contact",
          "role": "CONTACT",
          "phone": "888-946-7447"
        },
        { "name": "Sibo Tian", "role": "PRINCIPAL_INVESTIGATOR" }
      ],
      "geoPoint": { "lat": 33.749, "lon": -84.38798 }
    },
    {
      "facility": "Emory University Hospital/Winship Cancer Institute",
      "status": "RECRUITING",
      "city": "Atlanta",
      "state": "Georgia",
      "zip": "30322",
      "country": "United States",
      "contacts": [
        {
          "name": "Site Public Contact",
          "role": "CONTACT",
          "phone": "404-778-1868"
        },
        { "name": "Sibo Tian", "role": "PRINCIPAL_INVESTIGATOR" }
      ],
      "geoPoint": { "lat": 33.749, "lon": -84.38798 }
    },
    {
      "facility": "Emory Saint Joseph's Hospital",
      "status": "RECRUITING",
      "city": "Atlanta",
      "state": "Georgia",
      "zip": "30342",
      "country": "United States",
      "contacts": [
        {
          "name": "Site Public Contact",
          "role": "CONTACT",
          "phone": "404-851-7115"
        },
        { "name": "Sibo Tian", "role": "PRINCIPAL_INVESTIGATOR" }
      ],
      "geoPoint": { "lat": 33.749, "lon": -84.38798 }
    },
    {
      "facility": "CTCA at Southeastern Regional Medical Center",
      "status": "RECRUITING",
      "city": "Newnan",
      "state": "Georgia",
      "zip": "30265",
      "country": "United States",
      "contacts": [
        {
          "name": "Site Public Contact",
          "role": "CONTACT",
          "phone": "770-400-6629"
        },
        { "name": "Kristin A. Higgins", "role": "PRINCIPAL_INVESTIGATOR" }
      ],
      "geoPoint": { "lat": 33.38067, "lon": -84.79966 }
    },
    {
      "facility": "Memorial Health University Medical Center",
      "status": "SUSPENDED",
      "city": "Savannah",
      "state": "Georgia",
      "zip": "31404",
      "country": "United States",
      "geoPoint": { "lat": 32.08354, "lon": -81.09983 }
    },
    {
      "facility": "Lewis Cancer and Research Pavilion at Saint Joseph's/Candler",
      "status": "ACTIVE_NOT_RECRUITING",
      "city": "Savannah",
      "state": "Georgia",
      "zip": "31405",
      "country": "United States",
      "geoPoint": { "lat": 32.08354, "lon": -81.09983 }
    },
    {
      "facility": "Hawaii Cancer Care Inc - Waterfront Plaza",
      "status": "ACTIVE_NOT_RECRUITING",
      "city": "Honolulu",
      "state": "Hawaii",
      "zip": "96813",
      "country": "United States",
      "geoPoint": { "lat": 21.30694, "lon": -157.85833 }
    },
    {
      "facility": "Queen's Cancer Cenrer - POB I",
      "status": "ACTIVE_NOT_RECRUITING",
      "city": "Honolulu",
      "state": "Hawaii",
      "zip": "96813",
      "country": "United States",
      "geoPoint": { "lat": 21.30694, "lon": -157.85833 }
    },
    {
      "facility": "Queen's Medical Center",
      "status": "ACTIVE_NOT_RECRUITING",
      "city": "Honolulu",
      "state": "Hawaii",
      "zip": "96813",
      "country": "United States",
      "geoPoint": { "lat": 21.30694, "lon": -157.85833 }
    },
    {
      "facility": "Straub Clinic and Hospital",
      "status": "ACTIVE_NOT_RECRUITING",
      "city": "Honolulu",
      "state": "Hawaii",
      "zip": "96813",
      "country": "United States",
      "geoPoint": { "lat": 21.30694, "lon": -157.85833 }
    },
    {
      "facility": "University of Hawaii Cancer Center",
      "status": "ACTIVE_NOT_RECRUITING",
      "city": "Honolulu",
      "state": "Hawaii",
      "zip": "96813",
      "country": "United States",
      "geoPoint": { "lat": 21.30694, "lon": -157.85833 }
    },
    {
      "facility": "Hawaii Cancer Care Inc-Liliha",
      "status": "ACTIVE_NOT_RECRUITING",
      "city": "Honolulu",
      "state": "Hawaii",
      "zip": "96817",
      "country": "United States",
      "geoPoint": { "lat": 21.30694, "lon": -157.85833 }
    },
    {
      "facility": "Queen's Cancer Center - Kuakini",
      "status": "ACTIVE_NOT_RECRUITING",
      "city": "Honolulu",
      "state": "Hawaii",
      "zip": "96817",
      "country": "United States",
      "geoPoint": { "lat": 21.30694, "lon": -157.85833 }
    },
    {
      "facility": "The Cancer Center of Hawaii-Liliha",
      "status": "ACTIVE_NOT_RECRUITING",
      "city": "Honolulu",
      "state": "Hawaii",
      "zip": "96817",
      "country": "United States",
      "geoPoint": { "lat": 21.30694, "lon": -157.85833 }
    },
    {
      "facility": "Kapiolani Medical Center for Women and Children",
      "status": "ACTIVE_NOT_RECRUITING",
      "city": "Honolulu",
      "state": "Hawaii",
      "zip": "96826",
      "country": "United States",
      "geoPoint": { "lat": 21.30694, "lon": -157.85833 }
    },
    {
      "facility": "Wilcox Memorial Hospital and Kauai Medical Clinic",
      "status": "ACTIVE_NOT_RECRUITING",
      "city": "Lihue",
      "state": "Hawaii",
      "zip": "96766",
      "country": "United States",
      "geoPoint": { "lat": 21.98121, "lon": -159.3721 }
    },
    {
      "facility": "Hawaii Cancer Care - Westridge",
      "status": "ACTIVE_NOT_RECRUITING",
      "city": "‘Aiea",
      "state": "Hawaii",
      "zip": "96701",
      "country": "United States",
      "geoPoint": { "lat": 21.38222, "lon": -157.93361 }
    },
    {
      "facility": "Pali Momi Medical Center",
      "status": "ACTIVE_NOT_RECRUITING",
      "city": "‘Aiea",
      "state": "Hawaii",
      "zip": "96701",
      "country": "United States",
      "geoPoint": { "lat": 21.38222, "lon": -157.93361 }
    },
    {
      "facility": "Saint Alphonsus Cancer Care Center-Boise",
      "status": "RECRUITING",
      "city": "Boise",
      "state": "Idaho",
      "zip": "83706",
      "country": "United States",
      "contacts": [
        {
          "name": "Site Public Contact",
          "role": "CONTACT",
          "phone": "734-712-3671",
          "email": "stephanie.couch@stjoeshealth.org"
        },
        { "name": "Tareq Al baghdadi", "role": "PRINCIPAL_INVESTIGATOR" }
      ],
      "geoPoint": { "lat": 43.6135, "lon": -116.20345 }
    },
    {
      "facility": "Saint Luke's Cancer Institute - Boise",
      "status": "SUSPENDED",
      "city": "Boise",
      "state": "Idaho",
      "zip": "83712",
      "country": "United States",
      "geoPoint": { "lat": 43.6135, "lon": -116.20345 }
    },
    {
      "facility": "Saint Alphonsus Cancer Care Center-Caldwell",
      "status": "RECRUITING",
      "city": "Caldwell",
      "state": "Idaho",
      "zip": "83605",
      "country": "United States",
      "contacts": [
        {
          "name": "Site Public Contact",
          "role": "CONTACT",
          "phone": "734-712-3671",
          "email": "stephanie.couch@stjoeshealth.org"
        },
        { "name": "Tareq Al baghdadi", "role": "PRINCIPAL_INVESTIGATOR" }
      ],
      "geoPoint": { "lat": 43.66294, "lon": -116.68736 }
    },
    {
      "facility": "Saint Luke's Cancer Institute - Fruitland",
      "status": "SUSPENDED",
      "city": "Fruitland",
      "state": "Idaho",
      "zip": "83619",
      "country": "United States",
      "geoPoint": { "lat": 44.00766, "lon": -116.91655 }
    },
    {
      "facility": "Saint Luke's Cancer Institute - Meridian",
      "status": "SUSPENDED",
      "city": "Meridian",
      "state": "Idaho",
      "zip": "83642",
      "country": "United States",
      "geoPoint": { "lat": 43.61211, "lon": -116.39151 }
    },
    {
      "facility": "Saint Alphonsus Cancer Care Center-Nampa",
      "status": "RECRUITING",
      "city": "Nampa",
      "state": "Idaho",
      "zip": "83687",
      "country": "United States",
      "contacts": [
        {
          "name": "Site Public Contact",
          "role": "CONTACT",
          "phone": "406-969-6060",
          "email": "mccinfo@mtcancer.org"
        },
        { "name": "Tareq Al baghdadi", "role": "PRINCIPAL_INVESTIGATOR" }
      ],
      "geoPoint": { "lat": 43.54072, "lon": -116.56346 }
    },
    {
      "facility": "Saint Luke's Cancer Institute - Nampa",
      "status": "SUSPENDED",
      "city": "Nampa",
      "state": "Idaho",
      "zip": "83687",
      "country": "United States",
      "geoPoint": { "lat": 43.54072, "lon": -116.56346 }
    },
    {
      "facility": "Saint Luke's Cancer Institute - Twin Falls",
      "status": "SUSPENDED",
      "city": "Twin Falls",
      "state": "Idaho",
      "zip": "83301",
      "country": "United States",
      "geoPoint": { "lat": 42.56297, "lon": -114.46087 }
    },
    {
      "facility": "Illinois CancerCare-Bloomington",
      "status": "ACTIVE_NOT_RECRUITING",
      "city": "Bloomington",
      "state": "Illinois",
      "zip": "61704",
      "country": "United States",
      "geoPoint": { "lat": 40.4842, "lon": -88.99369 }
    },
    {
      "facility": "Illinois CancerCare-Canton",
      "status": "ACTIVE_NOT_RECRUITING",
      "city": "Canton",
      "state": "Illinois",
      "zip": "61520",
      "country": "United States",
      "geoPoint": { "lat": 40.55809, "lon": -90.03512 }
    },
    {
      "facility": "Illinois CancerCare-Carthage",
      "status": "ACTIVE_NOT_RECRUITING",
      "city": "Carthage",
      "state": "Illinois",
      "zip": "62321",
      "country": "United States",
      "geoPoint": { "lat": 40.41643, "lon": -91.13625 }
    },
    {
      "facility": "Centralia Oncology Clinic",
      "status": "SUSPENDED",
      "city": "Centralia",
      "state": "Illinois",
      "zip": "62801",
      "country": "United States",
      "geoPoint": { "lat": 38.52505, "lon": -89.1334 }
    },
    {
      "facility": "University of Illinois",
      "status": "RECRUITING",
      "city": "Chicago",
      "state": "Illinois",
      "zip": "60612",
      "country": "United States",
      "contacts": [
        {
          "name": "Site Public Contact",
          "role": "CONTACT",
          "phone": "312-355-3046"
        },
        { "name": "Matthew Koshy", "role": "PRINCIPAL_INVESTIGATOR" }
      ],
      "geoPoint": { "lat": 41.85003, "lon": -87.65005 }
    },
    {
      "facility": "Carle at The Riverfront",
      "status": "RECRUITING",
      "city": "Danville",
      "state": "Illinois",
      "zip": "61832",
      "country": "United States",
      "contacts": [
        {
          "name": "Site Public Contact",
          "role": "CONTACT",
          "phone": "800-446-5532",
          "email": "Research@Carle.com"
        },
        { "name": "Sinisa Stanic", "role": "PRINCIPAL_INVESTIGATOR" }
      ],
      "geoPoint": { "lat": 40.12448, "lon": -87.63002 }
    },
    {
      "facility": "Cancer Care Specialists of Illinois - Decatur",
      "status": "SUSPENDED",
      "city": "Decatur",
      "state": "Illinois",
      "zip": "62526",
      "country": "United States",
      "geoPoint": { "lat": 39.84031, "lon": -88.9548 }
    },
    {
      "facility": "Decatur Memorial Hospital",
      "status": "RECRUITING",
      "city": "Decatur",
      "state": "Illinois",
      "zip": "62526",
      "country": "United States",
      "contacts": [
        {
          "name": "Site Public Contact",
          "role": "CONTACT",
          "phone": "217-876-4762",
          "email": "morganthaler.jodi@mhsil.com"
        },
        { "name": "Bryan A. Faller", "role": "PRINCIPAL_INVESTIGATOR" }
      ],
      "geoPoint": { "lat": 39.84031, "lon": -88.9548 }
    },
    {
      "facility": "Carle Physician Group-Effingham",
      "status": "RECRUITING",
      "city": "Effingham",
      "state": "Illinois",
      "zip": "62401",
      "country": "United States",
      "contacts": [
        {
          "name": "Site Public Contact",
          "role": "CONTACT",
          "phone": "800-446-5532",
          "email": "Research@carle.com"
        },
        { "name": "Sinisa Stanic", "role": "PRINCIPAL_INVESTIGATOR" }
      ],
      "geoPoint": { "lat": 39.12004, "lon": -88.54338 }
    },
    {
      "facility": "Crossroads Cancer Center",
      "status": "RECRUITING",
      "city": "Effingham",
      "state": "Illinois",
      "zip": "62401",
      "country": "United States",
      "contacts": [
        {
          "name": "Site Public Contact",
          "role": "CONTACT",
          "phone": "217-876-4762",
          "email": "morganthaler.jodi@mhsil.com"
        },
        { "name": "Bryan A. Faller", "role": "PRINCIPAL_INVESTIGATOR" }
      ],
      "geoPoint": { "lat": 39.12004, "lon": -88.54338 }
    },
    {
      "facility": "Elmhurst Memorial Hospital",
      "status": "RECRUITING",
      "city": "Elmhurst",
      "state": "Illinois",
      "zip": "60126",
      "country": "United States",
      "contacts": [
        {
          "name": "Site Public Contact",
          "role": "CONTACT",
          "phone": "630-758-5460",
          "email": "Jrohde@emhc.org"
        },
        { "name": "Maria I. Quejada", "role": "PRINCIPAL_INVESTIGATOR" }
      ],
      "geoPoint": { "lat": 41.89947, "lon": -87.94034 }
    },
    {
      "facility": "Illinois CancerCare-Eureka",
      "status": "ACTIVE_NOT_RECRUITING",
      "city": "Eureka",
      "state": "Illinois",
      "zip": "61530",
      "country": "United States",
      "geoPoint": { "lat": 40.72143, "lon": -89.27286 }
    },
    {
      "facility": "Illinois CancerCare-Galesburg",
      "status": "ACTIVE_NOT_RECRUITING",
      "city": "Galesburg",
      "state": "Illinois",
      "zip": "61401",
      "country": "United States",
      "geoPoint": { "lat": 40.94782, "lon": -90.37124 }
    },
    {
      "facility": "Western Illinois Cancer Treatment Center",
      "status": "ACTIVE_NOT_RECRUITING",
      "city": "Galesburg",
      "state": "Illinois",
      "zip": "61401",
      "country": "United States",
      "geoPoint": { "lat": 40.94782, "lon": -90.37124 }
    },
    {
      "facility": "Illinois CancerCare-Kewanee Clinic",
      "status": "ACTIVE_NOT_RECRUITING",
      "city": "Kewanee",
      "state": "Illinois",
      "zip": "61443",
      "country": "United States",
      "geoPoint": { "lat": 41.24559, "lon": -89.92483 }
    },
    {
      "facility": "Illinois CancerCare-Macomb",
      "status": "ACTIVE_NOT_RECRUITING",
      "city": "Macomb",
      "state": "Illinois",
      "zip": "61455",
      "country": "United States",
      "geoPoint": { "lat": 40.45921, "lon": -90.6718 }
    },
    {
      "facility": "Carle Physician Group-Mattoon/Charleston",
      "status": "RECRUITING",
      "city": "Mattoon",
      "state": "Illinois",
      "zip": "61938",
      "country": "United States",
      "contacts": [
        {
          "name": "Site Public Contact",
          "role": "CONTACT",
          "phone": "800-446-5532",
          "email": "Research@carle.com"
        },
        { "name": "Sinisa Stanic", "role": "PRINCIPAL_INVESTIGATOR" }
      ],
      "geoPoint": { "lat": 39.48309, "lon": -88.37283 }
    },
    {
      "facility": "Edward Hospital/Cancer Center",
      "status": "RECRUITING",
      "city": "Naperville",
      "state": "Illinois",
      "zip": "60540",
      "country": "United States",
      "contacts": [
        {
          "name": "Site Public Contact",
          "role": "CONTACT",
          "phone": "630-646-6075"
        },
        { "name": "Maria I. Quejada", "role": "PRINCIPAL_INVESTIGATOR" }
      ],
      "geoPoint": { "lat": 41.78586, "lon": -88.14729 }
    },
    {
      "facility": "Cancer Care Center of O'Fallon",
      "status": "SUSPENDED",
      "city": "O'Fallon",
      "state": "Illinois",
      "zip": "62269",
      "country": "United States",
      "geoPoint": { "lat": 38.59227, "lon": -89.91121 }
    },
    {
      "facility": "HSHS Saint Elizabeth's Hospital",
      "status": "RECRUITING",
      "city": "O'Fallon",
      "state": "Illinois",
      "zip": "62269",
      "country": "United States",
      "contacts": [
        {
          "name": "Site Public Contact",
          "role": "CONTACT",
          "phone": "217-876-4762",
          "email": "morganthaler.jodi@mhsil.com"
        },
        { "name": "Bryan A. Faller", "role": "PRINCIPAL_INVESTIGATOR" }
      ],
      "geoPoint": { "lat": 38.59227, "lon": -89.91121 }
    },
    {
      "facility": "Illinois CancerCare-Ottawa Clinic",
      "status": "ACTIVE_NOT_RECRUITING",
      "city": "Ottawa",
      "state": "Illinois",
      "zip": "61350",
      "country": "United States",
      "geoPoint": { "lat": 41.34559, "lon": -88.84258 }
    },
    {
      "facility": "Illinois CancerCare-Pekin",
      "status": "ACTIVE_NOT_RECRUITING",
      "city": "Pekin",
      "state": "Illinois",
      "zip": "61554",
      "country": "United States",
      "geoPoint": { "lat": 40.56754, "lon": -89.64066 }
    },
    {
      "facility": "Illinois CancerCare-Peoria",
      "status": "ACTIVE_NOT_RECRUITING",
      "city": "Peoria",
      "state": "Illinois",
      "zip": "61615",
      "country": "United States",
      "geoPoint": { "lat": 40.69365, "lon": -89.58899 }
    },
    {
      "facility": "Methodist Medical Center of Illinois",
      "status": "ACTIVE_NOT_RECRUITING",
      "city": "Peoria",
      "state": "Illinois",
      "zip": "61636",
      "country": "United States",
      "geoPoint": { "lat": 40.69365, "lon": -89.58899 }
    },
    {
      "facility": "OSF Saint Francis Medical Center",
      "status": "ACTIVE_NOT_RECRUITING",
      "city": "Peoria",
      "state": "Illinois",
      "zip": "61637",
      "country": "United States",
      "geoPoint": { "lat": 40.69365, "lon": -89.58899 }
    },
    {
      "facility": "Illinois CancerCare-Peru",
      "status": "ACTIVE_NOT_RECRUITING",
      "city": "Peru",
      "state": "Illinois",
      "zip": "61354",
      "country": "United States",
      "geoPoint": { "lat": 41.32753, "lon": -89.12897 }
    },
    {
      "facility": "Edward Hospital/Cancer Center?Plainfield",
      "status": "RECRUITING",
      "city": "Plainfield",
      "state": "Illinois",
      "zip": "60585",
      "country": "United States",
      "contacts": [
        {
          "name": "Site Public Contact",
          "role": "CONTACT",
          "phone": "630-646-6075",
          "email": "Cancerresearch@edward.org"
        },
        { "name": "Maria I. Quejada", "role": "PRINCIPAL_INVESTIGATOR" }
      ],
      "geoPoint": { "lat": 41.62697, "lon": -88.20395 }
    },
    {
      "facility": "Illinois CancerCare-Princeton",
      "status": "ACTIVE_NOT_RECRUITING",
      "city": "Princeton",
      "state": "Illinois",
      "zip": "61356",
      "country": "United States",
      "geoPoint": { "lat": 41.36809, "lon": -89.46481 }
    },
    {
      "facility": "UW Health Carbone Cancer Center Rockford",
      "status": "RECRUITING",
      "city": "Rockford",
      "state": "Illinois",
      "zip": "61114",
      "country": "United States",
      "contacts": [
        {
          "name": "Site Public Contact",
          "role": "CONTACT",
          "phone": "779-696-9378",
          "email": "lkline@uwhealth.org"
        },
        { "name": "Fahrettin Covut", "role": "PRINCIPAL_INVESTIGATOR" }
      ],
      "geoPoint": { "lat": 42.27113, "lon": -89.094 }
    },
    {
      "facility": "Southern Illinois University School of Medicine",
      "status": "SUSPENDED",
      "city": "Springfield",
      "state": "Illinois",
      "zip": "62702",
      "country": "United States",
      "geoPoint": { "lat": 39.80172, "lon": -89.64371 }
    },
    {
      "facility": "Springfield Clinic",
      "status": "SUSPENDED",
      "city": "Springfield",
      "state": "Illinois",
      "zip": "62702",
      "country": "United States",
      "geoPoint": { "lat": 39.80172, "lon": -89.64371 }
    },
    {
      "facility": "Springfield Memorial Hospital",
      "status": "RECRUITING",
      "city": "Springfield",
      "state": "Illinois",
      "zip": "62781",
      "country": "United States",
      "contacts": [
        {
          "name": "Site Public Contact",
          "role": "CONTACT",
          "phone": "217-528-7541",
          "email": "pallante.beth@mhsil.com"
        },
        { "name": "Bryan A. Faller", "role": "PRINCIPAL_INVESTIGATOR" }
      ],
      "geoPoint": { "lat": 39.80172, "lon": -89.64371 }
    },
    {
      "facility": "Carle Cancer Center",
      "status": "RECRUITING",
      "city": "Urbana",
      "state": "Illinois",
      "zip": "61801",
      "country": "United States",
      "contacts": [
        {
          "name": "Site Public Contact",
          "role": "CONTACT",
          "phone": "800-446-5532",
          "email": "Research@carle.com"
        },
        { "name": "Sinisa Stanic", "role": "PRINCIPAL_INVESTIGATOR" }
      ],
      "geoPoint": { "lat": 40.11059, "lon": -88.20727 }
    },
    {
      "facility": "The Carle Foundation Hospital",
      "status": "SUSPENDED",
      "city": "Urbana",
      "state": "Illinois",
      "zip": "61801",
      "country": "United States",
      "geoPoint": { "lat": 40.11059, "lon": -88.20727 }
    },
    {
      "facility": "Illinois CancerCare - Washington",
      "status": "ACTIVE_NOT_RECRUITING",
      "city": "Washington",
      "state": "Illinois",
      "zip": "61571",
      "country": "United States",
      "geoPoint": { "lat": 40.70365, "lon": -89.40731 }
    },
    {
      "facility": "Northwest Cancer Center - Main Campus",
      "status": "RECRUITING",
      "city": "Crown Point",
      "state": "Indiana",
      "zip": "46307",
      "country": "United States",
      "contacts": [
        {
          "name": "Site Public Contact",
          "role": "CONTACT",
          "phone": "219-310-2550"
        },
        { "name": "Sinisa Stanic", "role": "PRINCIPAL_INVESTIGATOR" }
      ],
      "geoPoint": { "lat": 41.41698, "lon": -87.36531 }
    },
    {
      "facility": "Northwest Oncology LLC",
      "status": "RECRUITING",
      "city": "Dyer",
      "state": "Indiana",
      "zip": "46311",
      "country": "United States",
      "contacts": [
        {
          "name": "Site Public Contact",
          "role": "CONTACT",
          "phone": "219-924-8178"
        },
        { "name": "Sinisa Stanic", "role": "PRINCIPAL_INVESTIGATOR" }
      ],
      "geoPoint": { "lat": 41.4942, "lon": -87.52171 }
    },
    {
      "facility": "Northwest Cancer Center - Hobart",
      "status": "RECRUITING",
      "city": "Hobart",
      "state": "Indiana",
      "zip": "46342",
      "country": "United States",
      "contacts": [
        {
          "name": "Site Public Contact",
          "role": "CONTACT",
          "phone": "219-947-1795"
        },
        { "name": "Sinisa Stanic", "role": "PRINCIPAL_INVESTIGATOR" }
      ],
      "geoPoint": { "lat": 41.53226, "lon": -87.25504 }
    },
    {
      "facility": "Saint Mary Medical Center",
      "status": "RECRUITING",
      "city": "Hobart",
      "state": "Indiana",
      "zip": "46342",
      "country": "United States",
      "contacts": [
        {
          "name": "Site Public Contact",
          "role": "CONTACT",
          "phone": "219-836-6875",
          "email": "CancerResearch@COMHS.org"
        },
        { "name": "Sinisa Stanic", "role": "PRINCIPAL_INVESTIGATOR" }
      ],
      "geoPoint": { "lat": 41.53226, "lon": -87.25504 }
    },
    {
      "facility": "The Community Hospital",
      "status": "RECRUITING",
      "city": "Munster",
      "state": "Indiana",
      "zip": "46321",
      "country": "United States",
      "contacts": [
        {
          "name": "Site Public Contact",
          "role": "CONTACT",
          "phone": "219-836-3349"
        },
        { "name": "Sinisa Stanic", "role": "PRINCIPAL_INVESTIGATOR" }
      ],
      "geoPoint": { "lat": 41.56448, "lon": -87.51254 }
    },
    {
      "facility": "Women's Diagnostic Center - Munster",
      "status": "RECRUITING",
      "city": "Munster",
      "state": "Indiana",
      "zip": "46321",
      "country": "United States",
      "contacts": [
        {
          "name": "Site Public Contact",
          "role": "CONTACT",
          "phone": "219-934-8869",
          "email": "mnicholson@comhs.org"
        },
        { "name": "Sinisa Stanic", "role": "PRINCIPAL_INVESTIGATOR" }
      ],
      "geoPoint": { "lat": 41.56448, "lon": -87.51254 }
    },
    {
      "facility": "Baptist Health Floyd",
      "status": "RECRUITING",
      "city": "New Albany",
      "state": "Indiana",
      "zip": "47150",
      "country": "United States",
      "contacts": [
        {
          "name": "Site Public Contact",
          "role": "CONTACT",
          "phone": "412-339-5294",
          "email": "Roster@nrgoncology.org"
        },
        { "name": "Wangjian Zhong", "role": "PRINCIPAL_INVESTIGATOR" }
      ],
      "geoPoint": { "lat": 38.28562, "lon": -85.82413 }
    },
    {
      "facility": "Northwest Cancer Center - Valparaiso",
      "status": "RECRUITING",
      "city": "Valparaiso",
      "state": "Indiana",
      "zip": "46383",
      "country": "United States",
      "contacts": [
        {
          "name": "Site Public Contact",
          "role": "CONTACT",
          "phone": "219-836-6875",
          "email": "CancerResearch@COMHS.org"
        },
        { "name": "Sinisa Stanic", "role": "PRINCIPAL_INVESTIGATOR" }
      ],
      "geoPoint": { "lat": 41.47309, "lon": -87.06114 }
    },
    {
      "facility": "UI Health Care Mission Cancer and Blood - Ankeny Clinic",
      "status": "RECRUITING",
      "city": "Ankeny",
      "state": "Iowa",
      "zip": "50023",
      "country": "United States",
      "contacts": [
        {
          "name": "Site Public Contact",
          "role": "CONTACT",
          "phone": "515-241-3305"
        },
        { "name": "Seema Harichand-Herdt", "role": "PRINCIPAL_INVESTIGATOR" }
      ],
      "geoPoint": { "lat": 41.72971, "lon": -93.60577 }
    },
    {
      "facility": "Physicians' Clinic of Iowa PC",
      "status": "RECRUITING",
      "city": "Cedar Rapids",
      "state": "Iowa",
      "zip": "52402",
      "country": "United States",
      "contacts": [
        {
          "name": "Site Public Contact",
          "role": "CONTACT",
          "phone": "319-297-2900"
        },
        { "name": "Bharat Jenigiri", "role": "PRINCIPAL_INVESTIGATOR" }
      ],
      "geoPoint": { "lat": 42.00833, "lon": -91.64407 }
    },
    {
      "facility": "Mercy Cancer Center-West Lakes",
      "status": "RECRUITING",
      "city": "Clive",
      "state": "Iowa",
      "zip": "50325",
      "country": "United States",
      "contacts": [
        {
          "name": "Site Public Contact",
          "role": "CONTACT",
          "phone": "515-358-6613",
          "email": "cancerresearch@mercydesmoines.org"
        },
        { "name": "Richard L. Deming", "role": "PRINCIPAL_INVESTIGATOR" }
      ],
      "geoPoint": { "lat": 41.60304, "lon": -93.72411 }
    },
    {
      "facility": "UI Health Care Mission Cancer and Blood - West Des Moines Clinic",
      "status": "RECRUITING",
      "city": "Clive",
      "state": "Iowa",
      "zip": "50325",
      "country": "United States",
      "contacts": [
        {
          "name": "Site Public Contact",
          "role": "CONTACT",
          "phone": "515-241-3305"
        },
        { "name": "Seema Harichand-Herdt", "role": "PRINCIPAL_INVESTIGATOR" }
      ],
      "geoPoint": { "lat": 41.60304, "lon": -93.72411 }
    },
    {
      "facility": "Heartland Oncology and Hematology LLP",
      "status": "RECRUITING",
      "city": "Council Bluffs",
      "state": "Iowa",
      "zip": "51503",
      "country": "United States",
      "contacts": [
        {
          "name": "Site Public Contact",
          "role": "CONTACT",
          "phone": "712-322-4136"
        },
        { "name": "Tien-Shew W. Huang", "role": "PRINCIPAL_INVESTIGATOR" }
      ],
      "geoPoint": { "lat": 41.26194, "lon": -95.86083 }
    },
    {
      "facility": "Methodist Jennie Edmundson Hospital",
      "status": "RECRUITING",
      "city": "Council Bluffs",
      "state": "Iowa",
      "zip": "51503",
      "country": "United States",
      "contacts": [
        {
          "name": "Site Public Contact",
          "role": "CONTACT",
          "phone": "402-354-7939",
          "email": "kathryn.bartz@nmhs.org"
        },
        { "name": "Tien-Shew W. Huang", "role": "PRINCIPAL_INVESTIGATOR" }
      ],
      "geoPoint": { "lat": 41.26194, "lon": -95.86083 }
    },
    {
      "facility": "Greater Regional Medical Center",
      "status": "RECRUITING",
      "city": "Creston",
      "state": "Iowa",
      "zip": "50801",
      "country": "United States",
      "contacts": [
        {
          "name": "Site Public Contact",
          "role": "CONTACT",
          "phone": "515-358-6613",
          "email": "cancerresearch@mercydesmoines.org"
        },
        { "name": "Richard L. Deming", "role": "PRINCIPAL_INVESTIGATOR" }
      ],
      "geoPoint": { "lat": 41.0586, "lon": -94.36135 }
    },
    {
      "facility": "Iowa Methodist Medical Center",
      "status": "RECRUITING",
      "city": "Des Moines",
      "state": "Iowa",
      "zip": "50309",
      "country": "United States",
      "contacts": [
        {
          "name": "Site Public Contact",
          "role": "CONTACT",
          "phone": "515-241-6727"
        },
        { "name": "Seema Harichand-Herdt", "role": "PRINCIPAL_INVESTIGATOR" }
      ],
      "geoPoint": { "lat": 41.60054, "lon": -93.60911 }
    },
    {
      "facility": "UI Health Care Mission Cancer and Blood - Des Moines Clinic",
      "status": "RECRUITING",
      "city": "Des Moines",
      "state": "Iowa",
      "zip": "50309",
      "country": "United States",
      "contacts": [
        {
          "name": "Site Public Contact",
          "role": "CONTACT",
          "phone": "515-241-3305"
        },
        { "name": "Seema Harichand-Herdt", "role": "PRINCIPAL_INVESTIGATOR" }
      ],
      "geoPoint": { "lat": 41.60054, "lon": -93.60911 }
    },
    {
      "facility": "Broadlawns Medical Center",
      "status": "RECRUITING",
      "city": "Des Moines",
      "state": "Iowa",
      "zip": "50314",
      "country": "United States",
      "contacts": [
        {
          "name": "Site Public Contact",
          "role": "CONTACT",
          "phone": "515-282-2200"
        },
        { "name": "Seema Harichand-Herdt", "role": "PRINCIPAL_INVESTIGATOR" }
      ],
      "geoPoint": { "lat": 41.60054, "lon": -93.60911 }
    },
    {
      "facility": "Mercy Medical Center - Des Moines",
      "status": "RECRUITING",
      "city": "Des Moines",
      "state": "Iowa",
      "zip": "50314",
      "country": "United States",
      "contacts": [
        {
          "name": "Site Public Contact",
          "role": "CONTACT",
          "phone": "515-358-6613",
          "email": "cancerresearch@mercydesmoines.org"
        },
        { "name": "Richard L. Deming", "role": "PRINCIPAL_INVESTIGATOR" }
      ],
      "geoPoint": { "lat": 41.60054, "lon": -93.60911 }
    },
    {
      "facility": "UI Health Care Mission Cancer and Blood - Laurel Clinic",
      "status": "RECRUITING",
      "city": "Des Moines",
      "state": "Iowa",
      "zip": "50314",
      "country": "United States",
      "contacts": [
        {
          "name": "Site Public Contact",
          "role": "CONTACT",
          "phone": "515-241-3305"
        },
        { "name": "Seema Harichand-Herdt", "role": "PRINCIPAL_INVESTIGATOR" }
      ],
      "geoPoint": { "lat": 41.60054, "lon": -93.60911 }
    },
    {
      "facility": "Iowa Lutheran Hospital",
      "status": "SUSPENDED",
      "city": "Des Moines",
      "state": "Iowa",
      "zip": "50316",
      "country": "United States",
      "geoPoint": { "lat": 41.60054, "lon": -93.60911 }
    },
    {
      "facility": "UI Health Care Mission Cancer and Blood - Waukee Clinic",
      "status": "RECRUITING",
      "city": "Waukee",
      "state": "Iowa",
      "zip": "50263",
      "country": "United States",
      "contacts": [
        {
          "name": "Site Public Contact",
          "role": "CONTACT",
          "phone": "515-241-3305"
        },
        { "name": "Seema Harichand-Herdt", "role": "PRINCIPAL_INVESTIGATOR" }
      ],
      "geoPoint": { "lat": 41.61166, "lon": -93.88523 }
    },
    {
      "facility": "Methodist West Hospital",
      "status": "SUSPENDED",
      "city": "West Des Moines",
      "state": "Iowa",
      "zip": "50266-7700",
      "country": "United States",
      "geoPoint": { "lat": 41.57721, "lon": -93.71133 }
    },
    {
      "facility": "Mercy Medical Center-West Lakes",
      "status": "RECRUITING",
      "city": "West Des Moines",
      "state": "Iowa",
      "zip": "50266",
      "country": "United States",
      "contacts": [
        {
          "name": "Site Public Contact",
          "role": "CONTACT",
          "phone": "515-358-6613",
          "email": "cancerresearch@mercydesmoines.org"
        },
        { "name": "Richard L. Deming", "role": "PRINCIPAL_INVESTIGATOR" }
      ],
      "geoPoint": { "lat": 41.57721, "lon": -93.71133 }
    },
    {
      "facility": "Ascension Via Christi Hospitals Wichita",
      "status": "RECRUITING",
      "city": "Wichita",
      "state": "Kansas",
      "zip": "67214",
      "country": "United States",
      "contacts": [
        {
          "name": "Site Public Contact",
          "role": "CONTACT",
          "phone": "316-291-4774",
          "email": "research@viachristi.org"
        },
        { "name": "Dennis F. Moore", "role": "PRINCIPAL_INVESTIGATOR" }
      ],
      "geoPoint": { "lat": 37.69224, "lon": -97.33754 }
    },
    {
      "facility": "Saint Joseph Hospital East",
      "status": "RECRUITING",
      "city": "Lexington",
      "state": "Kentucky",
      "zip": "40509",
      "country": "United States",
      "contacts": [
        {
          "name": "Site Public Contact",
          "role": "CONTACT",
          "phone": "720-874-1881",
          "email": "ResearchInstituteInquiries@CommonSpirit.org"
        },
        { "name": "Shahzad Siddique", "role": "PRINCIPAL_INVESTIGATOR" }
      ],
      "geoPoint": { "lat": 37.98869, "lon": -84.47772 }
    },
    {
      "facility": "Norton Hospital Pavilion and Medical Campus",
      "status": "ACTIVE_NOT_RECRUITING",
      "city": "Louisville",
      "state": "Kentucky",
      "zip": "40202",
      "country": "United States",
      "geoPoint": { "lat": 38.25424, "lon": -85.75941 }
    },
    {
      "facility": "The James Graham Brown Cancer Center at University of Louisville",
      "status": "RECRUITING",
      "city": "Louisville",
      "state": "Kentucky",
      "zip": "40202",
      "country": "United States",
      "contacts": [
        {
          "name": "Site Public Contact",
          "role": "CONTACT",
          "phone": "502-562-3429"
        },
        { "name": "Neal E. Dunlap", "role": "PRINCIPAL_INVESTIGATOR" }
      ],
      "geoPoint": { "lat": 38.25424, "lon": -85.75941 }
    },
    {
      "facility": "Baptist Health Louisville",
      "status": "RECRUITING",
      "city": "Louisville",
      "state": "Kentucky",
      "zip": "40207",
      "country": "United States",
      "contacts": [
        {
          "name": "Site Public Contact",
          "role": "CONTACT",
          "phone": "502-897-8592",
          "email": "Cbcresearch@bhsi.com"
        },
        { "name": "Wangjian Zhong", "role": "PRINCIPAL_INVESTIGATOR" }
      ],
      "geoPoint": { "lat": 38.25424, "lon": -85.75941 }
    },
    {
      "facility": "Norton Audubon Hospital and Medical Campus",
      "status": "ACTIVE_NOT_RECRUITING",
      "city": "Louisville",
      "state": "Kentucky",
      "zip": "40217",
      "country": "United States",
      "geoPoint": { "lat": 38.25424, "lon": -85.75941 }
    },
    {
      "facility": "Norton Brownsboro Hospital and Medical Campus",
      "status": "ACTIVE_NOT_RECRUITING",
      "city": "Louisville",
      "state": "Kentucky",
      "zip": "40241",
      "country": "United States",
      "geoPoint": { "lat": 38.25424, "lon": -85.75941 }
    },
    {
      "facility": "UofL Health Medical Center Northeast",
      "status": "RECRUITING",
      "city": "Louisville",
      "state": "Kentucky",
      "zip": "40245",
      "country": "United States",
      "contacts": [
        {
          "name": "Site Public Contact",
          "role": "CONTACT",
          "phone": "502-852-2755",
          "email": "ctoinfo@louisville.edu"
        },
        { "name": "Neal E. Dunlap", "role": "PRINCIPAL_INVESTIGATOR" }
      ],
      "geoPoint": { "lat": 38.25424, "lon": -85.75941 }
    },
    {
      "facility": "MaineHealth Coastal Cancer Treatment Center",
      "status": "RECRUITING",
      "city": "Bath",
      "state": "Maine",
      "zip": "04530",
      "country": "United States",
      "contacts": [
        {
          "name": "Site Public Contact",
          "role": "CONTACT",
          "phone": "412-339-5294",
          "email": "Roster@nrgoncology.org"
        },
        { "name": "Vatche Tchekmedyian", "role": "PRINCIPAL_INVESTIGATOR" }
      ],
      "geoPoint": { "lat": 43.91064, "lon": -69.8206 }
    },
    {
      "facility": "MaineHealth Maine Medical Center - Portland",
      "status": "RECRUITING",
      "city": "Portland",
      "state": "Maine",
      "zip": "04102",
      "country": "United States",
      "contacts": [
        {
          "name": "Site Public Contact",
          "role": "CONTACT",
          "phone": "207-396-8670",
          "email": "clinicalresearch@mainehealth.org"
        },
        { "name": "Vatche Tchekmedyian", "role": "PRINCIPAL_INVESTIGATOR" }
      ],
      "geoPoint": { "lat": 43.65737, "lon": -70.2589 }
    },
    {
      "facility": "MaineHealth Cancer Care Center of York County",
      "status": "RECRUITING",
      "city": "Sanford",
      "state": "Maine",
      "zip": "04073",
      "country": "United States",
      "contacts": [
        {
          "name": "Site Public Contact",
          "role": "CONTACT",
          "phone": "207-459-1600"
        },
        { "name": "Vatche Tchekmedyian", "role": "PRINCIPAL_INVESTIGATOR" }
      ],
      "geoPoint": { "lat": 43.43925, "lon": -70.77422 }
    },
    {
      "facility": "MaineHealth Maine Medical Center- Scarborough",
      "status": "RECRUITING",
      "city": "Scarborough",
      "state": "Maine",
      "zip": "04074",
      "country": "United States",
      "contacts": [
        {
          "name": "Site Public Contact",
          "role": "CONTACT",
          "phone": "207-396-8670",
          "email": "clinicalresearch@mainehealth.org"
        },
        { "name": "Vatche Tchekmedyian", "role": "PRINCIPAL_INVESTIGATOR" }
      ],
      "geoPoint": { "lat": 43.57814, "lon": -70.32172 }
    },
    {
      "facility": "MaineHealth Cancer Care and IV Therapy - South Portland",
      "status": "RECRUITING",
      "city": "South Portland",
      "state": "Maine",
      "zip": "04106",
      "country": "United States",
      "contacts": [
        {
          "name": "Site Public Contact",
          "role": "CONTACT",
          "phone": "207-396-8670",
          "email": "clinicalresearch@mainehealth.org"
        },
        { "name": "Vatche Tchekmedyian", "role": "PRINCIPAL_INVESTIGATOR" }
      ],
      "geoPoint": { "lat": 43.64147, "lon": -70.24088 }
    },
    {
      "facility": "University of Maryland/Greenebaum Cancer Center",
      "status": "ACTIVE_NOT_RECRUITING",
      "city": "Baltimore",
      "state": "Maryland",
      "zip": "21201",
      "country": "United States",
      "geoPoint": { "lat": 39.29038, "lon": -76.61219 }
    },
    {
      "facility": "UM Upper Chesapeake Medical Center",
      "status": "ACTIVE_NOT_RECRUITING",
      "city": "Bel Air",
      "state": "Maryland",
      "zip": "21014",
      "country": "United States",
      "geoPoint": { "lat": 39.53594, "lon": -76.34829 }
    },
    {
      "facility": "Central Maryland Radiation Oncology in Howard County",
      "status": "ACTIVE_NOT_RECRUITING",
      "city": "Columbia",
      "state": "Maryland",
      "zip": "21044",
      "country": "United States",
      "geoPoint": { "lat": 39.24038, "lon": -76.83942 }
    },
    {
      "facility": "UM Baltimore Washington Medical Center/Tate Cancer Center",
      "status": "ACTIVE_NOT_RECRUITING",
      "city": "Glen Burnie",
      "state": "Maryland",
      "zip": "21061",
      "country": "United States",
      "geoPoint": { "lat": 39.16261, "lon": -76.62469 }
    },
    {
      "facility": "Boston Medical Center",
      "status": "RECRUITING",
      "city": "Boston",
      "state": "Massachusetts",
      "zip": "02118",
      "country": "United States",
      "contacts": [
        {
          "name": "Site Public Contact",
          "role": "CONTACT",
          "phone": "617-638-8265"
        },
        { "name": "Umit Tapan", "role": "PRINCIPAL_INVESTIGATOR" }
      ],
      "geoPoint": { "lat": 42.35843, "lon": -71.05977 }
    },
    {
      "facility": "Lowell General Hospital",
      "status": "RECRUITING",
      "city": "Lowell",
      "state": "Massachusetts",
      "zip": "01854",
      "country": "United States",
      "contacts": [
        {
          "name": "Site Public Contact",
          "role": "CONTACT",
          "phone": "978-788-7084",
          "email": "ghincks@lowellgeneral.org"
        },
        { "name": "Ruchi Hamal", "role": "PRINCIPAL_INVESTIGATOR" }
      ],
      "geoPoint": { "lat": 42.63342, "lon": -71.31617 }
    },
    {
      "facility": "UMass Memorial Medical Center - University Campus",
      "status": "RECRUITING",
      "city": "Worcester",
      "state": "Massachusetts",
      "zip": "01655",
      "country": "United States",
      "contacts": [
        {
          "name": "Site Public Contact",
          "role": "CONTACT",
          "phone": "508-856-3216",
          "email": "cancer.research@umassmed.edu"
        },
        { "name": "William V. Walsh", "role": "PRINCIPAL_INVESTIGATOR" }
      ],
      "geoPoint": { "lat": 42.26259, "lon": -71.80229 }
    },
    {
      "facility": "Trinity Health IHA Medical Group Hematology Oncology - Brighton",
      "status": "RECRUITING",
      "city": "Brighton",
      "state": "Michigan",
      "zip": "48114",
      "country": "United States",
      "contacts": [
        {
          "name": "Site Public Contact",
          "role": "CONTACT",
          "phone": "734-712-7251",
          "email": "MCRCwebsitecontactform@stjoeshealth.org"
        },
        { "name": "Tareq Al baghdadi", "role": "PRINCIPAL_INVESTIGATOR" }
      ],
      "geoPoint": { "lat": 42.52948, "lon": -83.78022 }
    },
    {
      "facility": "Trinity Health Medical Center - Brighton",
      "status": "RECRUITING",
      "city": "Brighton",
      "state": "Michigan",
      "zip": "48114",
      "country": "United States",
      "contacts": [
        {
          "name": "Site Public Contact",
          "role": "CONTACT",
          "phone": "734-712-7251",
          "email": "MCRCwebsitecontactform@stjoeshealth.org"
        },
        { "name": "Tareq Al baghdadi", "role": "PRINCIPAL_INVESTIGATOR" }
      ],
      "geoPoint": { "lat": 42.52948, "lon": -83.78022 }
    },
    {
      "facility": "Trinity Health IHA Medical Group Hematology Oncology - Canton",
      "status": "RECRUITING",
      "city": "Canton",
      "state": "Michigan",
      "zip": "48188",
      "country": "United States",
      "contacts": [
        {
          "name": "Site Public Contact",
          "role": "CONTACT",
          "phone": "734-712-7251",
          "email": "MCRCwebsitecontactform@stjoeshealth.org"
        },
        { "name": "Tareq Al baghdadi", "role": "PRINCIPAL_INVESTIGATOR" }
      ],
      "geoPoint": { "lat": 42.30865, "lon": -83.48216 }
    },
    {
      "facility": "Trinity Health Medical Center - Canton",
      "status": "RECRUITING",
      "city": "Canton",
      "state": "Michigan",
      "zip": "48188",
      "country": "United States",
      "contacts": [
        {
          "name": "Site Public Contact",
          "role": "CONTACT",
          "phone": "734-712-7251",
          "email": "MCRCwebsitecontactform@stjoeshealth.org"
        },
        { "name": "Tareq Al baghdadi", "role": "PRINCIPAL_INVESTIGATOR" }
      ],
      "geoPoint": { "lat": 42.30865, "lon": -83.48216 }
    },
    {
      "facility": "Chelsea Hospital",
      "status": "RECRUITING",
      "city": "Chelsea",
      "state": "Michigan",
      "zip": "48118",
      "country": "United States",
      "contacts": [
        {
          "name": "Site Public Contact",
          "role": "CONTACT",
          "phone": "734-712-7251",
          "email": "MCRCwebsitecontactform@stjoeshealth.org"
        },
        { "name": "Tareq Al baghdadi", "role": "PRINCIPAL_INVESTIGATOR" }
      ],
      "geoPoint": { "lat": 42.31807, "lon": -84.02181 }
    },
    {
      "facility": "Trinity Health IHA Medical Group Hematology Oncology - Chelsea Hospital",
      "status": "RECRUITING",
      "city": "Chelsea",
      "state": "Michigan",
      "zip": "48118",
      "country": "United States",
      "contacts": [
        {
          "name": "Site Public Contact",
          "role": "CONTACT",
          "phone": "734-712-7251",
          "email": "MCRCwebsitecontactform@stjoeshealth.org"
        },
        { "name": "Tareq Al baghdadi", "role": "PRINCIPAL_INVESTIGATOR" }
      ],
      "geoPoint": { "lat": 42.31807, "lon": -84.02181 }
    },
    {
      "facility": "McLaren Cancer Institute-Clarkston",
      "status": "RECRUITING",
      "city": "Clarkston",
      "state": "Michigan",
      "zip": "48346",
      "country": "United States",
      "contacts": [
        {
          "name": "Site Public Contact",
          "role": "CONTACT",
          "phone": "313-576-9790",
          "email": "ctoadmin@karmanos.org"
        },
        { "name": "Brian K. Yeh", "role": "PRINCIPAL_INVESTIGATOR" }
      ],
      "geoPoint": { "lat": 42.73586, "lon": -83.41883 }
    },
    {
      "facility": "Wayne State University/Karmanos Cancer Institute",
      "status": "RECRUITING",
      "city": "Detroit",
      "state": "Michigan",
      "zip": "48201",
      "country": "United States",
      "contacts": [
        {
          "name": "Site Public Contact",
          "role": "CONTACT",
          "phone": "313-576-9790",
          "email": "ctoadmin@karmanos.org"
        },
        { "name": "Brian K. Yeh", "role": "PRINCIPAL_INVESTIGATOR" }
      ],
      "geoPoint": { "lat": 42.33143, "lon": -83.04575 }
    },
    {
      "facility": "Weisberg Cancer Treatment Center",
      "status": "RECRUITING",
      "city": "Farmington Hills",
      "state": "Michigan",
      "zip": "48334",
      "country": "United States",
      "contacts": [
        {
          "name": "Site Public Contact",
          "role": "CONTACT",
          "phone": "313-576-9790",
          "email": "ctoadmin@karmanos.org"
        },
        { "name": "Brian K. Yeh", "role": "PRINCIPAL_INVESTIGATOR" }
      ],
      "geoPoint": { "lat": 42.48531, "lon": -83.37716 }
    },
    {
      "facility": "Genesys Hurley Cancer Institute",
      "status": "RECRUITING",
      "city": "Flint",
      "state": "Michigan",
      "zip": "48503",
      "country": "United States",
      "contacts": [
        {
          "name": "Site Public Contact",
          "role": "CONTACT",
          "phone": "810-762-8038",
          "email": "wstrong@ghci.org"
        },
        { "name": "Tareq Al baghdadi", "role": "PRINCIPAL_INVESTIGATOR" }
      ],
      "geoPoint": { "lat": 43.01253, "lon": -83.68746 }
    },
    {
      "facility": "Hurley Medical Center",
      "status": "RECRUITING",
      "city": "Flint",
      "state": "Michigan",
      "zip": "48503",
      "country": "United States",
      "contacts": [
        {
          "name": "Site Public Contact",
          "role": "CONTACT",
          "phone": "810-762-8038",
          "email": "wstrong@ghci.org"
        },
        { "name": "Tareq Al baghdadi", "role": "PRINCIPAL_INVESTIGATOR" }
      ],
      "geoPoint": { "lat": 43.01253, "lon": -83.68746 }
    },
    {
      "facility": "McLaren Cancer Institute-Flint",
      "status": "RECRUITING",
      "city": "Flint",
      "state": "Michigan",
      "zip": "48532",
      "country": "United States",
      "contacts": [
        {
          "name": "Site Public Contact",
          "role": "CONTACT",
          "phone": "313-576-9790",
          "email": "ctoadmin@karmanos.org"
        },
        { "name": "Brian K. Yeh", "role": "PRINCIPAL_INVESTIGATOR" }
      ],
      "geoPoint": { "lat": 43.01253, "lon": -83.68746 }
    },
    {
      "facility": "Bronson Methodist Hospital",
      "status": "RECRUITING",
      "city": "Kalamazoo",
      "state": "Michigan",
      "zip": "49007",
      "country": "United States",
      "contacts": [
        {
          "name": "Site Public Contact",
          "role": "CONTACT",
          "phone": "616-391-1230",
          "email": "crcwm-regulatory@crcwm.org"
        },
        { "name": "Kathleen Y. Butler", "role": "PRINCIPAL_INVESTIGATOR" }
      ],
      "geoPoint": { "lat": 42.29171, "lon": -85.58723 }
    },
    {
      "facility": "West Michigan Cancer Center",
      "status": "RECRUITING",
      "city": "Kalamazoo",
      "state": "Michigan",
      "zip": "49007",
      "country": "United States",
      "contacts": [
        {
          "name": "Site Public Contact",
          "role": "CONTACT",
          "phone": "616-391-1230",
          "email": "crcwm-regulatory@crcwm.org"
        },
        { "name": "Kathleen Y. Butler", "role": "PRINCIPAL_INVESTIGATOR" }
      ],
      "geoPoint": { "lat": 42.29171, "lon": -85.58723 }
    },
    {
      "facility": "Beacon Kalamazoo",
      "status": "SUSPENDED",
      "city": "Kalamazoo",
      "state": "Michigan",
      "zip": "49048",
      "country": "United States",
      "geoPoint": { "lat": 42.29171, "lon": -85.58723 }
    },
    {
      "facility": "Karmanos Cancer Institute at McLaren Greater Lansing",
      "status": "RECRUITING",
      "city": "Lansing",
      "state": "Michigan",
      "zip": "48910",
      "country": "United States",
      "contacts": [
        {
          "name": "Site Public Contact",
          "role": "CONTACT",
          "phone": "313-576-9790",
          "email": "ctoadmin@karmanos.org"
        },
        { "name": "Brian K. Yeh", "role": "PRINCIPAL_INVESTIGATOR" }
      ],
      "geoPoint": { "lat": 42.73253, "lon": -84.55553 }
    },
    {
      "facility": "University of Michigan Health - Sparrow Lansing",
      "status": "RECRUITING",
      "city": "Lansing",
      "state": "Michigan",
      "zip": "48912",
      "country": "United States",
      "contacts": [
        {
          "name": "Site Public Contact",
          "role": "CONTACT",
          "phone": "517-364-3712",
          "email": "harsha.trivedi@umhsparrow.org"
        },
        { "name": "Tareq Al baghdadi", "role": "PRINCIPAL_INVESTIGATOR" }
      ],
      "geoPoint": { "lat": 42.73253, "lon": -84.55553 }
    },
    {
      "facility": "McLaren Cancer Institute-Lapeer Region",
      "status": "RECRUITING",
      "city": "Lapeer",
      "state": "Michigan",
      "zip": "48446",
      "country": "United States",
      "contacts": [
        {
          "name": "Site Public Contact",
          "role": "CONTACT",
          "phone": "313-576-9790",
          "email": "ctoadmin@karmanos.org"
        },
        { "name": "Brian K. Yeh", "role": "PRINCIPAL_INVESTIGATOR" }
      ],
      "geoPoint": { "lat": 43.05142, "lon": -83.31883 }
    },
    {
      "facility": "Trinity Health Saint Mary Mercy Livonia Hospital",
      "status": "RECRUITING",
      "city": "Livonia",
      "state": "Michigan",
      "zip": "48154",
      "country": "United States",
      "contacts": [
        {
          "name": "Site Public Contact",
          "role": "CONTACT",
          "phone": "734-712-7251",
          "email": "MCRCwebsitecontactform@stjoeshealth.org"
        },
        { "name": "Tareq Al baghdadi", "role": "PRINCIPAL_INVESTIGATOR" }
      ],
      "geoPoint": { "lat": 42.36837, "lon": -83.35271 }
    },
    {
      "facility": "MyMichigan Medical Center Midland",
      "status": "SUSPENDED",
      "city": "Midland",
      "state": "Michigan",
      "zip": "48670",
      "country": "United States",
      "geoPoint": { "lat": 43.61558, "lon": -84.24721 }
    },
    {
      "facility": "McLaren Cancer Institute-Macomb",
      "status": "RECRUITING",
      "city": "Mount Clemens",
      "state": "Michigan",
      "zip": "48043",
      "country": "United States",
      "contacts": [
        {
          "name": "Site Public Contact",
          "role": "CONTACT",
          "phone": "313-576-9790",
          "email": "ctoadmin@karmanos.org"
        },
        { "name": "Brian K. Yeh", "role": "PRINCIPAL_INVESTIGATOR" }
      ],
      "geoPoint": { "lat": 42.59726, "lon": -82.87798 }
    },
    {
      "facility": "Henry Ford Health Providence Novi Hospital",
      "status": "RECRUITING",
      "city": "Novi",
      "state": "Michigan",
      "zip": "48374",
      "country": "United States",
      "contacts": [
        {
          "name": "Site Public Contact",
          "role": "CONTACT",
          "phone": "248-849-5332",
          "email": "kfife3@hfhs.org"
        },
        { "name": "Adam M. Forman", "role": "PRINCIPAL_INVESTIGATOR" }
      ],
      "geoPoint": { "lat": 42.48059, "lon": -83.47549 }
    },
    {
      "facility": "McLaren-Port Huron",
      "status": "RECRUITING",
      "city": "Port Huron",
      "state": "Michigan",
      "zip": "48060",
      "country": "United States",
      "contacts": [
        {
          "name": "Site Public Contact",
          "role": "CONTACT",
          "phone": "313-576-9790",
          "email": "ctoadmin@karmanos.org"
        },
        { "name": "Brian K. Yeh", "role": "PRINCIPAL_INVESTIGATOR" }
      ],
      "geoPoint": { "lat": 42.97086, "lon": -82.42491 }
    },
    {
      "facility": "Corewell Health William Beaumont University Hospital",
      "status": "RECRUITING",
      "city": "Royal Oak",
      "state": "Michigan",
      "zip": "48073",
      "country": "United States",
      "contacts": [
        {
          "name": "Site Public Contact",
          "role": "CONTACT",
          "phone": "248-551-7695"
        },
        { "name": "Inga S. Grills", "role": "PRINCIPAL_INVESTIGATOR" }
      ],
      "geoPoint": { "lat": 42.48948, "lon": -83.14465 }
    },
    {
      "facility": "MyMichigan Medical Center Saginaw",
      "status": "RECRUITING",
      "city": "Saginaw",
      "state": "Michigan",
      "zip": "48601",
      "country": "United States",
      "contacts": [
        {
          "name": "Site Public Contact",
          "role": "CONTACT",
          "phone": "734-712-7251",
          "email": "MCRCwebsitecontactform@stjoeshealth.org"
        },
        { "name": "Tareq Al baghdadi", "role": "PRINCIPAL_INVESTIGATOR" }
      ],
      "geoPoint": { "lat": 43.41947, "lon": -83.95081 }
    },
    {
      "facility": "Oncology Hematology Associates of Saginaw Valley PC",
      "status": "SUSPENDED",
      "city": "Saginaw",
      "state": "Michigan",
      "zip": "48604",
      "country": "United States",
      "geoPoint": { "lat": 43.41947, "lon": -83.95081 }
    },
    {
      "facility": "Henry Ford Health Providence Southfield Hospital",
      "status": "RECRUITING",
      "city": "Southfield",
      "state": "Michigan",
      "zip": "48075",
      "country": "United States",
      "contacts": [
        {
          "name": "Site Public Contact",
          "role": "CONTACT",
          "phone": "248-849-5332",
          "email": "kfife3@hfhs.org"
        },
        { "name": "Adam M. Forman", "role": "PRINCIPAL_INVESTIGATOR" }
      ],
      "geoPoint": { "lat": 42.47337, "lon": -83.22187 }
    },
    {
      "facility": "MyMichigan Medical Center Tawas",
      "status": "RECRUITING",
      "city": "Tawas City",
      "state": "Michigan",
      "zip": "48764",
      "country": "United States",
      "contacts": [
        {
          "name": "Site Public Contact",
          "role": "CONTACT",
          "phone": "734-712-7251",
          "email": "MCRCwebsitecontactform@stjoeshealth.org"
        },
        { "name": "Tareq Al baghdadi", "role": "PRINCIPAL_INVESTIGATOR" }
      ],
      "geoPoint": { "lat": 44.26946, "lon": -83.5147 }
    },
    {
      "facility": "Corewell Health Beaumont Troy Hospital",
      "status": "RECRUITING",
      "city": "Troy",
      "state": "Michigan",
      "zip": "48085",
      "country": "United States",
      "contacts": [
        {
          "name": "Site Public Contact",
          "role": "CONTACT",
          "phone": "248-551-7695"
        },
        { "name": "Inga S. Grills", "role": "PRINCIPAL_INVESTIGATOR" }
      ],
      "geoPoint": { "lat": 42.60559, "lon": -83.14993 }
    },
    {
      "facility": "Saint Mary's Oncology/Hematology Associates of West Branch",
      "status": "SUSPENDED",
      "city": "West Branch",
      "state": "Michigan",
      "zip": "48661",
      "country": "United States",
      "geoPoint": { "lat": 44.27641, "lon": -84.23861 }
    },
    {
      "facility": "Mayo Clinic Health System in Albert Lea",
      "status": "WITHDRAWN",
      "city": "Albert Lea",
      "state": "Minnesota",
      "zip": "56007",
      "country": "United States",
      "geoPoint": { "lat": 43.64801, "lon": -93.36827 }
    },
    {
      "facility": "Sanford Joe Lueken Cancer Center",
      "status": "RECRUITING",
      "city": "Bemidji",
      "state": "Minnesota",
      "zip": "56601",
      "country": "United States",
      "contacts": [
        {
          "name": "Site Public Contact",
          "role": "CONTACT",
          "phone": "218-333-5000",
          "email": "OncologyClinicalTrialsFargo@sanfordhealth.org"
        },
        { "name": "Daniel Almquist", "role": "PRINCIPAL_INVESTIGATOR" }
      ],
      "geoPoint": { "lat": 47.47356, "lon": -94.88028 }
    },
    {
      "facility": "Mercy Hospital",
      "status": "RECRUITING",
      "city": "Coon Rapids",
      "state": "Minnesota",
      "zip": "55433",
      "country": "United States",
      "contacts": [
        {
          "name": "Site Public Contact",
          "role": "CONTACT",
          "phone": "952-993-1517",
          "email": "mmcorc@healthpartners.com"
        },
        { "name": "Charles Shideman", "role": "PRINCIPAL_INVESTIGATOR" }
      ],
      "geoPoint": { "lat": 45.11997, "lon": -93.28773 }
    },
    {
      "facility": "Saint Luke's Hospital of Duluth",
      "status": "RECRUITING",
      "city": "Duluth",
      "state": "Minnesota",
      "zip": "55805",
      "country": "United States",
      "contacts": [
        {
          "name": "Site Public Contact",
          "role": "CONTACT",
          "phone": "218-249-7825",
          "email": "kdean@slhduluth.com"
        },
        { "name": "Nils D. Arvold", "role": "PRINCIPAL_INVESTIGATOR" }
      ],
      "geoPoint": { "lat": 46.78327, "lon": -92.10658 }
    },
    {
      "facility": "Unity Hospital",
      "status": "ACTIVE_NOT_RECRUITING",
      "city": "Fridley",
      "state": "Minnesota",
      "zip": "55432",
      "country": "United States",
      "geoPoint": { "lat": 45.08608, "lon": -93.26328 }
    },
    {
      "facility": "Saint John's Hospital - Healtheast",
      "status": "RECRUITING",
      "city": "Maplewood",
      "state": "Minnesota",
      "zip": "55109",
      "country": "United States",
      "contacts": [
        {
          "name": "Site Public Contact",
          "role": "CONTACT",
          "phone": "952-993-1517",
          "email": "mmcorc@healthpartners.com"
        },
        { "name": "Charles Shideman", "role": "PRINCIPAL_INVESTIGATOR" }
      ],
      "geoPoint": { "lat": 44.95302, "lon": -92.99522 }
    },
    {
      "facility": "Abbott-Northwestern Hospital",
      "status": "RECRUITING",
      "city": "Minneapolis",
      "state": "Minnesota",
      "zip": "55407",
      "country": "United States",
      "contacts": [
        {
          "name": "Site Public Contact",
          "role": "CONTACT",
          "phone": "952-993-1517",
          "email": "mmcorc@healthpartners.com"
        },
        { "name": "Charles Shideman", "role": "PRINCIPAL_INVESTIGATOR" }
      ],
      "geoPoint": { "lat": 44.97997, "lon": -93.26384 }
    },
    {
      "facility": "Mayo Clinic in Rochester",
      "status": "WITHDRAWN",
      "city": "Rochester",
      "state": "Minnesota",
      "zip": "55905",
      "country": "United States",
      "geoPoint": { "lat": 44.02163, "lon": -92.4699 }
    },
    {
      "facility": "Coborn Cancer Center at Saint Cloud Hospital",
      "status": "RECRUITING",
      "city": "Saint Cloud",
      "state": "Minnesota",
      "zip": "56303",
      "country": "United States",
      "contacts": [
        {
          "name": "Site Public Contact",
          "role": "CONTACT",
          "phone": "877-229-4907",
          "email": "coborncancercenter@centracare.com"
        },
        { "name": "Donald J. Jurgens", "role": "PRINCIPAL_INVESTIGATOR" }
      ],
      "geoPoint": { "lat": 45.5608, "lon": -94.16249 }
    },
    {
      "facility": "Regions Hospital",
      "status": "RECRUITING",
      "city": "Saint Paul",
      "state": "Minnesota",
      "zip": "55101",
      "country": "United States",
      "contacts": [
        {
          "name": "Site Public Contact",
          "role": "CONTACT",
          "phone": "952-993-1517",
          "email": "mmcorc@healthpartners.com"
        },
        { "name": "Charles Shideman", "role": "PRINCIPAL_INVESTIGATOR" }
      ],
      "geoPoint": { "lat": 44.94441, "lon": -93.09327 }
    },
    {
      "facility": "Baptist Memorial Hospital and Cancer Center-Desoto",
      "status": "RECRUITING",
      "city": "Southhaven",
      "state": "Mississippi",
      "zip": "38671",
      "country": "United States",
      "contacts": [
        {
          "name": "Site Public Contact",
          "role": "CONTACT",
          "phone": "901-226-1366",
          "email": "BCCclintrials@bmhcc.org"
        },
        { "name": "Philip E. Lammers", "role": "PRINCIPAL_INVESTIGATOR" }
      ],
      "geoPoint": { "lat": 34.99176, "lon": -90.12759 }
    },
    {
      "facility": "Saint Francis Medical Center",
      "status": "RECRUITING",
      "city": "Cape Girardeau",
      "state": "Missouri",
      "zip": "63703",
      "country": "United States",
      "contacts": [
        {
          "name": "Site Public Contact",
          "role": "CONTACT",
          "phone": "573-334-2230",
          "email": "sfmc@sfmc.net"
        },
        { "name": "Bryan A. Faller", "role": "PRINCIPAL_INVESTIGATOR" }
      ],
      "geoPoint": { "lat": 37.30588, "lon": -89.51815 }
    },
    {
      "facility": "MU Health - University Hospital/Ellis Fischel Cancer Center",
      "status": "ACTIVE_NOT_RECRUITING",
      "city": "Columbia",
      "state": "Missouri",
      "zip": "65212",
      "country": "United States",
      "geoPoint": { "lat": 38.95171, "lon": -92.33407 }
    },
    {
      "facility": "Parkland Health Center - Farmington",
      "status": "RECRUITING",
      "city": "Farmington",
      "state": "Missouri",
      "zip": "63640",
      "country": "United States",
      "contacts": [
        {
          "name": "Site Public Contact",
          "role": "CONTACT",
          "phone": "314-996-5569"
        },
        { "name": "Bryan A. Faller", "role": "PRINCIPAL_INVESTIGATOR" }
      ],
      "geoPoint": { "lat": 37.78088, "lon": -90.42179 }
    },
    {
      "facility": "Sainte Genevieve County Memorial Hospital",
      "status": "RECRUITING",
      "city": "Sainte Genevieve",
      "state": "Missouri",
      "zip": "63670",
      "country": "United States",
      "contacts": [
        {
          "name": "Site Public Contact",
          "role": "CONTACT",
          "phone": "314-996-5569"
        },
        { "name": "Bryan A. Faller", "role": "PRINCIPAL_INVESTIGATOR" }
      ],
      "geoPoint": { "lat": 37.98144, "lon": -90.04178 }
    },
    {
      "facility": "Missouri Baptist Medical Center",
      "status": "RECRUITING",
      "city": "St Louis",
      "state": "Missouri",
      "zip": "63131",
      "country": "United States",
      "contacts": [
        {
          "name": "Site Public Contact",
          "role": "CONTACT",
          "phone": "314-996-5569"
        },
        { "name": "Bryan A. Faller", "role": "PRINCIPAL_INVESTIGATOR" }
      ],
      "geoPoint": { "lat": 38.62727, "lon": -90.19789 }
    },
    {
      "facility": "Mercy Hospital Saint Louis",
      "status": "RECRUITING",
      "city": "St Louis",
      "state": "Missouri",
      "zip": "63141",
      "country": "United States",
      "contacts": [
        {
          "name": "Site Public Contact",
          "role": "CONTACT",
          "phone": "314-251-7066"
        },
        { "name": "Jay W. Carlson", "role": "PRINCIPAL_INVESTIGATOR" }
      ],
      "geoPoint": { "lat": 38.62727, "lon": -90.19789 }
    },
    {
      "facility": "Missouri Baptist Sullivan Hospital",
      "status": "RECRUITING",
      "city": "Sullivan",
      "state": "Missouri",
      "zip": "63080",
      "country": "United States",
      "contacts": [
        {
          "name": "Site Public Contact",
          "role": "CONTACT",
          "phone": "314-996-5569"
        },
        { "name": "Bryan A. Faller", "role": "PRINCIPAL_INVESTIGATOR" }
      ],
      "geoPoint": { "lat": 38.2081, "lon": -91.16042 }
    },
    {
      "facility": "BJC Outpatient Center at Sunset Hills",
      "status": "RECRUITING",
      "city": "Sunset Hills",
      "state": "Missouri",
      "zip": "63127",
      "country": "United States",
      "contacts": [
        {
          "name": "Site Public Contact",
          "role": "CONTACT",
          "phone": "314-996-5569"
        },
        { "name": "Bryan A. Faller", "role": "PRINCIPAL_INVESTIGATOR" }
      ],
      "geoPoint": { "lat": 38.53894, "lon": -90.40734 }
    },
    {
      "facility": "Bozeman Health Deaconess Hospital",
      "status": "RECRUITING",
      "city": "Bozeman",
      "state": "Montana",
      "zip": "59715",
      "country": "United States",
      "contacts": [
        {
          "name": "Site Public Contact",
          "role": "CONTACT",
          "phone": "406-969-6060",
          "email": "mccinfo@mtcancer.org"
        },
        { "name": "John M. Schallenkamp", "role": "PRINCIPAL_INVESTIGATOR" }
      ],
      "geoPoint": { "lat": 45.67965, "lon": -111.03856 }
    },
    {
      "facility": "Benefis Sletten Cancer Institute",
      "status": "RECRUITING",
      "city": "Great Falls",
      "state": "Montana",
      "zip": "59405",
      "country": "United States",
      "contacts": [
        {
          "name": "Site Public Contact",
          "role": "CONTACT",
          "phone": "406-969-6060",
          "email": "mccinfo@mtcancer.org"
        },
        { "name": "John M. Schallenkamp", "role": "PRINCIPAL_INVESTIGATOR" }
      ],
      "geoPoint": { "lat": 47.50024, "lon": -111.30081 }
    },
    {
      "facility": "Nebraska Cancer Specialists/Oncology Hematology West PC - MECC",
      "status": "RECRUITING",
      "city": "Omaha",
      "state": "Nebraska",
      "zip": "68114",
      "country": "United States",
      "contacts": [
        {
          "name": "Site Public Contact",
          "role": "CONTACT",
          "phone": "402-334-4773"
        },
        { "name": "Tien-Shew W. Huang", "role": "PRINCIPAL_INVESTIGATOR" }
      ],
      "geoPoint": { "lat": 41.25626, "lon": -95.94043 }
    },
    {
      "facility": "Nebraska Methodist Hospital",
      "status": "RECRUITING",
      "city": "Omaha",
      "state": "Nebraska",
      "zip": "68114",
      "country": "United States",
      "contacts": [
        {
          "name": "Site Public Contact",
          "role": "CONTACT",
          "phone": "402-354-5144"
        },
        { "name": "Tien-Shew W. Huang", "role": "PRINCIPAL_INVESTIGATOR" }
      ],
      "geoPoint": { "lat": 41.25626, "lon": -95.94043 }
    },
    {
      "facility": "University of Nebraska Medical Center",
      "status": "ACTIVE_NOT_RECRUITING",
      "city": "Omaha",
      "state": "Nebraska",
      "zip": "68198",
      "country": "United States",
      "geoPoint": { "lat": 41.25626, "lon": -95.94043 }
    },
    {
      "facility": "Renown Regional Medical Center",
      "status": "RECRUITING",
      "city": "Reno",
      "state": "Nevada",
      "zip": "89502",
      "country": "United States",
      "contacts": [
        {
          "name": "Site Public Contact",
          "role": "CONTACT",
          "phone": "702-384-0013",
          "email": "research@sncrf.org"
        },
        { "name": "John A. Ellerton", "role": "PRINCIPAL_INVESTIGATOR" }
      ],
      "geoPoint": { "lat": 39.52963, "lon": -119.8138 }
    },
    {
      "facility": "Dartmouth Hitchcock Medical Center/Dartmouth Cancer Center",
      "status": "RECRUITING",
      "city": "Lebanon",
      "state": "New Hampshire",
      "zip": "03756",
      "country": "United States",
      "contacts": [
        {
          "name": "Site Public Contact",
          "role": "CONTACT",
          "phone": "800-639-6918",
          "email": "cancer.research.nurse@dartmouth.edu"
        },
        { "name": "Alexander D. Fuld", "role": "PRINCIPAL_INVESTIGATOR" }
      ],
      "geoPoint": { "lat": 43.64229, "lon": -72.25176 }
    },
    {
      "facility": "Cooper Hospital University Medical Center",
      "status": "ACTIVE_NOT_RECRUITING",
      "city": "Camden",
      "state": "New Jersey",
      "zip": "08103",
      "country": "United States",
      "geoPoint": { "lat": 39.92595, "lon": -75.11962 }
    },
    {
      "facility": "Capital Health Medical Center-Hopewell",
      "status": "RECRUITING",
      "city": "Pennington",
      "state": "New Jersey",
      "zip": "08534",
      "country": "United States",
      "contacts": [
        {
          "name": "Site Public Contact",
          "role": "CONTACT",
          "phone": "609-394-4130",
          "email": "clinicaltrials@capitalhealth.org"
        },
        { "name": "Nikhil Thaker", "role": "PRINCIPAL_INVESTIGATOR" }
      ],
      "geoPoint": { "lat": 40.32844, "lon": -74.79072 }
    },
    {
      "facility": "MD Anderson Cancer Center at Cooper-Voorhees",
      "status": "ACTIVE_NOT_RECRUITING",
      "city": "Voorhees Township",
      "state": "New Jersey",
      "zip": "08043",
      "country": "United States",
      "geoPoint": { "lat": 40.4795, "lon": -74.49062 }
    },
    {
      "facility": "Lovelace Medical Center-Saint Joseph Square",
      "status": "ACTIVE_NOT_RECRUITING",
      "city": "Albuquerque",
      "state": "New Mexico",
      "zip": "87102",
      "country": "United States",
      "geoPoint": { "lat": 35.08449, "lon": -106.65114 }
    },
    {
      "facility": "University of New Mexico Cancer Center",
      "status": "ACTIVE_NOT_RECRUITING",
      "city": "Albuquerque",
      "state": "New Mexico",
      "zip": "87106",
      "country": "United States",
      "geoPoint": { "lat": 35.08449, "lon": -106.65114 }
    },
    {
      "facility": "Lovelace Radiation Oncology",
      "status": "ACTIVE_NOT_RECRUITING",
      "city": "Albuquerque",
      "state": "New Mexico",
      "zip": "87109",
      "country": "United States",
      "geoPoint": { "lat": 35.08449, "lon": -106.65114 }
    },
    {
      "facility": "Hematology Oncology Associates of CNY at Camillus",
      "status": "RECRUITING",
      "city": "Camillus",
      "state": "New York",
      "zip": "13031",
      "country": "United States",
      "contacts": [
        {
          "name": "Site Public Contact",
          "role": "CONTACT",
          "phone": "315-472-7504"
        },
        { "name": "Steven M. Duffy", "role": "PRINCIPAL_INVESTIGATOR" }
      ],
      "geoPoint": { "lat": 43.03923, "lon": -76.3041 }
    },
    {
      "facility": "Sands Cancer Center",
      "status": "ACTIVE_NOT_RECRUITING",
      "city": "Canandaigua",
      "state": "New York",
      "zip": "14424",
      "country": "United States",
      "geoPoint": { "lat": 42.87423, "lon": -77.28804 }
    },
    {
      "facility": "Hematology Oncology Associates of Central New York-East Syracuse",
      "status": "RECRUITING",
      "city": "East Syracuse",
      "state": "New York",
      "zip": "13057",
      "country": "United States",
      "contacts": [
        {
          "name": "Site Public Contact",
          "role": "CONTACT",
          "phone": "315-472-7504"
        },
        { "name": "Steven M. Duffy", "role": "PRINCIPAL_INVESTIGATOR" }
      ],
      "geoPoint": { "lat": 43.06534, "lon": -76.07853 }
    },
    {
      "facility": "Mount Sinai Chelsea",
      "status": "ACTIVE_NOT_RECRUITING",
      "city": "New York",
      "state": "New York",
      "zip": "10011",
      "country": "United States",
      "geoPoint": { "lat": 40.71427, "lon": -74.00597 }
    },
    {
      "facility": "Mount Sinai West",
      "status": "ACTIVE_NOT_RECRUITING",
      "city": "New York",
      "state": "New York",
      "zip": "10019",
      "country": "United States",
      "geoPoint": { "lat": 40.71427, "lon": -74.00597 }
    },
    {
      "facility": "Mount Sinai Hospital",
      "status": "RECRUITING",
      "city": "New York",
      "state": "New York",
      "zip": "10029",
      "country": "United States",
      "contacts": [
        {
          "name": "Site Public Contact",
          "role": "CONTACT",
          "phone": "212-824-7309",
          "email": "CCTO@mssm.edu"
        },
        { "name": "Robert M. Samstein", "role": "PRINCIPAL_INVESTIGATOR" }
      ],
      "geoPoint": { "lat": 40.71427, "lon": -74.00597 }
    },
    {
      "facility": "Wilmot Cancer Institute Radiation Oncology at Greece",
      "status": "ACTIVE_NOT_RECRUITING",
      "city": "Rochester",
      "state": "New York",
      "zip": "14606",
      "country": "United States",
      "geoPoint": { "lat": 43.15478, "lon": -77.61556 }
    },
    {
      "facility": "University of Rochester",
      "status": "ACTIVE_NOT_RECRUITING",
      "city": "Rochester",
      "state": "New York",
      "zip": "14642",
      "country": "United States",
      "geoPoint": { "lat": 43.15478, "lon": -77.61556 }
    },
    {
      "facility": "Stony Brook University Medical Center",
      "status": "RECRUITING",
      "city": "Stony Brook",
      "state": "New York",
      "zip": "11794",
      "country": "United States",
      "contacts": [
        {
          "name": "Site Public Contact",
          "role": "CONTACT",
          "phone": "800-862-2215"
        },
        { "name": "Kartik M. Mani", "role": "PRINCIPAL_INVESTIGATOR" }
      ],
      "geoPoint": { "lat": 40.92565, "lon": -73.14094 }
    },
    {
      "facility": "State University of New York Upstate Medical University",
      "status": "RECRUITING",
      "city": "Syracuse",
      "state": "New York",
      "zip": "13210",
      "country": "United States",
      "contacts": [
        {
          "name": "Site Public Contact",
          "role": "CONTACT",
          "phone": "315-464-5476"
        },
        { "name": "Michael D. Mix", "role": "PRINCIPAL_INVESTIGATOR" }
      ],
      "geoPoint": { "lat": 43.04812, "lon": -76.14742 }
    },
    {
      "facility": "Montefiore Medical Center-Einstein Campus",
      "status": "ACTIVE_NOT_RECRUITING",
      "city": "The Bronx",
      "state": "New York",
      "zip": "10461",
      "country": "United States",
      "geoPoint": { "lat": 40.84985, "lon": -73.86641 }
    },
    {
      "facility": "Montefiore Medical Center-Weiler Hospital",
      "status": "ACTIVE_NOT_RECRUITING",
      "city": "The Bronx",
      "state": "New York",
      "zip": "10461",
      "country": "United States",
      "geoPoint": { "lat": 40.84985, "lon": -73.86641 }
    },
    {
      "facility": "Montefiore Medical Center - Moses Campus",
      "status": "ACTIVE_NOT_RECRUITING",
      "city": "The Bronx",
      "state": "New York",
      "zip": "10467",
      "country": "United States",
      "geoPoint": { "lat": 40.84985, "lon": -73.86641 }
    },
    {
      "facility": "Westchester Medical Center",
      "status": "RECRUITING",
      "city": "Valhalla",
      "state": "New York",
      "zip": "10595",
      "country": "United States",
      "contacts": [
        {
          "name": "Site Public Contact",
          "role": "CONTACT",
          "phone": "412-339-5294",
          "email": "Roster@nrgoncology.org"
        },
        { "name": "Aviva Berkowitz", "role": "PRINCIPAL_INVESTIGATOR" }
      ],
      "geoPoint": { "lat": 41.07482, "lon": -73.77513 }
    },
    {
      "facility": "Atrium Health Stanly/LCI-Albemarle",
      "status": "RECRUITING",
      "city": "Albemarle",
      "state": "North Carolina",
      "zip": "28002",
      "country": "United States",
      "contacts": [
        {
          "name": "Site Public Contact",
          "role": "CONTACT",
          "phone": "800-804-9376"
        },
        { "name": "John H. Heinzerling", "role": "PRINCIPAL_INVESTIGATOR" }
      ],
      "geoPoint": { "lat": 35.35014, "lon": -80.20006 }
    },
    {
      "facility": "Carolinas Medical Center/Levine Cancer Institute",
      "status": "RECRUITING",
      "city": "Charlotte",
      "state": "North Carolina",
      "zip": "28203",
      "country": "United States",
      "contacts": [
        {
          "name": "Site Public Contact",
          "role": "CONTACT",
          "phone": "800-804-9376"
        },
        { "name": "John H. Heinzerling", "role": "PRINCIPAL_INVESTIGATOR" }
      ],
      "geoPoint": { "lat": 35.22709, "lon": -80.84313 }
    },
    {
      "facility": "Atrium Health Pineville/LCI-Pineville",
      "status": "RECRUITING",
      "city": "Charlotte",
      "state": "North Carolina",
      "zip": "28210",
      "country": "United States",
      "contacts": [
        {
          "name": "Site Public Contact",
          "role": "CONTACT",
          "phone": "980-442-2000"
        },
        { "name": "John H. Heinzerling", "role": "PRINCIPAL_INVESTIGATOR" }
      ],
      "geoPoint": { "lat": 35.22709, "lon": -80.84313 }
    },
    {
      "facility": "Levine Cancer Institute-SouthPark",
      "status": "RECRUITING",
      "city": "Charlotte",
      "state": "North Carolina",
      "zip": "28211",
      "country": "United States",
      "contacts": [
        {
          "name": "Site Public Contact",
          "role": "CONTACT",
          "phone": "980-442-2000"
        },
        { "name": "John H. Heinzerling", "role": "PRINCIPAL_INVESTIGATOR" }
      ],
      "geoPoint": { "lat": 35.22709, "lon": -80.84313 }
    },
    {
      "facility": "Atrium Health University City/LCI-University",
      "status": "RECRUITING",
      "city": "Charlotte",
      "state": "North Carolina",
      "zip": "28262",
      "country": "United States",
      "contacts": [
        {
          "name": "Site Public Contact",
          "role": "CONTACT",
          "phone": "800-804-9376"
        },
        { "name": "John H. Heinzerling", "role": "PRINCIPAL_INVESTIGATOR" }
      ],
      "geoPoint": { "lat": 35.22709, "lon": -80.84313 }
    },
    {
      "facility": "Levine Cancer Institute-Ballantyne",
      "status": "RECRUITING",
      "city": "Charlotte",
      "state": "North Carolina",
      "zip": "28277",
      "country": "United States",
      "contacts": [
        {
          "name": "Site Public Contact",
          "role": "CONTACT",
          "phone": "800-804-9376"
        },
        { "name": "John H. Heinzerling", "role": "PRINCIPAL_INVESTIGATOR" }
      ],
      "geoPoint": { "lat": 35.22709, "lon": -80.84313 }
    },
    {
      "facility": "Atrium Health Cabarrus/LCI-Concord",
      "status": "RECRUITING",
      "city": "Concord",
      "state": "North Carolina",
      "zip": "28025",
      "country": "United States",
      "contacts": [
        {
          "name": "Site Public Contact",
          "role": "CONTACT",
          "phone": "800-804-9376"
        },
        { "name": "John H. Heinzerling", "role": "PRINCIPAL_INVESTIGATOR" }
      ],
      "geoPoint": { "lat": 35.40888, "lon": -80.58158 }
    },
    {
      "facility": "Levine Cancer Institute - Rutherford",
      "status": "RECRUITING",
      "city": "Forest City",
      "state": "North Carolina",
      "zip": "28043",
      "country": "United States",
      "contacts": [
        {
          "name": "Site Public Contact",
          "role": "CONTACT",
          "phone": "800-804-9376"
        },
        { "name": "John H. Heinzerling", "role": "PRINCIPAL_INVESTIGATOR" }
      ],
      "geoPoint": { "lat": 35.33401, "lon": -81.8651 }
    },
    {
      "facility": "Levine Cancer Institute-Gaston",
      "status": "RECRUITING",
      "city": "Gastonia",
      "state": "North Carolina",
      "zip": "28054",
      "country": "United States",
      "contacts": [
        {
          "name": "Site Public Contact",
          "role": "CONTACT",
          "phone": "800-804-9376"
        },
        { "name": "John H. Heinzerling", "role": "PRINCIPAL_INVESTIGATOR" }
      ],
      "geoPoint": { "lat": 35.26208, "lon": -81.1873 }
    },
    {
      "facility": "Margaret R Pardee Memorial Hospital",
      "status": "SUSPENDED",
      "city": "Hendersonville",
      "state": "North Carolina",
      "zip": "28791",
      "country": "United States",
      "geoPoint": { "lat": 35.31873, "lon": -82.46095 }
    },
    {
      "facility": "Atrium Health Lincoln/LCI-Lincolnton",
      "status": "RECRUITING",
      "city": "Lincolnton",
      "state": "North Carolina",
      "zip": "28092",
      "country": "United States",
      "contacts": [
        {
          "name": "Site Public Contact",
          "role": "CONTACT",
          "phone": "800-804-9376"
        },
        { "name": "John H. Heinzerling", "role": "PRINCIPAL_INVESTIGATOR" }
      ],
      "geoPoint": { "lat": 35.47375, "lon": -81.25453 }
    },
    {
      "facility": "Levine Cancer Institute - Union West",
      "status": "RECRUITING",
      "city": "Matthews",
      "state": "North Carolina",
      "zip": "28104",
      "country": "United States",
      "contacts": [
        {
          "name": "Site Public Contact",
          "role": "CONTACT",
          "phone": "980-442-0600"
        },
        { "name": "John H. Heinzerling", "role": "PRINCIPAL_INVESTIGATOR" }
      ],
      "geoPoint": { "lat": 35.11681, "lon": -80.72368 }
    },
    {
      "facility": "Atrium Health Union/LCI-Union",
      "status": "RECRUITING",
      "city": "Monroe",
      "state": "North Carolina",
      "zip": "28112",
      "country": "United States",
      "contacts": [
        {
          "name": "Site Public Contact",
          "role": "CONTACT",
          "phone": "980-442-2000"
        },
        { "name": "John H. Heinzerling", "role": "PRINCIPAL_INVESTIGATOR" }
      ],
      "geoPoint": { "lat": 34.98543, "lon": -80.54951 }
    },
    {
      "facility": "Atrium Health Cleveland/LCI-Cleveland",
      "status": "RECRUITING",
      "city": "Shelby",
      "state": "North Carolina",
      "zip": "28150",
      "country": "United States",
      "contacts": [
        {
          "name": "Site Public Contact",
          "role": "CONTACT",
          "phone": "800-804-9376"
        },
        { "name": "John H. Heinzerling", "role": "PRINCIPAL_INVESTIGATOR" }
      ],
      "geoPoint": { "lat": 35.29235, "lon": -81.53565 }
    },
    {
      "facility": "Wake Forest Baptist Health - Hematology Oncology - Statesville",
      "status": "ACTIVE_NOT_RECRUITING",
      "city": "Statesville",
      "state": "North Carolina",
      "zip": "28677",
      "country": "United States",
      "geoPoint": { "lat": 35.78264, "lon": -80.8873 }
    },
    {
      "facility": "Wake Forest University Health Sciences",
      "status": "ACTIVE_NOT_RECRUITING",
      "city": "Winston-Salem",
      "state": "North Carolina",
      "zip": "27157",
      "country": "United States",
      "geoPoint": { "lat": 36.09986, "lon": -80.24422 }
    },
    {
      "facility": "Sanford Bismarck Medical Center",
      "status": "RECRUITING",
      "city": "Bismarck",
      "state": "North Dakota",
      "zip": "58501",
      "country": "United States",
      "contacts": [
        {
          "name": "Site Public Contact",
          "role": "CONTACT",
          "phone": "701-323-5760",
          "email": "OncologyClinicalTrialsFargo@sanfordhealth.org"
        },
        { "name": "Daniel Almquist", "role": "PRINCIPAL_INVESTIGATOR" }
      ],
      "geoPoint": { "lat": 46.80833, "lon": -100.78374 }
    },
    {
      "facility": "Sanford Broadway Medical Center",
      "status": "RECRUITING",
      "city": "Fargo",
      "state": "North Dakota",
      "zip": "58122",
      "country": "United States",
      "contacts": [
        {
          "name": "Site Public Contact",
          "role": "CONTACT",
          "phone": "701-323-5760",
          "email": "OncologyClinicalTrialsFargo@sanfordhealth.org"
        },
        { "name": "Daniel Almquist", "role": "PRINCIPAL_INVESTIGATOR" }
      ],
      "geoPoint": { "lat": 46.87719, "lon": -96.7898 }
    },
    {
      "facility": "Sanford Roger Maris Cancer Center",
      "status": "RECRUITING",
      "city": "Fargo",
      "state": "North Dakota",
      "zip": "58122",
      "country": "United States",
      "contacts": [
        {
          "name": "Site Public Contact",
          "role": "CONTACT",
          "phone": "701-234-6161",
          "email": "OncologyClinicalTrialsFargo@sanfordhealth.org"
        },
        { "name": "Daniel Almquist", "role": "PRINCIPAL_INVESTIGATOR" }
      ],
      "geoPoint": { "lat": 46.87719, "lon": -96.7898 }
    },
    {
      "facility": "Cleveland Clinic Akron General",
      "status": "RECRUITING",
      "city": "Akron",
      "state": "Ohio",
      "zip": "44307",
      "country": "United States",
      "contacts": [
        {
          "name": "Site Public Contact",
          "role": "CONTACT",
          "phone": "866-223-8100",
          "email": "CancerAnswer@ccf.org"
        },
        { "name": "Salem A. Alfaifi", "role": "PRINCIPAL_INVESTIGATOR" }
      ],
      "geoPoint": { "lat": 41.08144, "lon": -81.51901 }
    },
    {
      "facility": "Aultman Health Foundation",
      "status": "RECRUITING",
      "city": "Canton",
      "state": "Ohio",
      "zip": "44710",
      "country": "United States",
      "contacts": [
        {
          "name": "Site Public Contact",
          "role": "CONTACT",
          "phone": "330-363-7274",
          "email": "ClinicalReserachDept@aultman.com"
        },
        { "name": "Raza A. Khan", "role": "PRINCIPAL_INVESTIGATOR" }
      ],
      "geoPoint": { "lat": 40.79895, "lon": -81.37845 }
    },
    {
      "facility": "Miami Valley Hospital South",
      "status": "RECRUITING",
      "city": "Centerville",
      "state": "Ohio",
      "zip": "45459",
      "country": "United States",
      "contacts": [
        {
          "name": "Site Public Contact",
          "role": "CONTACT",
          "phone": "937-528-2900",
          "email": "clinical.trials@daytonncorp.org"
        },
        { "name": "Tarek M. Sabagh", "role": "PRINCIPAL_INVESTIGATOR" }
      ],
      "geoPoint": { "lat": 39.62839, "lon": -84.15938 }
    },
    {
      "facility": "University of Cincinnati Cancer Center-UC Medical Center",
      "status": "RECRUITING",
      "city": "Cincinnati",
      "state": "Ohio",
      "zip": "45219",
      "country": "United States",
      "contacts": [
        {
          "name": "Site Public Contact",
          "role": "CONTACT",
          "phone": "513-584-7698",
          "email": "cancer@uchealth.com"
        },
        { "name": "Emily C. Daugherty", "role": "PRINCIPAL_INVESTIGATOR" }
      ],
      "geoPoint": { "lat": 39.12711, "lon": -84.51439 }
    },
    {
      "facility": "MetroHealth Medical Center",
      "status": "RECRUITING",
      "city": "Cleveland",
      "state": "Ohio",
      "zip": "44109",
      "country": "United States",
      "contacts": [
        {
          "name": "Site Public Contact",
          "role": "CONTACT",
          "phone": "216-778-7559",
          "email": "ababal@metrohealth.org"
        },
        { "name": "Peter Xie", "role": "PRINCIPAL_INVESTIGATOR" }
      ],
      "geoPoint": { "lat": 41.4995, "lon": -81.69541 }
    },
    {
      "facility": "Cleveland Clinic Cancer Center/Fairview Hospital",
      "status": "RECRUITING",
      "city": "Cleveland",
      "state": "Ohio",
      "zip": "44111",
      "country": "United States",
      "contacts": [
        {
          "name": "Site Public Contact",
          "role": "CONTACT",
          "phone": "866-223-8100",
          "email": "TaussigResearch@ccf.org"
        },
        { "name": "Gregory M. M. Videtic", "role": "PRINCIPAL_INVESTIGATOR" }
      ],
      "geoPoint": { "lat": 41.4995, "lon": -81.69541 }
    },
    {
      "facility": "Cleveland Clinic Foundation",
      "status": "RECRUITING",
      "city": "Cleveland",
      "state": "Ohio",
      "zip": "44195",
      "country": "United States",
      "contacts": [
        {
          "name": "Site Public Contact",
          "role": "CONTACT",
          "phone": "866-223-8100",
          "email": "TaussigResearch@ccf.org"
        },
        { "name": "Gregory M. M. Videtic", "role": "PRINCIPAL_INVESTIGATOR" }
      ],
      "geoPoint": { "lat": 41.4995, "lon": -81.69541 }
    },
    {
      "facility": "Ohio State University Comprehensive Cancer Center",
      "status": "RECRUITING",
      "city": "Columbus",
      "state": "Ohio",
      "zip": "43210",
      "country": "United States",
      "contacts": [
        {
          "name": "Site Public Contact",
          "role": "CONTACT",
          "phone": "800-293-5066",
          "email": "Jamesline@osumc.edu"
        },
        { "name": "Karl E. Haglund", "role": "PRINCIPAL_INVESTIGATOR" }
      ],
      "geoPoint": { "lat": 39.96118, "lon": -82.99879 }
    },
    {
      "facility": "Mount Carmel East Hospital",
      "status": "RECRUITING",
      "city": "Columbus",
      "state": "Ohio",
      "zip": "43213",
      "country": "United States",
      "contacts": [
        {
          "name": "Site Public Contact",
          "role": "CONTACT",
          "phone": "614-488-2745",
          "email": "Jeffh@columbusccop.org"
        },
        { "name": "Aruna C. Gowda", "role": "PRINCIPAL_INVESTIGATOR" }
      ],
      "geoPoint": { "lat": 39.96118, "lon": -82.99879 }
    },
    {
      "facility": "The Mark H Zangmeister Center",
      "status": "RECRUITING",
      "city": "Columbus",
      "state": "Ohio",
      "zip": "43219",
      "country": "United States",
      "contacts": [
        {
          "name": "Site Public Contact",
          "role": "CONTACT",
          "phone": "614-488-2745",
          "email": "Jeffh@columbusccop.org"
        },
        { "name": "Aruna C. Gowda", "role": "PRINCIPAL_INVESTIGATOR" }
      ],
      "geoPoint": { "lat": 39.96118, "lon": -82.99879 }
    },
    {
      "facility": "Mount Carmel Health Center West",
      "status": "RECRUITING",
      "city": "Columbus",
      "state": "Ohio",
      "zip": "43222",
      "country": "United States",
      "contacts": [
        {
          "name": "Site Public Contact",
          "role": "CONTACT",
          "phone": "614-488-2745",
          "email": "Jeffh@columbusccop.org"
        },
        { "name": "Aruna C. Gowda", "role": "PRINCIPAL_INVESTIGATOR" }
      ],
      "geoPoint": { "lat": 39.96118, "lon": -82.99879 }
    },
    {
      "facility": "Miami Valley Hospital",
      "status": "RECRUITING",
      "city": "Dayton",
      "state": "Ohio",
      "zip": "45409",
      "country": "United States",
      "contacts": [
        {
          "name": "Site Public Contact",
          "role": "CONTACT",
          "phone": "937-528-2900",
          "email": "clinical.trials@daytonncorp.org"
        },
        { "name": "Tarek M. Sabagh", "role": "PRINCIPAL_INVESTIGATOR" }
      ],
      "geoPoint": { "lat": 39.75895, "lon": -84.19161 }
    },
    {
      "facility": "Premier Blood and Cancer Center",
      "status": "RECRUITING",
      "city": "Dayton",
      "state": "Ohio",
      "zip": "45409",
      "country": "United States",
      "contacts": [
        {
          "name": "Site Public Contact",
          "role": "CONTACT",
          "phone": "937-276-8320"
        },
        { "name": "Tarek M. Sabagh", "role": "PRINCIPAL_INVESTIGATOR" }
      ],
      "geoPoint": { "lat": 39.75895, "lon": -84.19161 }
    },
    {
      "facility": "Dayton Physician LLC - Englewood",
      "status": "ACTIVE_NOT_RECRUITING",
      "city": "Dayton",
      "state": "Ohio",
      "zip": "45415",
      "country": "United States",
      "geoPoint": { "lat": 39.75895, "lon": -84.19161 }
    },
    {
      "facility": "Miami Valley Hospital North",
      "status": "RECRUITING",
      "city": "Dayton",
      "state": "Ohio",
      "zip": "45415",
      "country": "United States",
      "contacts": [
        {
          "name": "Site Public Contact",
          "role": "CONTACT",
          "phone": "937-528-2900",
          "email": "clinical.trials@daytonncorp.org"
        },
        { "name": "Tarek M. Sabagh", "role": "PRINCIPAL_INVESTIGATOR" }
      ],
      "geoPoint": { "lat": 39.75895, "lon": -84.19161 }
    },
    {
      "facility": "Atrium Medical Center-Middletown Regional Hospital",
      "status": "RECRUITING",
      "city": "Franklin",
      "state": "Ohio",
      "zip": "45005-1066",
      "country": "United States",
      "contacts": [
        {
          "name": "Site Public Contact",
          "role": "CONTACT",
          "phone": "937-528-2900",
          "email": "clinical.trials@daytonncorp.org"
        },
        { "name": "Tarek M. Sabagh", "role": "PRINCIPAL_INVESTIGATOR" }
      ],
      "geoPoint": { "lat": 39.55895, "lon": -84.30411 }
    },
    {
      "facility": "Miami Valley Cancer Care and Infusion",
      "status": "RECRUITING",
      "city": "Greenville",
      "state": "Ohio",
      "zip": "45331",
      "country": "United States",
      "contacts": [
        {
          "name": "Site Public Contact",
          "role": "CONTACT",
          "phone": "937-569-7515"
        },
        { "name": "Tarek M. Sabagh", "role": "PRINCIPAL_INVESTIGATOR" }
      ],
      "geoPoint": { "lat": 40.10283, "lon": -84.63301 }
    },
    {
      "facility": "Cleveland Clinic Cancer Center Independence",
      "status": "RECRUITING",
      "city": "Independence",
      "state": "Ohio",
      "zip": "44131",
      "country": "United States",
      "contacts": [
        {
          "name": "Site Public Contact",
          "role": "CONTACT",
          "phone": "866-223-8100",
          "email": "TaussigResearch@ccf.org"
        },
        { "name": "Gregory M. M. Videtic", "role": "PRINCIPAL_INVESTIGATOR" }
      ],
      "geoPoint": { "lat": 41.36866, "lon": -81.6379 }
    },
    {
      "facility": "Cleveland Clinic Cancer Center Mansfield",
      "status": "RECRUITING",
      "city": "Mansfield",
      "state": "Ohio",
      "zip": "44906",
      "country": "United States",
      "contacts": [
        {
          "name": "Site Public Contact",
          "role": "CONTACT",
          "phone": "866-223-8100",
          "email": "TaussigResearch@ccf.org"
        },
        { "name": "Gregory M. M. Videtic", "role": "PRINCIPAL_INVESTIGATOR" }
      ],
      "geoPoint": { "lat": 40.75839, "lon": -82.51545 }
    },
    {
      "facility": "Hillcrest Hospital Cancer Center",
      "status": "RECRUITING",
      "city": "Mayfield Heights",
      "state": "Ohio",
      "zip": "44124",
      "country": "United States",
      "contacts": [
        {
          "name": "Site Public Contact",
          "role": "CONTACT",
          "phone": "866-223-8100",
          "email": "TaussigResearch@ccf.org"
        },
        { "name": "Gregory M. M. Videtic", "role": "PRINCIPAL_INVESTIGATOR" }
      ],
      "geoPoint": { "lat": 41.51922, "lon": -81.4579 }
    },
    {
      "facility": "North Coast Cancer Care",
      "status": "RECRUITING",
      "city": "Sandusky",
      "state": "Ohio",
      "zip": "44870",
      "country": "United States",
      "contacts": [
        {
          "name": "Site Public Contact",
          "role": "CONTACT",
          "phone": "866-223-8100",
          "email": "TaussigResearch@ccf.org"
        },
        { "name": "Gregory M. M. Videtic", "role": "PRINCIPAL_INVESTIGATOR" }
      ],
      "geoPoint": { "lat": 41.44894, "lon": -82.70796 }
    },
    {
      "facility": "Cleveland Clinic Cancer Center Strongsville",
      "status": "RECRUITING",
      "city": "Strongsville",
      "state": "Ohio",
      "zip": "44136",
      "country": "United States",
      "contacts": [
        {
          "name": "Site Public Contact",
          "role": "CONTACT",
          "phone": "866-223-8100",
          "email": "TaussigResearch@ccf.org"
        },
        { "name": "Gregory M. M. Videtic", "role": "PRINCIPAL_INVESTIGATOR" }
      ],
      "geoPoint": { "lat": 41.3145, "lon": -81.83569 }
    },
    {
      "facility": "Upper Valley Medical Center",
      "status": "RECRUITING",
      "city": "Troy",
      "state": "Ohio",
      "zip": "45373",
      "country": "United States",
      "contacts": [
        {
          "name": "Site Public Contact",
          "role": "CONTACT",
          "phone": "937-528-2900",
          "email": "clinical.trials@daytonncorp.org"
        },
        { "name": "Tarek M. Sabagh", "role": "PRINCIPAL_INVESTIGATOR" }
      ],
      "geoPoint": { "lat": 40.0395, "lon": -84.20328 }
    },
    {
      "facility": "University of Cincinnati Cancer Center-West Chester",
      "status": "RECRUITING",
      "city": "West Chester",
      "state": "Ohio",
      "zip": "45069",
      "country": "United States",
      "contacts": [
        {
          "name": "Site Public Contact",
          "role": "CONTACT",
          "phone": "513-584-7698",
          "email": "cancer@uchealth.com"
        },
        { "name": "Emily C. Daugherty", "role": "PRINCIPAL_INVESTIGATOR" }
      ],
      "geoPoint": { "lat": 39.33172, "lon": -84.40716 }
    },
    {
      "facility": "Saint Ann's Hospital",
      "status": "RECRUITING",
      "city": "Westerville",
      "state": "Ohio",
      "zip": "43081",
      "country": "United States",
      "contacts": [
        {
          "name": "Site Public Contact",
          "role": "CONTACT",
          "phone": "614-488-2745",
          "email": "Jeffh@columbusccop.org"
        },
        { "name": "Aruna C. Gowda", "role": "PRINCIPAL_INVESTIGATOR" }
      ],
      "geoPoint": { "lat": 40.12617, "lon": -82.92907 }
    },
    {
      "facility": "Cleveland Clinic Wooster Family Health and Surgery Center",
      "status": "RECRUITING",
      "city": "Wooster",
      "state": "Ohio",
      "zip": "44691",
      "country": "United States",
      "contacts": [
        {
          "name": "Site Public Contact",
          "role": "CONTACT",
          "phone": "866-223-8100",
          "email": "TaussigResearch@ccf.org"
        },
        { "name": "Gregory M. M. Videtic", "role": "PRINCIPAL_INVESTIGATOR" }
      ],
      "geoPoint": { "lat": 40.80517, "lon": -81.93646 }
    },
    {
      "facility": "Genesis Healthcare System Cancer Care Center",
      "status": "RECRUITING",
      "city": "Zanesville",
      "state": "Ohio",
      "zip": "43701",
      "country": "United States",
      "contacts": [
        {
          "name": "Site Public Contact",
          "role": "CONTACT",
          "phone": "614-488-2745",
          "email": "Jeffh@columbusccop.org"
        },
        { "name": "Aruna C. Gowda", "role": "PRINCIPAL_INVESTIGATOR" }
      ],
      "geoPoint": { "lat": 39.94035, "lon": -82.01319 }
    },
    {
      "facility": "Cancer Centers of Southwest Oklahoma Research",
      "status": "RECRUITING",
      "city": "Lawton",
      "state": "Oklahoma",
      "zip": "73505",
      "country": "United States",
      "contacts": [
        {
          "name": "Site Public Contact",
          "role": "CONTACT",
          "phone": "877-231-4440"
        },
        { "name": "Tyler Gunter", "role": "PRINCIPAL_INVESTIGATOR" }
      ],
      "geoPoint": { "lat": 34.60869, "lon": -98.39033 }
    },
    {
      "facility": "University of Oklahoma Health Sciences Center",
      "status": "RECRUITING",
      "city": "Oklahoma City",
      "state": "Oklahoma",
      "zip": "73104",
      "country": "United States",
      "contacts": [
        {
          "name": "Site Public Contact",
          "role": "CONTACT",
          "phone": "405-271-8777",
          "email": "ou-clinical-trials@ouhsc.edu"
        },
        { "name": "Tyler Gunter", "role": "PRINCIPAL_INVESTIGATOR" }
      ],
      "geoPoint": { "lat": 35.46756, "lon": -97.51643 }
    },
    {
      "facility": "Mercy Hospital Oklahoma City",
      "status": "RECRUITING",
      "city": "Oklahoma City",
      "state": "Oklahoma",
      "zip": "73120",
      "country": "United States",
      "contacts": [
        {
          "name": "Site Public Contact",
          "role": "CONTACT",
          "phone": "405-752-3402"
        },
        { "name": "Jay W. Carlson", "role": "PRINCIPAL_INVESTIGATOR" }
      ],
      "geoPoint": { "lat": 35.46756, "lon": -97.51643 }
    },
    {
      "facility": "Clackamas Radiation Oncology Center",
      "status": "SUSPENDED",
      "city": "Clackamas",
      "state": "Oregon",
      "zip": "97015",
      "country": "United States",
      "geoPoint": { "lat": 45.40762, "lon": -122.57037 }
    },
    {
      "facility": "Providence Cancer Institute Clackamas Clinic",
      "status": "SUSPENDED",
      "city": "Clackamas",
      "state": "Oregon",
      "zip": "97015",
      "country": "United States",
      "geoPoint": { "lat": 45.40762, "lon": -122.57037 }
    },
    {
      "facility": "Legacy Mount Hood Medical Center",
      "status": "RECRUITING",
      "city": "Gresham",
      "state": "Oregon",
      "zip": "97030",
      "country": "United States",
      "contacts": [
        {
          "name": "Site Public Contact",
          "role": "CONTACT",
          "phone": "503-413-2150"
        },
        { "name": "Andrew Y. Kee", "role": "PRINCIPAL_INVESTIGATOR" }
      ],
      "geoPoint": { "lat": 45.49818, "lon": -122.43148 }
    },
    {
      "facility": "Providence Newberg Medical Center",
      "status": "RECRUITING",
      "city": "Newberg",
      "state": "Oregon",
      "zip": "97132",
      "country": "United States",
      "contacts": [
        {
          "name": "Site Public Contact",
          "role": "CONTACT",
          "phone": "503-215-2614",
          "email": "CanRsrchStudies@providence.org"
        },
        { "name": "Dan S. Zuckerman", "role": "PRINCIPAL_INVESTIGATOR" }
      ],
      "geoPoint": { "lat": 45.30012, "lon": -122.97316 }
    },
    {
      "facility": "Legacy Good Samaritan Hospital and Medical Center",
      "status": "RECRUITING",
      "city": "Portland",
      "state": "Oregon",
      "zip": "97210",
      "country": "United States",
      "contacts": [
        {
          "name": "Site Public Contact",
          "role": "CONTACT",
          "phone": "800-220-4937",
          "email": "cancer@lhs.org"
        },
        { "name": "Andrew Y. Kee", "role": "PRINCIPAL_INVESTIGATOR" }
      ],
      "geoPoint": { "lat": 45.52345, "lon": -122.67621 }
    },
    {
      "facility": "Providence Portland Medical Center",
      "status": "RECRUITING",
      "city": "Portland",
      "state": "Oregon",
      "zip": "97213",
      "country": "United States",
      "contacts": [
        {
          "name": "Site Public Contact",
          "role": "CONTACT",
          "phone": "503-215-2614",
          "email": "CanRsrchStudies@providence.org"
        },
        { "name": "Dan S. Zuckerman", "role": "PRINCIPAL_INVESTIGATOR" }
      ],
      "geoPoint": { "lat": 45.52345, "lon": -122.67621 }
    },
    {
      "facility": "Providence Saint Vincent Medical Center",
      "status": "RECRUITING",
      "city": "Portland",
      "state": "Oregon",
      "zip": "97225",
      "country": "United States",
      "contacts": [
        {
          "name": "Site Public Contact",
          "role": "CONTACT",
          "phone": "503-215-2614",
          "email": "CanRsrchStudies@providence.org"
        },
        { "name": "Dan S. Zuckerman", "role": "PRINCIPAL_INVESTIGATOR" }
      ],
      "geoPoint": { "lat": 45.52345, "lon": -122.67621 }
    },
    {
      "facility": "Legacy Meridian Park Hospital",
      "status": "RECRUITING",
      "city": "Tualatin",
      "state": "Oregon",
      "zip": "97062",
      "country": "United States",
      "contacts": [
        {
          "name": "Site Public Contact",
          "role": "CONTACT",
          "phone": "503-413-1742"
        },
        { "name": "Andrew Y. Kee", "role": "PRINCIPAL_INVESTIGATOR" }
      ],
      "geoPoint": { "lat": 45.38401, "lon": -122.76399 }
    },
    {
      "facility": "Lehigh Valley Hospital-Cedar Crest",
      "status": "RECRUITING",
      "city": "Allentown",
      "state": "Pennsylvania",
      "zip": "18103",
      "country": "United States",
      "contacts": [
        {
          "name": "Site Public Contact",
          "role": "CONTACT",
          "phone": "610-402-9543",
          "email": "Morgan_M.Horton@lvhn.org"
        },
        { "name": "Tareq Al baghdadi", "role": "PRINCIPAL_INVESTIGATOR" }
      ],
      "geoPoint": { "lat": 40.60843, "lon": -75.49018 }
    },
    {
      "facility": "Saint Luke's Cancer Center - Allentown",
      "status": "RECRUITING",
      "city": "Allentown",
      "state": "Pennsylvania",
      "zip": "18104",
      "country": "United States",
      "contacts": [
        {
          "name": "Site Public Contact",
          "role": "CONTACT",
          "phone": "610-776-4714"
        },
        { "name": "William H. Smith", "role": "PRINCIPAL_INVESTIGATOR" }
      ],
      "geoPoint": { "lat": 40.60843, "lon": -75.49018 }
    },
    {
      "facility": "UPMC-Heritage Valley Health System Beaver",
      "status": "RECRUITING",
      "city": "Beaver",
      "state": "Pennsylvania",
      "zip": "15009",
      "country": "United States",
      "contacts": [
        {
          "name": "Site Public Contact",
          "role": "CONTACT",
          "phone": "412-389-5208",
          "email": "haneydl@upmc.edu"
        },
        { "name": "Uzoma K. Iheagwara", "role": "PRINCIPAL_INVESTIGATOR" }
      ],
      "geoPoint": { "lat": 40.69534, "lon": -80.30478 }
    },
    {
      "facility": "Saint Luke's University Hospital-Bethlehem Campus",
      "status": "RECRUITING",
      "city": "Bethlehem",
      "state": "Pennsylvania",
      "zip": "18015",
      "country": "United States",
      "contacts": [
        {
          "name": "Site Public Contact",
          "role": "CONTACT",
          "phone": "484-503-4151"
        },
        { "name": "William H. Smith", "role": "PRINCIPAL_INVESTIGATOR" }
      ],
      "geoPoint": { "lat": 40.62593, "lon": -75.37046 }
    },
    {
      "facility": "Lehigh Valley Hospital - Muhlenberg",
      "status": "RECRUITING",
      "city": "Bethlehem",
      "state": "Pennsylvania",
      "zip": "18017",
      "country": "United States",
      "contacts": [
        {
          "name": "Site Public Contact",
          "role": "CONTACT",
          "phone": "610-402-9543",
          "email": "Morgan_M.Horton@lvhn.org"
        },
        { "name": "Tareq Al baghdadi", "role": "PRINCIPAL_INVESTIGATOR" }
      ],
      "geoPoint": { "lat": 40.62593, "lon": -75.37046 }
    },
    {
      "facility": "Crozer-Keystone Regional Cancer Center at Broomall",
      "status": "SUSPENDED",
      "city": "Broomall",
      "state": "Pennsylvania",
      "zip": "19008",
      "country": "United States",
      "geoPoint": { "lat": 39.9815, "lon": -75.35658 }
    },
    {
      "facility": "Bryn Mawr Hospital",
      "status": "RECRUITING",
      "city": "Bryn Mawr",
      "state": "Pennsylvania",
      "zip": "19010",
      "country": "United States",
      "contacts": [
        {
          "name": "Site Public Contact",
          "role": "CONTACT",
          "phone": "484-476-2649",
          "email": "turzoe@mlhs.org"
        },
        { "name": "Paul B. Gilman", "role": "PRINCIPAL_INVESTIGATOR" }
      ],
      "geoPoint": { "lat": 40.30396, "lon": -80.08672 }
    },
    {
      "facility": "Carlisle Regional Cancer Center",
      "status": "RECRUITING",
      "city": "Carlisle",
      "state": "Pennsylvania",
      "zip": "17015",
      "country": "United States",
      "contacts": [
        {
          "name": "Site Public Contact",
          "role": "CONTACT",
          "phone": "412-339-5294",
          "email": "Roster@nrgoncology.org"
        },
        { "name": "Uzoma K. Iheagwara", "role": "PRINCIPAL_INVESTIGATOR" }
      ],
      "geoPoint": { "lat": 40.20148, "lon": -77.18887 }
    },
    {
      "facility": "Christiana Care Health System-Concord Health Center",
      "status": "RECRUITING",
      "city": "Chadds Ford",
      "state": "Pennsylvania",
      "zip": "19317",
      "country": "United States",
      "contacts": [
        {
          "name": "Site Public Contact",
          "role": "CONTACT",
          "phone": "302-623-4450",
          "email": "lbarone@christianacare.org"
        },
        { "name": "Gregory A. Masters", "role": "PRINCIPAL_INVESTIGATOR" }
      ],
      "geoPoint": { "lat": 39.87178, "lon": -75.59132 }
    },
    {
      "facility": "Chambersburg Hospital",
      "status": "RECRUITING",
      "city": "Chambersburg",
      "state": "Pennsylvania",
      "zip": "17201",
      "country": "United States",
      "contacts": [
        {
          "name": "Site Public Contact",
          "role": "CONTACT",
          "phone": "412-339-5294",
          "email": "Roster@nrgoncology.org"
        },
        { "name": "Sherif F. Yacoub", "role": "PRINCIPAL_INVESTIGATOR" }
      ],
      "geoPoint": { "lat": 39.93759, "lon": -77.6611 }
    },
    {
      "facility": "Geisinger Medical Center",
      "status": "RECRUITING",
      "city": "Danville",
      "state": "Pennsylvania",
      "zip": "17822",
      "country": "United States",
      "contacts": [
        {
          "name": "Site Public Contact",
          "role": "CONTACT",
          "phone": "570-271-5251",
          "email": "HemonCCTrials@geisinger.edu"
        },
        { "name": "Fiori Alite", "role": "PRINCIPAL_INVESTIGATOR" }
      ],
      "geoPoint": { "lat": 40.96342, "lon": -76.61273 }
    },
    {
      "facility": "Saint Luke's Hospital-Anderson Campus",
      "status": "RECRUITING",
      "city": "Easton",
      "state": "Pennsylvania",
      "zip": "18045",
      "country": "United States",
      "contacts": [
        {
          "name": "Site Public Contact",
          "role": "CONTACT",
          "phone": "412-339-5294",
          "email": "Roster@nrgoncology.org"
        },
        { "name": "William H. Smith", "role": "PRINCIPAL_INVESTIGATOR" }
      ],
      "geoPoint": { "lat": 40.68843, "lon": -75.22073 }
    },
    {
      "facility": "Ephrata Cancer Center",
      "status": "RECRUITING",
      "city": "Ephrata",
      "state": "Pennsylvania",
      "zip": "17522",
      "country": "United States",
      "contacts": [
        {
          "name": "Site Public Contact",
          "role": "CONTACT",
          "phone": "717-721-4840"
        },
        { "name": "Sherif F. Yacoub", "role": "PRINCIPAL_INVESTIGATOR" }
      ],
      "geoPoint": { "lat": 40.17982, "lon": -76.17884 }
    },
    {
      "facility": "UPMC Hillman Cancer Center Erie",
      "status": "RECRUITING",
      "city": "Erie",
      "state": "Pennsylvania",
      "zip": "16505",
      "country": "United States",
      "contacts": [
        {
          "name": "Site Public Contact",
          "role": "CONTACT",
          "phone": "412-389-5208",
          "email": "haneydl@upmc.edu"
        },
        { "name": "Uzoma K. Iheagwara", "role": "PRINCIPAL_INVESTIGATOR" }
      ],
      "geoPoint": { "lat": 42.12922, "lon": -80.08506 }
    },
    {
      "facility": "Saint Vincent Hospital",
      "status": "ACTIVE_NOT_RECRUITING",
      "city": "Erie",
      "state": "Pennsylvania",
      "zip": "16544",
      "country": "United States",
      "geoPoint": { "lat": 42.12922, "lon": -80.08506 }
    },
    {
      "facility": "UPMC Cancer Center at UPMC Horizon",
      "status": "RECRUITING",
      "city": "Farrell",
      "state": "Pennsylvania",
      "zip": "16121",
      "country": "United States",
      "contacts": [
        {
          "name": "Site Public Contact",
          "role": "CONTACT",
          "phone": "412-339-5294",
          "email": "Roster@nrgoncology.org"
        },
        { "name": "Uzoma K. Iheagwara", "role": "PRINCIPAL_INVESTIGATOR" }
      ],
      "geoPoint": { "lat": 41.21228, "lon": -80.49674 }
    },
    {
      "facility": "Adams Cancer Center",
      "status": "RECRUITING",
      "city": "Gettysburg",
      "state": "Pennsylvania",
      "zip": "17325",
      "country": "United States",
      "contacts": [
        {
          "name": "Site Public Contact",
          "role": "CONTACT",
          "phone": "877-441-7957"
        },
        { "name": "Sherif F. Yacoub", "role": "PRINCIPAL_INVESTIGATOR" }
      ],
      "geoPoint": { "lat": 39.83093, "lon": -77.2311 }
    },
    {
      "facility": "Crozer Regional Cancer Center at Brinton Lake",
      "status": "SUSPENDED",
      "city": "Glen Mills",
      "state": "Pennsylvania",
      "zip": "19342",
      "country": "United States",
      "geoPoint": { "lat": 39.91928, "lon": -75.49159 }
    },
    {
      "facility": "UPMC Cancer Centers - Arnold Palmer Pavilion",
      "status": "RECRUITING",
      "city": "Greensburg",
      "state": "Pennsylvania",
      "zip": "15601",
      "country": "United States",
      "contacts": [
        {
          "name": "Site Public Contact",
          "role": "CONTACT",
          "phone": "724-838-1900"
        },
        { "name": "Uzoma K. Iheagwara", "role": "PRINCIPAL_INVESTIGATOR" }
      ],
      "geoPoint": { "lat": 40.30146, "lon": -79.53893 }
    },
    {
      "facility": "UPMC Hillman Cancer Center in Greenville/UPMC Horizon",
      "status": "RECRUITING",
      "city": "Greenville",
      "state": "Pennsylvania",
      "zip": "16125",
      "country": "United States",
      "contacts": [
        {
          "name": "Site Public Contact",
          "role": "CONTACT",
          "phone": "412-389-5208",
          "email": "haneydl@upmc.edu"
        },
        { "name": "Uzoma K. Iheagwara", "role": "PRINCIPAL_INVESTIGATOR" }
      ],
      "geoPoint": { "lat": 41.4045, "lon": -80.39118 }
    },
    {
      "facility": "UPMC Pinnacle Cancer Center/Community Osteopathic Campus",
      "status": "RECRUITING",
      "city": "Harrisburg",
      "state": "Pennsylvania",
      "zip": "17109",
      "country": "United States",
      "contacts": [
        {
          "name": "Site Public Contact",
          "role": "CONTACT",
          "phone": "717-724-6765",
          "email": "klitchfield@PINNACLEHEALTH.org"
        },
        { "name": "Uzoma K. Iheagwara", "role": "PRINCIPAL_INVESTIGATOR" }
      ],
      "geoPoint": { "lat": 40.2737, "lon": -76.88442 }
    },
    {
      "facility": "Penn State Milton S Hershey Medical Center",
      "status": "RECRUITING",
      "city": "Hershey",
      "state": "Pennsylvania",
      "zip": "17033-0850",
      "country": "United States",
      "contacts": [
        {
          "name": "Site Public Contact",
          "role": "CONTACT",
          "phone": "717-531-3779",
          "email": "CTO@hmc.psu.edu"
        },
        { "name": "Mitchell Machtay", "role": "PRINCIPAL_INVESTIGATOR" }
      ],
      "geoPoint": { "lat": 40.28592, "lon": -76.65025 }
    },
    {
      "facility": "IRMC Cancer Center",
      "status": "RECRUITING",
      "city": "Indiana",
      "state": "Pennsylvania",
      "zip": "15701",
      "country": "United States",
      "contacts": [
        {
          "name": "Site Public Contact",
          "role": "CONTACT",
          "phone": "412-389-5208",
          "email": "haneydl@upmc.edu"
        },
        { "name": "Uzoma K. Iheagwara", "role": "PRINCIPAL_INVESTIGATOR" }
      ],
      "geoPoint": { "lat": 40.62146, "lon": -79.15253 }
    },
    {
      "facility": "Jefferson Hospital",
      "status": "ACTIVE_NOT_RECRUITING",
      "city": "Jefferson Hills",
      "state": "Pennsylvania",
      "zip": "15025",
      "country": "United States",
      "geoPoint": { "lat": 40.29118, "lon": -79.93199 }
    },
    {
      "facility": "Sechler Family Cancer Center",
      "status": "RECRUITING",
      "city": "Lebanon",
      "state": "Pennsylvania",
      "zip": "17042",
      "country": "United States",
      "contacts": [
        {
          "name": "Site Public Contact",
          "role": "CONTACT",
          "phone": "717-741-8303",
          "email": "doxenberg@wellspan.org"
        },
        { "name": "Sherif F. Yacoub", "role": "PRINCIPAL_INVESTIGATOR" }
      ],
      "geoPoint": { "lat": 40.34093, "lon": -76.41135 }
    },
    {
      "facility": "Geisinger Medical Oncology-Lewisburg",
      "status": "RECRUITING",
      "city": "Lewisburg",
      "state": "Pennsylvania",
      "zip": "17837",
      "country": "United States",
      "contacts": [
        {
          "name": "Site Public Contact",
          "role": "CONTACT",
          "phone": "570-374-8555",
          "email": "HemonCCTrials@geisinger.edu"
        },
        { "name": "Fiori Alite", "role": "PRINCIPAL_INVESTIGATOR" }
      ],
      "geoPoint": { "lat": 40.96453, "lon": -76.88441 }
    },
    {
      "facility": "UPMC Hillman Cancer Center at Rocco And Nancy Ortenzio Cancer Pavilion",
      "status": "RECRUITING",
      "city": "Mechanicsburg",
      "state": "Pennsylvania",
      "zip": "17050",
      "country": "United States",
      "contacts": [
        {
          "name": "Site Public Contact",
          "role": "CONTACT",
          "phone": "412-389-5208",
          "email": "haneydl@upmc.edu"
        },
        { "name": "Uzoma K. Iheagwara", "role": "PRINCIPAL_INVESTIGATOR" }
      ],
      "geoPoint": { "lat": 40.21426, "lon": -77.00859 }
    },
    {
      "facility": "Riddle Memorial Hospital",
      "status": "RECRUITING",
      "city": "Media",
      "state": "Pennsylvania",
      "zip": "19063",
      "country": "United States",
      "contacts": [
        {
          "name": "Site Public Contact",
          "role": "CONTACT",
          "phone": "484-476-2649",
          "email": "turzoe@mlhs.org"
        },
        { "name": "Paul B. Gilman", "role": "PRINCIPAL_INVESTIGATOR" }
      ],
      "geoPoint": { "lat": 39.91678, "lon": -75.38769 }
    },
    {
      "facility": "Forbes Hospital",
      "status": "ACTIVE_NOT_RECRUITING",
      "city": "Monroeville",
      "state": "Pennsylvania",
      "zip": "15146",
      "country": "United States",
      "geoPoint": { "lat": 40.42118, "lon": -79.7881 }
    },
    {
      "facility": "UPMC Cancer Center - Monroeville",
      "status": "RECRUITING",
      "city": "Monroeville",
      "state": "Pennsylvania",
      "zip": "15146",
      "country": "United States",
      "contacts": [
        {
          "name": "Site Public Contact",
          "role": "CONTACT",
          "phone": "412-339-5294",
          "email": "Roster@nrgoncology.org"
        },
        { "name": "Uzoma K. Iheagwara", "role": "PRINCIPAL_INVESTIGATOR" }
      ],
      "geoPoint": { "lat": 40.42118, "lon": -79.7881 }
    },
    {
      "facility": "UPMC Hillman Cancer Center - Monroeville",
      "status": "RECRUITING",
      "city": "Monroeville",
      "state": "Pennsylvania",
      "zip": "15146",
      "country": "United States",
      "contacts": [
        {
          "name": "Site Public Contact",
          "role": "CONTACT",
          "phone": "412-389-5208",
          "email": "haneydl@upmc.edu"
        },
        { "name": "Uzoma K. Iheagwara", "role": "PRINCIPAL_INVESTIGATOR" }
      ],
      "geoPoint": { "lat": 40.42118, "lon": -79.7881 }
    },
    {
      "facility": "Allegheny Valley Hospital",
      "status": "ACTIVE_NOT_RECRUITING",
      "city": "Natrona Heights",
      "state": "Pennsylvania",
      "zip": "15065",
      "country": "United States",
      "geoPoint": { "lat": 40.6234, "lon": -79.72977 }
    },
    {
      "facility": "UPMC Hillman Cancer Center - New Castle",
      "status": "RECRUITING",
      "city": "New Castle",
      "state": "Pennsylvania",
      "zip": "16105",
      "country": "United States",
      "contacts": [
        {
          "name": "Site Public Contact",
          "role": "CONTACT",
          "phone": "412-389-5208",
          "email": "haneydl@upmc.edu"
        },
        { "name": "Uzoma K. Iheagwara", "role": "PRINCIPAL_INVESTIGATOR" }
      ],
      "geoPoint": { "lat": 41.00367, "lon": -80.34701 }
    },
    {
      "facility": "Paoli Memorial Hospital",
      "status": "RECRUITING",
      "city": "Paoli",
      "state": "Pennsylvania",
      "zip": "19301",
      "country": "United States",
      "contacts": [
        {
          "name": "Site Public Contact",
          "role": "CONTACT",
          "phone": "484-476-2649",
          "email": "turzoe@mlhs.org"
        },
        { "name": "Paul B. Gilman", "role": "PRINCIPAL_INVESTIGATOR" }
      ],
      "geoPoint": { "lat": 40.04205, "lon": -75.47631 }
    },
    {
      "facility": "University of Pennsylvania/Abramson Cancer Center",
      "status": "RECRUITING",
      "city": "Philadelphia",
      "state": "Pennsylvania",
      "zip": "19104",
      "country": "United States",
      "contacts": [
        {
          "name": "Site Public Contact",
          "role": "CONTACT",
          "phone": "215-349-8245",
          "email": "PMCancerResearch@pennmedicine.upenn.edu"
        },
        { "name": "Steven J. Feigenberg", "role": "PRINCIPAL_INVESTIGATOR" }
      ],
      "geoPoint": { "lat": 39.95238, "lon": -75.16362 }
    },
    {
      "facility": "Thomas Jefferson University Hospital",
      "status": "RECRUITING",
      "city": "Philadelphia",
      "state": "Pennsylvania",
      "zip": "19107",
      "country": "United States",
      "contacts": [
        {
          "name": "Site Public Contact",
          "role": "CONTACT",
          "phone": "215-600-9151",
          "email": "ONCTrialNow@jefferson.edu"
        },
        { "name": "Ida Micaily", "role": "PRINCIPAL_INVESTIGATOR" }
      ],
      "geoPoint": { "lat": 39.95238, "lon": -75.16362 }
    },
    {
      "facility": "Jefferson Torresdale Hospital",
      "status": "RECRUITING",
      "city": "Philadelphia",
      "state": "Pennsylvania",
      "zip": "19114",
      "country": "United States",
      "contacts": [
        {
          "name": "Site Public Contact",
          "role": "CONTACT",
          "phone": "215-600-9151",
          "email": "ONCTrialNow@jefferson.edu"
        },
        { "name": "Ida Micaily", "role": "PRINCIPAL_INVESTIGATOR" }
      ],
      "geoPoint": { "lat": 39.95238, "lon": -75.16362 }
    },
    {
      "facility": "Allegheny General Hospital",
      "status": "ACTIVE_NOT_RECRUITING",
      "city": "Pittsburgh",
      "state": "Pennsylvania",
      "zip": "15212",
      "country": "United States",
      "geoPoint": { "lat": 40.44062, "lon": -79.99589 }
    },
    {
      "facility": "UPMC-Saint Margaret",
      "status": "RECRUITING",
      "city": "Pittsburgh",
      "state": "Pennsylvania",
      "zip": "15215",
      "country": "United States",
      "contacts": [
        {
          "name": "Site Public Contact",
          "role": "CONTACT",
          "phone": "412-784-4900"
        },
        { "name": "Uzoma K. Iheagwara", "role": "PRINCIPAL_INVESTIGATOR" }
      ],
      "geoPoint": { "lat": 40.44062, "lon": -79.99589 }
    },
    {
      "facility": "West Penn Hospital",
      "status": "ACTIVE_NOT_RECRUITING",
      "city": "Pittsburgh",
      "state": "Pennsylvania",
      "zip": "15224",
      "country": "United States",
      "geoPoint": { "lat": 40.44062, "lon": -79.99589 }
    },
    {
      "facility": "University of Pittsburgh Cancer Institute (UPCI)",
      "status": "RECRUITING",
      "city": "Pittsburgh",
      "state": "Pennsylvania",
      "zip": "15232",
      "country": "United States",
      "contacts": [
        {
          "name": "Site Public Contact",
          "role": "CONTACT",
          "phone": "412-647-8073"
        },
        { "name": "Uzoma K. Iheagwara", "role": "PRINCIPAL_INVESTIGATOR" }
      ],
      "geoPoint": { "lat": 40.44062, "lon": -79.99589 }
    },
    {
      "facility": "UPMC-Shadyside Hospital",
      "status": "RECRUITING",
      "city": "Pittsburgh",
      "state": "Pennsylvania",
      "zip": "15232",
      "country": "United States",
      "contacts": [
        {
          "name": "Site Public Contact",
          "role": "CONTACT",
          "phone": "412-621-2334"
        },
        { "name": "Uzoma K. Iheagwara", "role": "PRINCIPAL_INVESTIGATOR" }
      ],
      "geoPoint": { "lat": 40.44062, "lon": -79.99589 }
    },
    {
      "facility": "UPMC-Passavant Hospital",
      "status": "RECRUITING",
      "city": "Pittsburgh",
      "state": "Pennsylvania",
      "zip": "15237",
      "country": "United States",
      "contacts": [
        {
          "name": "Site Public Contact",
          "role": "CONTACT",
          "phone": "412-367-6454"
        },
        { "name": "Uzoma K. Iheagwara", "role": "PRINCIPAL_INVESTIGATOR" }
      ],
      "geoPoint": { "lat": 40.44062, "lon": -79.99589 }
    },
    {
      "facility": "UPMC-Saint Clair Hospital Cancer Center",
      "status": "RECRUITING",
      "city": "Pittsburgh",
      "state": "Pennsylvania",
      "zip": "15243",
      "country": "United States",
      "contacts": [
        {
          "name": "Site Public Contact",
          "role": "CONTACT",
          "phone": "412-502-3920"
        },
        { "name": "Uzoma K. Iheagwara", "role": "PRINCIPAL_INVESTIGATOR" }
      ],
      "geoPoint": { "lat": 40.44062, "lon": -79.99589 }
    },
    {
      "facility": "Saint Luke's Hospital - Upper Bucks Campus",
      "status": "RECRUITING",
      "city": "Quakertown",
      "state": "Pennsylvania",
      "zip": "18951",
      "country": "United States",
      "contacts": [
        {
          "name": "Site Public Contact",
          "role": "CONTACT",
          "phone": "610-776-4714"
        },
        { "name": "William H. Smith", "role": "PRINCIPAL_INVESTIGATOR" }
      ],
      "geoPoint": { "lat": 40.44177, "lon": -75.34157 }
    },
    {
      "facility": "Guthrie Medical Group PC-Robert Packer Hospital",
      "status": "RECRUITING",
      "city": "Sayre",
      "state": "Pennsylvania",
      "zip": "18840",
      "country": "United States",
      "contacts": [
        {
          "name": "Site Public Contact",
          "role": "CONTACT",
          "phone": "800-836-0388"
        },
        { "name": "Joyson Poulose", "role": "PRINCIPAL_INVESTIGATOR" }
      ],
      "geoPoint": { "lat": 41.97896, "lon": -76.5155 }
    },
    {
      "facility": "Saint Luke's Hospital - Monroe Campus",
      "status": "RECRUITING",
      "city": "Stroudsburg",
      "state": "Pennsylvania",
      "zip": "18360",
      "country": "United States",
      "contacts": [
        {
          "name": "Site Public Contact",
          "role": "CONTACT",
          "phone": "412-339-5294",
          "email": "Roster@nrgoncology.org"
        },
        { "name": "William H. Smith", "role": "PRINCIPAL_INVESTIGATOR" }
      ],
      "geoPoint": { "lat": 40.98676, "lon": -75.19462 }
    },
    {
      "facility": "UPMC Cancer Center-Washington",
      "status": "RECRUITING",
      "city": "Washington",
      "state": "Pennsylvania",
      "zip": "15301",
      "country": "United States",
      "contacts": [
        {
          "name": "Site Public Contact",
          "role": "CONTACT",
          "phone": "412-339-5294",
          "email": "Roster@nrgoncology.org"
        },
        { "name": "Uzoma K. Iheagwara", "role": "PRINCIPAL_INVESTIGATOR" }
      ],
      "geoPoint": { "lat": 40.17396, "lon": -80.24617 }
    },
    {
      "facility": "UPMC Washington Hospital Radiation Oncology",
      "status": "RECRUITING",
      "city": "Washington",
      "state": "Pennsylvania",
      "zip": "15301",
      "country": "United States",
      "contacts": [
        {
          "name": "Site Public Contact",
          "role": "CONTACT",
          "phone": "724-223-3788",
          "email": "cancer@washingtonhospital.org"
        },
        { "name": "Uzoma K. Iheagwara", "role": "PRINCIPAL_INVESTIGATOR" }
      ],
      "geoPoint": { "lat": 40.17396, "lon": -80.24617 }
    },
    {
      "facility": "Wexford Health and Wellness Pavilion",
      "status": "ACTIVE_NOT_RECRUITING",
      "city": "Wexford",
      "state": "Pennsylvania",
      "zip": "15090",
      "country": "United States",
      "geoPoint": { "lat": 40.62646, "lon": -80.05589 }
    },
    {
      "facility": "Geisinger Wyoming Valley/Henry Cancer Center",
      "status": "RECRUITING",
      "city": "Wilkes-Barre",
      "state": "Pennsylvania",
      "zip": "18711",
      "country": "United States",
      "contacts": [
        {
          "name": "Site Public Contact",
          "role": "CONTACT",
          "phone": "570-271-5251",
          "email": "HemonCCTrials@geisinger.edu"
        },
        { "name": "Fiori Alite", "role": "PRINCIPAL_INVESTIGATOR" }
      ],
      "geoPoint": { "lat": 41.24591, "lon": -75.88131 }
    },
    {
      "facility": "Divine Providence Hospital",
      "status": "RECRUITING",
      "city": "Williamsport",
      "state": "Pennsylvania",
      "zip": "17754",
      "country": "United States",
      "contacts": [
        {
          "name": "Site Public Contact",
          "role": "CONTACT",
          "phone": "412-339-5294",
          "email": "Roster@nrgoncology.org"
        },
        { "name": "Uzoma K. Iheagwara", "role": "PRINCIPAL_INVESTIGATOR" }
      ],
      "geoPoint": { "lat": 41.24119, "lon": -77.00108 }
    },
    {
      "facility": "Lankenau Medical Center",
      "status": "RECRUITING",
      "city": "Wynnewood",
      "state": "Pennsylvania",
      "zip": "19096",
      "country": "United States",
      "contacts": [
        {
          "name": "Site Public Contact",
          "role": "CONTACT",
          "phone": "484-476-2649",
          "email": "turzoe@mlhs.org"
        },
        { "name": "Paul B. Gilman", "role": "PRINCIPAL_INVESTIGATOR" }
      ],
      "geoPoint": { "lat": 40.00289, "lon": -75.27074 }
    },
    {
      "facility": "WellSpan Health-York Cancer Center",
      "status": "RECRUITING",
      "city": "York",
      "state": "Pennsylvania",
      "zip": "17403",
      "country": "United States",
      "contacts": [
        {
          "name": "Site Public Contact",
          "role": "CONTACT",
          "phone": "877-441-7957"
        },
        { "name": "Sherif F. Yacoub", "role": "PRINCIPAL_INVESTIGATOR" }
      ],
      "geoPoint": { "lat": 39.9626, "lon": -76.72774 }
    },
    {
      "facility": "WellSpan Health-York Hospital",
      "status": "RECRUITING",
      "city": "York",
      "state": "Pennsylvania",
      "zip": "17403",
      "country": "United States",
      "contacts": [
        {
          "name": "Site Public Contact",
          "role": "CONTACT",
          "phone": "877-441-7957"
        },
        { "name": "Sherif F. Yacoub", "role": "PRINCIPAL_INVESTIGATOR" }
      ],
      "geoPoint": { "lat": 39.9626, "lon": -76.72774 }
    },
    {
      "facility": "UPMC Memorial",
      "status": "RECRUITING",
      "city": "York",
      "state": "Pennsylvania",
      "zip": "17408",
      "country": "United States",
      "contacts": [
        {
          "name": "Site Public Contact",
          "role": "CONTACT",
          "phone": "717-724-6760"
        },
        { "name": "Uzoma K. Iheagwara", "role": "PRINCIPAL_INVESTIGATOR" }
      ],
      "geoPoint": { "lat": 39.9626, "lon": -76.72774 }
    },
    {
      "facility": "Smilow Cancer Hospital Care Center - Westerly",
      "status": "RECRUITING",
      "city": "Westerly",
      "state": "Rhode Island",
      "zip": "02891",
      "country": "United States",
      "contacts": [
        {
          "name": "Site Public Contact",
          "role": "CONTACT",
          "phone": "203-785-5702",
          "email": "canceranswers@yale.edu"
        },
        { "name": "Henry S. Park", "role": "PRINCIPAL_INVESTIGATOR" }
      ],
      "geoPoint": { "lat": 41.3776, "lon": -71.82729 }
    },
    {
      "facility": "Saint Joseph's/Candler - Bluffton Campus",
      "status": "ACTIVE_NOT_RECRUITING",
      "city": "Bluffton",
      "state": "South Carolina",
      "zip": "29910",
      "country": "United States",
      "geoPoint": { "lat": 32.23715, "lon": -80.86039 }
    },
    {
      "facility": "Medical University of South Carolina",
      "status": "SUSPENDED",
      "city": "Charleston",
      "state": "South Carolina",
      "zip": "29425",
      "country": "United States",
      "geoPoint": { "lat": 32.77632, "lon": -79.93275 }
    },
    {
      "facility": "Gibbs Cancer Center-Gaffney",
      "status": "SUSPENDED",
      "city": "Gaffney",
      "state": "South Carolina",
      "zip": "29341",
      "country": "United States",
      "geoPoint": { "lat": 35.07179, "lon": -81.64982 }
    },
    {
      "facility": "Saint Francis Hospital",
      "status": "RECRUITING",
      "city": "Greenville",
      "state": "South Carolina",
      "zip": "29601",
      "country": "United States",
      "contacts": [
        {
          "name": "Site Public Contact",
          "role": "CONTACT",
          "phone": "864-603-6234",
          "email": "Heather_Rich@bshsi.org"
        },
        { "name": "Stephen H. Dyar", "role": "PRINCIPAL_INVESTIGATOR" }
      ],
      "geoPoint": { "lat": 34.85262, "lon": -82.39401 }
    },
    {
      "facility": "Prisma Health Cancer Institute - Faris",
      "status": "ACTIVE_NOT_RECRUITING",
      "city": "Greenville",
      "state": "South Carolina",
      "zip": "29605",
      "country": "United States",
      "geoPoint": { "lat": 34.85262, "lon": -82.39401 }
    },
    {
      "facility": "Saint Francis Cancer Center",
      "status": "RECRUITING",
      "city": "Greenville",
      "state": "South Carolina",
      "zip": "29607",
      "country": "United States",
      "contacts": [
        {
          "name": "Site Public Contact",
          "role": "CONTACT",
          "phone": "864-603-6234",
          "email": "Heather_Rich@bshsi.org"
        },
        { "name": "Stephen H. Dyar", "role": "PRINCIPAL_INVESTIGATOR" }
      ],
      "geoPoint": { "lat": 34.85262, "lon": -82.39401 }
    },
    {
      "facility": "Prisma Health Cancer Institute - Eastside",
      "status": "ACTIVE_NOT_RECRUITING",
      "city": "Greenville",
      "state": "South Carolina",
      "zip": "29615",
      "country": "United States",
      "geoPoint": { "lat": 34.85262, "lon": -82.39401 }
    },
    {
      "facility": "Self Regional Healthcare",
      "status": "RECRUITING",
      "city": "Greenwood",
      "state": "South Carolina",
      "zip": "29646",
      "country": "United States",
      "contacts": [
        {
          "name": "Site Public Contact",
          "role": "CONTACT",
          "phone": "864-725-4771",
          "email": "nmcgaha@selfregional.org"
        },
        { "name": "Mariam Alexander", "role": "PRINCIPAL_INVESTIGATOR" }
      ],
      "geoPoint": { "lat": 34.1954, "lon": -82.16179 }
    },
    {
      "facility": "Prisma Health Cancer Institute - Greer",
      "status": "ACTIVE_NOT_RECRUITING",
      "city": "Greer",
      "state": "South Carolina",
      "zip": "29650",
      "country": "United States",
      "geoPoint": { "lat": 34.93873, "lon": -82.22706 }
    },
    {
      "facility": "Gibbs Cancer Center-Pelham",
      "status": "RECRUITING",
      "city": "Greer",
      "state": "South Carolina",
      "zip": "29651",
      "country": "United States",
      "contacts": [
        {
          "name": "Site Public Contact",
          "role": "CONTACT",
          "phone": "864-560-6104",
          "email": "kmertz-rivera@gibbscc.org"
        },
        { "name": "Michael Humeniuk", "role": "PRINCIPAL_INVESTIGATOR" }
      ],
      "geoPoint": { "lat": 34.93873, "lon": -82.22706 }
    },
    {
      "facility": "Rock Hill Radiation Therapy Center",
      "status": "RECRUITING",
      "city": "Rock Hill",
      "state": "South Carolina",
      "zip": "29730",
      "country": "United States",
      "contacts": [
        {
          "name": "Site Public Contact",
          "role": "CONTACT",
          "phone": "800-804-9376"
        },
        { "name": "John H. Heinzerling", "role": "PRINCIPAL_INVESTIGATOR" }
      ],
      "geoPoint": { "lat": 34.92487, "lon": -81.02508 }
    },
    {
      "facility": "Levine Cancer Institute-Rock Hill",
      "status": "RECRUITING",
      "city": "Rock Hill",
      "state": "South Carolina",
      "zip": "29732",
      "country": "United States",
      "contacts": [
        {
          "name": "Site Public Contact",
          "role": "CONTACT",
          "phone": "800-804-9376"
        },
        { "name": "John H. Heinzerling", "role": "PRINCIPAL_INVESTIGATOR" }
      ],
      "geoPoint": { "lat": 34.92487, "lon": -81.02508 }
    },
    {
      "facility": "Prisma Health Cancer Institute - Seneca",
      "status": "ACTIVE_NOT_RECRUITING",
      "city": "Seneca",
      "state": "South Carolina",
      "zip": "29672",
      "country": "United States",
      "geoPoint": { "lat": 34.68566, "lon": -82.9532 }
    },
    {
      "facility": "Spartanburg Medical Center",
      "status": "RECRUITING",
      "city": "Spartanburg",
      "state": "South Carolina",
      "zip": "29303",
      "country": "United States",
      "contacts": [
        {
          "name": "Site Public Contact",
          "role": "CONTACT",
          "phone": "864-560-6104",
          "email": "kmertz-rivera@gibbscc.org"
        },
        { "name": "Michael Humeniuk", "role": "PRINCIPAL_INVESTIGATOR" }
      ],
      "geoPoint": { "lat": 34.94957, "lon": -81.93205 }
    },
    {
      "facility": "SMC Center for Hematology Oncology Union",
      "status": "SUSPENDED",
      "city": "Union",
      "state": "South Carolina",
      "zip": "29379",
      "country": "United States",
      "geoPoint": { "lat": 34.71541, "lon": -81.62371 }
    },
    {
      "facility": "Avera Cancer Institute at Pierre",
      "status": "RECRUITING",
      "city": "Pierre",
      "state": "South Dakota",
      "zip": "57501",
      "country": "United States",
      "contacts": [
        {
          "name": "Site Public Contact",
          "role": "CONTACT",
          "phone": "605-322-3095",
          "email": "OncRegulatory@avera.org"
        },
        { "name": "Benjamin M. Solomon", "role": "PRINCIPAL_INVESTIGATOR" }
      ],
      "geoPoint": { "lat": 44.36832, "lon": -100.35097 }
    },
    {
      "facility": "Sanford Cancer Center Oncology Clinic",
      "status": "RECRUITING",
      "city": "Sioux Falls",
      "state": "South Dakota",
      "zip": "57104",
      "country": "United States",
      "contacts": [
        {
          "name": "Site Public Contact",
          "role": "CONTACT",
          "phone": "605-312-3320",
          "email": "OncologyClinicTrialsSF@sanfordhealth.org"
        },
        { "name": "Daniel Almquist", "role": "PRINCIPAL_INVESTIGATOR" }
      ],
      "geoPoint": { "lat": 43.54369, "lon": -96.72796 }
    },
    {
      "facility": "Avera Cancer Institute",
      "status": "RECRUITING",
      "city": "Sioux Falls",
      "state": "South Dakota",
      "zip": "57105",
      "country": "United States",
      "contacts": [
        {
          "name": "Site Public Contact",
          "role": "CONTACT",
          "phone": "605-322-3095",
          "email": "OncRegulatory@avera.org"
        },
        { "name": "Benjamin M. Solomon", "role": "PRINCIPAL_INVESTIGATOR" }
      ],
      "geoPoint": { "lat": 43.54369, "lon": -96.72796 }
    },
    {
      "facility": "Sanford USD Medical Center - Sioux Falls",
      "status": "RECRUITING",
      "city": "Sioux Falls",
      "state": "South Dakota",
      "zip": "57117-5134",
      "country": "United States",
      "contacts": [
        {
          "name": "Site Public Contact",
          "role": "CONTACT",
          "phone": "605-312-3320",
          "email": "OncologyClinicalTrialsSF@SanfordHealth.org"
        },
        { "name": "Daniel Almquist", "role": "PRINCIPAL_INVESTIGATOR" }
      ],
      "geoPoint": { "lat": 43.54369, "lon": -96.72796 }
    },
    {
      "facility": "Avera Cancer Institute at Yankton",
      "status": "RECRUITING",
      "city": "Yankton",
      "state": "South Dakota",
      "zip": "57078",
      "country": "United States",
      "contacts": [
        {
          "name": "Site Public Contact",
          "role": "CONTACT",
          "phone": "605-322-3095",
          "email": "OncRegulatory@avera.org"
        },
        { "name": "Benjamin M. Solomon", "role": "PRINCIPAL_INVESTIGATOR" }
      ],
      "geoPoint": { "lat": 42.87111, "lon": -97.39728 }
    },
    {
      "facility": "Baptist Memorial Hospital and Cancer Center-Memphis",
      "status": "RECRUITING",
      "city": "Memphis",
      "state": "Tennessee",
      "zip": "38120",
      "country": "United States",
      "contacts": [
        {
          "name": "Site Public Contact",
          "role": "CONTACT",
          "phone": "901-226-1366",
          "email": "BCCclintrials@bmhcc.org"
        },
        { "name": "Philip E. Lammers", "role": "PRINCIPAL_INVESTIGATOR" }
      ],
      "geoPoint": { "lat": 35.14953, "lon": -90.04898 }
    },
    {
      "facility": "MD Anderson in The Woodlands",
      "status": "RECRUITING",
      "city": "Conroe",
      "state": "Texas",
      "zip": "77384",
      "country": "United States",
      "contacts": [
        {
          "name": "Site Public Contact",
          "role": "CONTACT",
          "phone": "866-632-6789",
          "email": "askmdanderson@mdanderson.org"
        },
        { "name": "Saumil Gandhi", "role": "PRINCIPAL_INVESTIGATOR" }
      ],
      "geoPoint": { "lat": 30.31188, "lon": -95.45605 }
    },
    {
      "facility": "Texas Oncology-Flower Mound",
      "status": "ACTIVE_NOT_RECRUITING",
      "city": "Flower Mound",
      "state": "Texas",
      "zip": "75028",
      "country": "United States",
      "geoPoint": { "lat": 33.01457, "lon": -97.09696 }
    },
    {
      "facility": "Texas Oncology - Fort Worth Cancer Center",
      "status": "ACTIVE_NOT_RECRUITING",
      "city": "Fort Worth",
      "state": "Texas",
      "zip": "76104",
      "country": "United States",
      "geoPoint": { "lat": 32.72541, "lon": -97.32085 }
    },
    {
      "facility": "M D Anderson Cancer Center",
      "status": "RECRUITING",
      "city": "Houston",
      "state": "Texas",
      "zip": "77030",
      "country": "United States",
      "contacts": [
        {
          "name": "Site Public Contact",
          "role": "CONTACT",
          "phone": "877-632-6789",
          "email": "askmdanderson@mdanderson.org"
        },
        { "name": "Saumil Gandhi", "role": "PRINCIPAL_INVESTIGATOR" }
      ],
      "geoPoint": { "lat": 29.76328, "lon": -95.36327 }
    },
    {
      "facility": "MD Anderson West Houston",
      "status": "RECRUITING",
      "city": "Houston",
      "state": "Texas",
      "zip": "77079",
      "country": "United States",
      "contacts": [
        {
          "name": "Site Public Contact",
          "role": "CONTACT",
          "phone": "877-632-6789",
          "email": "askmdanderson@mdanderson.org"
        },
        { "name": "Saumil Gandhi", "role": "PRINCIPAL_INVESTIGATOR" }
      ],
      "geoPoint": { "lat": 29.76328, "lon": -95.36327 }
    },
    {
      "facility": "MD Anderson League City",
      "status": "RECRUITING",
      "city": "League City",
      "state": "Texas",
      "zip": "77573",
      "country": "United States",
      "contacts": [
        {
          "name": "Site Public Contact",
          "role": "CONTACT",
          "phone": "877-632-6789",
          "email": "askmdanderson@mdanderson.org"
        },
        { "name": "Saumil Gandhi", "role": "PRINCIPAL_INVESTIGATOR" }
      ],
      "geoPoint": { "lat": 29.50745, "lon": -95.09493 }
    },
    {
      "facility": "Texas Oncology-McKinney",
      "status": "ACTIVE_NOT_RECRUITING",
      "city": "McKinney",
      "state": "Texas",
      "zip": "75071",
      "country": "United States",
      "geoPoint": { "lat": 33.19762, "lon": -96.61527 }
    },
    {
      "facility": "Texas Oncology-Plano West",
      "status": "ACTIVE_NOT_RECRUITING",
      "city": "Plano",
      "state": "Texas",
      "zip": "75093",
      "country": "United States",
      "geoPoint": { "lat": 33.01984, "lon": -96.69889 }
    },
    {
      "facility": "MD Anderson in Sugar Land",
      "status": "RECRUITING",
      "city": "Sugar Land",
      "state": "Texas",
      "zip": "77478",
      "country": "United States",
      "contacts": [
        {
          "name": "Site Public Contact",
          "role": "CONTACT",
          "phone": "877-632-6789",
          "email": "askmdanderson@mdanderson.org"
        },
        { "name": "Saumil Gandhi", "role": "PRINCIPAL_INVESTIGATOR" }
      ],
      "geoPoint": { "lat": 29.61968, "lon": -95.63495 }
    },
    {
      "facility": "Texas Oncology Cancer Center Sugar Land",
      "status": "RECRUITING",
      "city": "Sugar Land",
      "state": "Texas",
      "zip": "77479",
      "country": "United States",
      "contacts": [
        {
          "name": "Site Public Contact",
          "role": "CONTACT",
          "phone": "281-277-5200"
        },
        { "name": "David A. Buck", "role": "PRINCIPAL_INVESTIGATOR" }
      ],
      "geoPoint": { "lat": 29.61968, "lon": -95.63495 }
    },
    {
      "facility": "Texas Oncology-The Woodlands",
      "status": "RECRUITING",
      "city": "The Woodlands",
      "state": "Texas",
      "zip": "77380",
      "country": "United States",
      "contacts": [
        {
          "name": "Site Public Contact",
          "role": "CONTACT",
          "phone": "888-864-4226"
        },
        { "name": "David A. Buck", "role": "PRINCIPAL_INVESTIGATOR" }
      ],
      "geoPoint": { "lat": 30.15799, "lon": -95.48938 }
    },
    {
      "facility": "Farmington Health Center",
      "status": "ACTIVE_NOT_RECRUITING",
      "city": "Farmington",
      "state": "Utah",
      "zip": "84025",
      "country": "United States",
      "geoPoint": { "lat": 40.9805, "lon": -111.88744 }
    },
    {
      "facility": "University of Utah Sugarhouse Health Center",
      "status": "SUSPENDED",
      "city": "Salt Lake City",
      "state": "Utah",
      "zip": "84106",
      "country": "United States",
      "geoPoint": { "lat": 40.76078, "lon": -111.89105 }
    },
    {
      "facility": "Huntsman Cancer Institute/University of Utah",
      "status": "RECRUITING",
      "city": "Salt Lake City",
      "state": "Utah",
      "zip": "84112",
      "country": "United States",
      "contacts": [
        {
          "name": "Site Public Contact",
          "role": "CONTACT",
          "phone": "888-424-2100",
          "email": "cancerinfo@hci.utah.edu"
        },
        { "name": "Bismarck Odei", "role": "PRINCIPAL_INVESTIGATOR" }
      ],
      "geoPoint": { "lat": 40.76078, "lon": -111.89105 }
    },
    {
      "facility": "Central Vermont Medical Center/National Life Cancer Treatment",
      "status": "RECRUITING",
      "city": "Berlin Corners",
      "state": "Vermont",
      "zip": "05602",
      "country": "United States",
      "contacts": [
        {
          "name": "Site Public Contact",
          "role": "CONTACT",
          "phone": "802-225-5400"
        },
        { "name": "Nataniel H. Lester-Coll", "role": "PRINCIPAL_INVESTIGATOR" }
      ],
      "geoPoint": { "lat": 44.21006, "lon": -72.57594 }
    },
    {
      "facility": "University of Vermont Medical Center",
      "status": "RECRUITING",
      "city": "Burlington",
      "state": "Vermont",
      "zip": "05401",
      "country": "United States",
      "contacts": [
        {
          "name": "Site Public Contact",
          "role": "CONTACT",
          "phone": "802-656-4101",
          "email": "rpo@uvm.edu"
        },
        { "name": "Nataniel H. Lester-Coll", "role": "PRINCIPAL_INVESTIGATOR" }
      ],
      "geoPoint": { "lat": 44.47588, "lon": -73.21207 }
    },
    {
      "facility": "University of Vermont and State Agricultural College",
      "status": "RECRUITING",
      "city": "Burlington",
      "state": "Vermont",
      "zip": "05405",
      "country": "United States",
      "contacts": [
        {
          "name": "Site Public Contact",
          "role": "CONTACT",
          "phone": "802-656-8990",
          "email": "rpo@uvm.edu"
        },
        { "name": "Nataniel H. Lester-Coll", "role": "PRINCIPAL_INVESTIGATOR" }
      ],
      "geoPoint": { "lat": 44.47588, "lon": -73.21207 }
    },
    {
      "facility": "Dartmouth Cancer Center - North",
      "status": "RECRUITING",
      "city": "Saint Johnsbury",
      "state": "Vermont",
      "zip": "05819",
      "country": "United States",
      "contacts": [
        {
          "name": "Site Public Contact",
          "role": "CONTACT",
          "phone": "800-639-6918",
          "email": "cancer.research.nurse@hitchcock.org"
        },
        { "name": "Alexander D. Fuld", "role": "PRINCIPAL_INVESTIGATOR" }
      ],
      "geoPoint": { "lat": 44.41922, "lon": -72.01509 }
    },
    {
      "facility": "Inova Schar Cancer Institute",
      "status": "RECRUITING",
      "city": "Fairfax",
      "state": "Virginia",
      "zip": "22031",
      "country": "United States",
      "contacts": [
        {
          "name": "Site Public Contact",
          "role": "CONTACT",
          "phone": "703-720-5210",
          "email": "Stephanie.VanBebber@inova.org"
        },
        { "name": "Christopher B. Johnson", "role": "PRINCIPAL_INVESTIGATOR" }
      ],
      "geoPoint": { "lat": 38.84622, "lon": -77.30637 }
    },
    {
      "facility": "VCU Massey Cancer Center at Stony Point",
      "status": "ACTIVE_NOT_RECRUITING",
      "city": "Richmond",
      "state": "Virginia",
      "zip": "23235",
      "country": "United States",
      "geoPoint": { "lat": 37.55376, "lon": -77.46026 }
    },
    {
      "facility": "VCU Massey Comprehensive Cancer Center",
      "status": "ACTIVE_NOT_RECRUITING",
      "city": "Richmond",
      "state": "Virginia",
      "zip": "23298",
      "country": "United States",
      "geoPoint": { "lat": 37.55376, "lon": -77.46026 }
    },
    {
      "facility": "Oncology and Hematology Associates of Southwest Virginia",
      "status": "ACTIVE_NOT_RECRUITING",
      "city": "Roanoke",
      "state": "Virginia",
      "zip": "24014",
      "country": "United States",
      "geoPoint": { "lat": 37.27097, "lon": -79.94143 }
    },
    {
      "facility": "PeaceHealth Saint Joseph Medical Center",
      "status": "SUSPENDED",
      "city": "Bellingham",
      "state": "Washington",
      "zip": "98225",
      "country": "United States",
      "geoPoint": { "lat": 48.75955, "lon": -122.48822 }
    },
    {
      "facility": "Saint Michael Cancer Center",
      "status": "RECRUITING",
      "city": "Silverdale",
      "state": "Washington",
      "zip": "98383",
      "country": "United States",
      "contacts": [
        {
          "name": "Site Public Contact",
          "role": "CONTACT",
          "phone": "720-874-1881",
          "email": "ResearchInstituteInquiries@CommonSpirit.org"
        },
        { "name": "Shahzad Siddique", "role": "PRINCIPAL_INVESTIGATOR" }
      ],
      "geoPoint": { "lat": 47.64454, "lon": -122.69487 }
    },
    {
      "facility": "Legacy Cancer Institute Medical Oncology and Day Treatment",
      "status": "RECRUITING",
      "city": "Vancouver",
      "state": "Washington",
      "zip": "98684",
      "country": "United States",
      "contacts": [
        {
          "name": "Site Public Contact",
          "role": "CONTACT",
          "email": "oncologyresearch@lhs.org"
        },
        { "name": "Andrew Y. Kee", "role": "PRINCIPAL_INVESTIGATOR" }
      ],
      "geoPoint": { "lat": 45.63873, "lon": -122.66149 }
    },
    {
      "facility": "Legacy Salmon Creek Hospital",
      "status": "RECRUITING",
      "city": "Vancouver",
      "state": "Washington",
      "zip": "98686",
      "country": "United States",
      "contacts": [
        {
          "name": "Site Public Contact",
          "role": "CONTACT",
          "phone": "503-413-2150"
        },
        { "name": "Andrew Y. Kee", "role": "PRINCIPAL_INVESTIGATOR" }
      ],
      "geoPoint": { "lat": 45.63873, "lon": -122.66149 }
    },
    {
      "facility": "West Virginia University Charleston Division",
      "status": "RECRUITING",
      "city": "Charleston",
      "state": "West Virginia",
      "zip": "25304",
      "country": "United States",
      "contacts": [
        {
          "name": "Site Public Contact",
          "role": "CONTACT",
          "phone": "304-388-9944"
        },
        { "name": "Ahmed A. Khalid", "role": "PRINCIPAL_INVESTIGATOR" }
      ],
      "geoPoint": { "lat": 38.34982, "lon": -81.63262 }
    },
    {
      "facility": "West Virginia University Healthcare",
      "status": "RECRUITING",
      "city": "Morgantown",
      "state": "West Virginia",
      "zip": "26506",
      "country": "United States",
      "contacts": [
        {
          "name": "Site Public Contact",
          "role": "CONTACT",
          "phone": "304-293-7374",
          "email": "cancertrialsinfo@hsc.wvu.edu"
        },
        { "name": "Phillip M. Pifer", "role": "PRINCIPAL_INVESTIGATOR" }
      ],
      "geoPoint": { "lat": 39.62953, "lon": -79.9559 }
    },
    {
      "facility": "Wheeling Hospital/Schiffler Cancer Center",
      "status": "SUSPENDED",
      "city": "Wheeling",
      "state": "West Virginia",
      "zip": "26003",
      "country": "United States",
      "geoPoint": { "lat": 40.06396, "lon": -80.72091 }
    },
    {
      "facility": "Langlade Hospital and Cancer Center",
      "status": "RECRUITING",
      "city": "Antigo",
      "state": "Wisconsin",
      "zip": "54409",
      "country": "United States",
      "contacts": [
        {
          "name": "Site Public Contact",
          "role": "CONTACT",
          "phone": "715-623-9869",
          "email": "Juli.Alford@aspirus.org"
        },
        { "name": "Christopher S. Platta", "role": "PRINCIPAL_INVESTIGATOR" }
      ],
      "geoPoint": { "lat": 45.14025, "lon": -89.15234 }
    },
    {
      "facility": "Marshfield Medical Center-EC Cancer Center",
      "status": "RECRUITING",
      "city": "Eau Claire",
      "state": "Wisconsin",
      "zip": "54701",
      "country": "United States",
      "contacts": [
        {
          "name": "Site Public Contact",
          "role": "CONTACT",
          "phone": "800-782-8581",
          "email": "oncology.clinical.trials@marshfieldresearch.org"
        },
        { "name": "Michael Husak", "role": "PRINCIPAL_INVESTIGATOR" }
      ],
      "geoPoint": { "lat": 44.81135, "lon": -91.49849 }
    },
    {
      "facility": "Saint Vincent Hospital Cancer Center Green Bay",
      "status": "RECRUITING",
      "city": "Green Bay",
      "state": "Wisconsin",
      "zip": "54301",
      "country": "United States",
      "contacts": [
        {
          "name": "Site Public Contact",
          "role": "CONTACT",
          "phone": "920-433-8889",
          "email": "WI_research_admin@hshs.org"
        },
        { "name": "Matthew L. Ryan", "role": "PRINCIPAL_INVESTIGATOR" }
      ],
      "geoPoint": { "lat": 44.51916, "lon": -88.01983 }
    },
    {
      "facility": "Gundersen Lutheran Medical Center",
      "status": "ACTIVE_NOT_RECRUITING",
      "city": "La Crosse",
      "state": "Wisconsin",
      "zip": "54601",
      "country": "United States",
      "geoPoint": { "lat": 43.80136, "lon": -91.23958 }
    },
    {
      "facility": "Mayo Clinic Health System-Franciscan Healthcare",
      "status": "WITHDRAWN",
      "city": "La Crosse",
      "state": "Wisconsin",
      "zip": "54601",
      "country": "United States",
      "geoPoint": { "lat": 43.80136, "lon": -91.23958 }
    },
    {
      "facility": "Marshfield Medical Center-Marshfield",
      "status": "RECRUITING",
      "city": "Marshfield",
      "state": "Wisconsin",
      "zip": "54449",
      "country": "United States",
      "contacts": [
        {
          "name": "Site Public Contact",
          "role": "CONTACT",
          "phone": "800-782-8581",
          "email": "oncology.clinical.trials@marshfieldresearch.org"
        },
        { "name": "Michael Husak", "role": "PRINCIPAL_INVESTIGATOR" }
      ],
      "geoPoint": { "lat": 44.66885, "lon": -90.1718 }
    },
    {
      "facility": "Froedtert Menomonee Falls Hospital",
      "status": "RECRUITING",
      "city": "Menomonee Falls",
      "state": "Wisconsin",
      "zip": "53051",
      "country": "United States",
      "contacts": [
        {
          "name": "Site Public Contact",
          "role": "CONTACT",
          "phone": "262-257-5100"
        },
        { "name": "Jonathan R. Thompson", "role": "PRINCIPAL_INVESTIGATOR" }
      ],
      "geoPoint": { "lat": 43.1789, "lon": -88.11731 }
    },
    {
      "facility": "Medical College of Wisconsin",
      "status": "RECRUITING",
      "city": "Milwaukee",
      "state": "Wisconsin",
      "zip": "53226",
      "country": "United States",
      "contacts": [
        {
          "name": "Site Public Contact",
          "role": "CONTACT",
          "phone": "414-805-3666"
        },
        { "name": "Jonathan R. Thompson", "role": "PRINCIPAL_INVESTIGATOR" }
      ],
      "geoPoint": { "lat": 43.0389, "lon": -87.90647 }
    },
    {
      "facility": "Marshfield Medical Center - Minocqua",
      "status": "RECRUITING",
      "city": "Minocqua",
      "state": "Wisconsin",
      "zip": "54548",
      "country": "United States",
      "contacts": [
        {
          "name": "Site Public Contact",
          "role": "CONTACT",
          "phone": "800-782-8581",
          "email": "oncology.clinical.trials@marshfieldresearch.org"
        },
        { "name": "Michael Husak", "role": "PRINCIPAL_INVESTIGATOR" }
      ],
      "geoPoint": { "lat": 45.87134, "lon": -89.71098 }
    },
    {
      "facility": "Drexel Town Square Health Center",
      "status": "RECRUITING",
      "city": "Oak Creek",
      "state": "Wisconsin",
      "zip": "53154",
      "country": "United States",
      "contacts": [
        {
          "name": "Site Public Contact",
          "role": "CONTACT",
          "phone": "414-805-0505"
        },
        { "name": "Jonathan R. Thompson", "role": "PRINCIPAL_INVESTIGATOR" }
      ],
      "geoPoint": { "lat": 42.88585, "lon": -87.86314 }
    },
    {
      "facility": "Aspirus Cancer Care - James Beck Cancer Center",
      "status": "RECRUITING",
      "city": "Rhinelander",
      "state": "Wisconsin",
      "zip": "54501",
      "country": "United States",
      "contacts": [
        {
          "name": "Site Public Contact",
          "role": "CONTACT",
          "phone": "715-847-2353",
          "email": "Beth.Knetter@aspirus.org"
        },
        { "name": "Christopher S. Platta", "role": "PRINCIPAL_INVESTIGATOR" }
      ],
      "geoPoint": { "lat": 45.63662, "lon": -89.41208 }
    },
    {
      "facility": "Marshfield Medical Center-Rice Lake",
      "status": "RECRUITING",
      "city": "Rice Lake",
      "state": "Wisconsin",
      "zip": "54868",
      "country": "United States",
      "contacts": [
        {
          "name": "Site Public Contact",
          "role": "CONTACT",
          "phone": "800-782-8581",
          "email": "oncology.clinical.trials@marshfieldresearch.org"
        },
        { "name": "Michael Husak", "role": "PRINCIPAL_INVESTIGATOR" }
      ],
      "geoPoint": { "lat": 45.50607, "lon": -91.73823 }
    },
    {
      "facility": "Saint Vincent Hospital Cancer Center at Sheboygan",
      "status": "RECRUITING",
      "city": "Sheboygan",
      "state": "Wisconsin",
      "zip": "53081",
      "country": "United States",
      "contacts": [
        {
          "name": "Site Public Contact",
          "role": "CONTACT",
          "phone": "920-433-8889",
          "email": "wi_research_admin@hshs.org"
        },
        { "name": "Matthew L. Ryan", "role": "PRINCIPAL_INVESTIGATOR" }
      ],
      "geoPoint": { "lat": 43.75083, "lon": -87.71453 }
    },
    {
      "facility": "Aspirus Cancer Care - Stevens Point",
      "status": "RECRUITING",
      "city": "Stevens Point",
      "state": "Wisconsin",
      "zip": "54481",
      "country": "United States",
      "contacts": [
        {
          "name": "Site Public Contact",
          "role": "CONTACT",
          "phone": "715-847-2353",
          "email": "Beth.Knetter@aspirus.org"
        },
        { "name": "Christopher S. Platta", "role": "PRINCIPAL_INVESTIGATOR" }
      ],
      "geoPoint": { "lat": 44.52358, "lon": -89.57456 }
    },
    {
      "facility": "Marshfield Medical Center-River Region at Stevens Point",
      "status": "RECRUITING",
      "city": "Stevens Point",
      "state": "Wisconsin",
      "zip": "54482",
      "country": "United States",
      "contacts": [
        {
          "name": "Site Public Contact",
          "role": "CONTACT",
          "phone": "800-782-8581",
          "email": "oncology.clinical.trials@marshfieldresearch.org"
        },
        { "name": "Michael Husak", "role": "PRINCIPAL_INVESTIGATOR" }
      ],
      "geoPoint": { "lat": 44.52358, "lon": -89.57456 }
    },
    {
      "facility": "Saint Vincent Hospital Cancer Center at Sturgeon Bay",
      "status": "RECRUITING",
      "city": "Sturgeon Bay",
      "state": "Wisconsin",
      "zip": "54235-1495",
      "country": "United States",
      "contacts": [
        {
          "name": "Site Public Contact",
          "role": "CONTACT",
          "phone": "920-433-8889",
          "email": "wi_research_admin@hshs.org"
        },
        { "name": "Matthew L. Ryan", "role": "PRINCIPAL_INVESTIGATOR" }
      ],
      "geoPoint": { "lat": 44.83416, "lon": -87.37704 }
    },
    {
      "facility": "Aspirus Regional Cancer Center",
      "status": "RECRUITING",
      "city": "Wausau",
      "state": "Wisconsin",
      "zip": "54401",
      "country": "United States",
      "contacts": [
        {
          "name": "Site Public Contact",
          "role": "CONTACT",
          "phone": "877-405-6866"
        },
        { "name": "Christopher S. Platta", "role": "PRINCIPAL_INVESTIGATOR" }
      ],
      "geoPoint": { "lat": 44.95914, "lon": -89.63012 }
    },
    {
      "facility": "Froedtert West Bend Hospital/Kraemer Cancer Center",
      "status": "RECRUITING",
      "city": "West Bend",
      "state": "Wisconsin",
      "zip": "53095",
      "country": "United States",
      "contacts": [
        {
          "name": "Site Public Contact",
          "role": "CONTACT",
          "phone": "414-805-0505"
        },
        { "name": "Jonathan R. Thompson", "role": "PRINCIPAL_INVESTIGATOR" }
      ],
      "geoPoint": { "lat": 43.42528, "lon": -88.18343 }
    },
    {
      "facility": "Marshfield Medical Center - Weston",
      "status": "RECRUITING",
      "city": "Weston",
      "state": "Wisconsin",
      "zip": "54476",
      "country": "United States",
      "contacts": [
        {
          "name": "Site Public Contact",
          "role": "CONTACT",
          "phone": "800-782-8581",
          "email": "oncology.clinical.trials@marshfieldresearch.org"
        },
        { "name": "Michael Husak", "role": "PRINCIPAL_INVESTIGATOR" }
      ],
      "geoPoint": { "lat": 44.8908, "lon": -89.54762 }
    },
    {
      "facility": "Aspirus Cancer Care - Wisconsin Rapids",
      "status": "RECRUITING",
      "city": "Wisconsin Rapids",
      "state": "Wisconsin",
      "zip": "54494",
      "country": "United States",
      "contacts": [
        {
          "name": "Site Public Contact",
          "role": "CONTACT",
          "phone": "715-422-7718"
        },
        { "name": "Christopher S. Platta", "role": "PRINCIPAL_INVESTIGATOR" }
      ],
      "geoPoint": { "lat": 44.38358, "lon": -89.81735 }
    }
  ],
  "key_inclusion_summary": [
    "Confirmed diagnosis of extensive stage small cell lung cancer.",
    "Must have achieved a partial response or stable disease after 4-6 cycles of etoposide/platinum chemotherapy plus atezolizumab.",
    "Eastern Cooperative Oncology Group (ECOG) performance status of 0-2.",
    "Patients with treated, stable brain metastases are eligible.",
    "Measurable disease per RECIST criteria."
  ],
  "key_exclusion_summary": [
    "Metastatic disease involving > 3 liver metastases, the heart, or > 10 total metastatic sites.",
    "Active autoimmune disease requiring immunosuppressive treatment.",
    "Prior radiotherapy to the thorax that would cause overlapping radiation fields.",
    "History of immunotherapy-induced pneumonitis.",
    "Pregnancy or breastfeeding."
  ]
}
