{
  "nct_id": "NCT05053152",
  "official_title": "A Phase II Double-Blinded, Placebo-Controlled Trial of PROstate OligoMETastatic RadiotHErapy With or Without ANdrogen Deprivation Therapy in Oligometastatic Prostate Cancer (NRG Promethean)",
  "brief_title": "Testing the Addition of the Drug Relugolix to the Usual Radiation Therapy for Advanced-Stage Prostate Cancer, The NRG Promethean Study",
  "cancer_type_display": "A study for patients with castration-sensitive, oligometastatic prostate cancer that has recurred after previous treatment.",
  "cancer_tags": [
    "Oligometastatic Prostate Carcinoma",
    "Prostate Adenocarcinoma",
    "Prostate Ductal Adenocarcinoma",
    "Prostate Intraductal Carcinoma",
    "Stage IVB Prostate Cancer AJCC v8"
  ],
  "link_to_trial": "https://clinicaltrials.gov/study/NCT05053152",
  "phase": "Phase 2",
  "recruitment_status": "RECRUITING",
  "last_update_date": "2025-09-08",
  "enrollment": 194,
  "min_age": 18,
  "max_age": null,
  "sex": "MALE",
  "is_metastatic_allowed": true,
  "performance_status_scale": "ECOG",
  "performance_status_values": [0, 1, 2],
  "min_prior_lines": 0,
  "max_prior_lines": 0,
  "prior_treatments_required": ["Radical prostatectomy", "Radiation therapy"],
  "prior_treatments_excluded": [
    "Currently on androgen deprivation or anti-androgen therapy",
    "Prior chemotherapy for prostate cancer",
    "Bilateral orchiectomy"
  ],
  "principal_investigator": "Bridget F Koontz",
  "site_name": null,
  "contact_email": null,
  "contact_phone": null,
  "locations": [
    {
      "facility": "Cancer Center at Saint Joseph's",
      "status": "RECRUITING",
      "city": "Phoenix",
      "state": "Arizona",
      "zip": "85004",
      "country": "United States",
      "contacts": [
        {
          "name": "Site Public Contact",
          "role": "CONTACT",
          "phone": "720-874-1881",
          "email": "ResearchInstituteInquiries@CommonSpirit.org"
        },
        { "name": "Shahzad Siddique", "role": "PRINCIPAL_INVESTIGATOR" }
      ],
      "geoPoint": { "lat": 33.44838, "lon": -112.07404 }
    },
    {
      "facility": "Alta Bates Summit Medical Center-Herrick Campus",
      "status": "RECRUITING",
      "city": "Berkeley",
      "state": "California",
      "zip": "94704",
      "country": "United States",
      "contacts": [
        {
          "name": "Site Public Contact",
          "role": "CONTACT",
          "email": "clinicalresearch@sutterhealth.org"
        },
        {
          "name": "Jorge A. Garcia-Young",
          "role": "PRINCIPAL_INVESTIGATOR"
        }
      ],
      "geoPoint": { "lat": 37.87159, "lon": -122.27275 }
    },
    {
      "facility": "Tower Cancer Research Foundation",
      "status": "RECRUITING",
      "city": "Beverly Hills",
      "state": "California",
      "zip": "90211",
      "country": "United States",
      "contacts": [
        {
          "name": "Site Public Contact",
          "role": "CONTACT",
          "email": "towercancerresearch@toweroncology.com"
        },
        { "name": "Leslie Ballas", "role": "PRINCIPAL_INVESTIGATOR" }
      ],
      "geoPoint": { "lat": 34.07362, "lon": -118.40036 }
    },
    {
      "facility": "UCI Health - Chao Family Comprehensive Cancer Center and Ambulatory Care",
      "status": "RECRUITING",
      "city": "Irvine",
      "state": "California",
      "zip": "92612",
      "country": "United States",
      "contacts": [
        {
          "name": "Site Public Contact",
          "role": "CONTACT",
          "phone": "877-827-8839",
          "email": "ucstudy@uci.edu"
        },
        { "name": "David S. Hong", "role": "PRINCIPAL_INVESTIGATOR" }
      ],
      "geoPoint": { "lat": 33.66946, "lon": -117.82311 }
    },
    {
      "facility": "Los Angeles General Medical Center",
      "status": "ACTIVE_NOT_RECRUITING",
      "city": "Los Angeles",
      "state": "California",
      "zip": "90033",
      "country": "United States",
      "geoPoint": { "lat": 34.05223, "lon": -118.24368 }
    },
    {
      "facility": "USC / Norris Comprehensive Cancer Center",
      "status": "ACTIVE_NOT_RECRUITING",
      "city": "Los Angeles",
      "state": "California",
      "zip": "90033",
      "country": "United States",
      "geoPoint": { "lat": 34.05223, "lon": -118.24368 }
    },
    {
      "facility": "Cedars Sinai Medical Center",
      "status": "RECRUITING",
      "city": "Los Angeles",
      "state": "California",
      "zip": "90048",
      "country": "United States",
      "contacts": [
        {
          "name": "Site Public Contact",
          "role": "CONTACT",
          "phone": "310-423-8965"
        },
        { "name": "Leslie Ballas", "role": "PRINCIPAL_INVESTIGATOR" }
      ],
      "geoPoint": { "lat": 34.05223, "lon": -118.24368 }
    },
    {
      "facility": "Memorial Medical Center",
      "status": "RECRUITING",
      "city": "Modesto",
      "state": "California",
      "zip": "95355",
      "country": "United States",
      "contacts": [
        {
          "name": "Site Public Contact",
          "role": "CONTACT",
          "email": "clinicalresearch@sutterhealth.org"
        },
        {
          "name": "Jorge A. Garcia-Young",
          "role": "PRINCIPAL_INVESTIGATOR"
        }
      ],
      "geoPoint": { "lat": 37.6391, "lon": -120.99688 }
    },
    {
      "facility": "UC Irvine Health/Chao Family Comprehensive Cancer Center",
      "status": "RECRUITING",
      "city": "Orange",
      "state": "California",
      "zip": "92868",
      "country": "United States",
      "contacts": [
        {
          "name": "Site Public Contact",
          "role": "CONTACT",
          "phone": "877-827-8839",
          "email": "ucstudy@uci.edu"
        },
        { "name": "David S. Hong", "role": "PRINCIPAL_INVESTIGATOR" }
      ],
      "geoPoint": { "lat": 33.78779, "lon": -117.85311 }
    },
    {
      "facility": "Sutter Pacific Medical Foundation",
      "status": "RECRUITING",
      "city": "Santa Rosa",
      "state": "California",
      "zip": "95403",
      "country": "United States",
      "contacts": [
        {
          "name": "Site Public Contact",
          "role": "CONTACT",
          "phone": "415-209-2683",
          "email": "clinicalresearch@sutterhealth.org"
        },
        {
          "name": "Jorge A. Garcia-Young",
          "role": "PRINCIPAL_INVESTIGATOR"
        }
      ],
      "geoPoint": { "lat": 38.44047, "lon": -122.71443 }
    },
    {
      "facility": "Sutter Solano Medical Center/Cancer Center",
      "status": "RECRUITING",
      "city": "Vallejo",
      "state": "California",
      "zip": "94589",
      "country": "United States",
      "contacts": [
        {
          "name": "Site Public Contact",
          "role": "CONTACT",
          "email": "clinicalresearch@sutterhealth.org"
        },
        {
          "name": "Jorge A. Garcia-Young",
          "role": "PRINCIPAL_INVESTIGATOR"
        }
      ],
      "geoPoint": { "lat": 38.10409, "lon": -122.25664 }
    },
    {
      "facility": "UCHealth University of Colorado Hospital",
      "status": "RECRUITING",
      "city": "Aurora",
      "state": "Colorado",
      "zip": "80045",
      "country": "United States",
      "contacts": [
        {
          "name": "Site Public Contact",
          "role": "CONTACT",
          "phone": "720-848-0650"
        },
        { "name": "Tyler Robin", "role": "PRINCIPAL_INVESTIGATOR" }
      ],
      "geoPoint": { "lat": 39.72943, "lon": -104.83192 }
    },
    {
      "facility": "Rocky Mountain Cancer Centers-Boulder",
      "status": "RECRUITING",
      "city": "Boulder",
      "state": "Colorado",
      "zip": "80304",
      "country": "United States",
      "contacts": [
        {
          "name": "Site Public Contact",
          "role": "CONTACT",
          "phone": "303-777-2663",
          "email": "info@westernstatesncorp.org"
        },
        { "name": "Nicholas J. DiBella", "role": "PRINCIPAL_INVESTIGATOR" }
      ],
      "geoPoint": { "lat": 40.01499, "lon": -105.27055 }
    },
    {
      "facility": "UCHealth Memorial Hospital Central",
      "status": "RECRUITING",
      "city": "Colorado Springs",
      "state": "Colorado",
      "zip": "80909",
      "country": "United States",
      "contacts": [
        {
          "name": "Site Public Contact",
          "role": "CONTACT",
          "phone": "719-365-2406"
        },
        { "name": "Tyler Robin", "role": "PRINCIPAL_INVESTIGATOR" }
      ],
      "geoPoint": { "lat": 38.83388, "lon": -104.82136 }
    },
    {
      "facility": "Memorial Hospital North",
      "status": "RECRUITING",
      "city": "Colorado Springs",
      "state": "Colorado",
      "zip": "80920",
      "country": "United States",
      "contacts": [
        {
          "name": "Site Public Contact",
          "role": "CONTACT",
          "phone": "719-364-6700"
        },
        { "name": "Tyler Robin", "role": "PRINCIPAL_INVESTIGATOR" }
      ],
      "geoPoint": { "lat": 38.83388, "lon": -104.82136 }
    },
    {
      "facility": "Shaw Cancer Center",
      "status": "RECRUITING",
      "city": "Edwards",
      "state": "Colorado",
      "zip": "81632",
      "country": "United States",
      "contacts": [
        {
          "name": "Site Public Contact",
          "role": "CONTACT",
          "phone": "970-569-7429"
        },
        { "name": "Erin Schwab", "role": "PRINCIPAL_INVESTIGATOR" }
      ],
      "geoPoint": { "lat": 39.64499, "lon": -106.5942 }
    },
    {
      "facility": "Poudre Valley Hospital",
      "status": "RECRUITING",
      "city": "Fort Collins",
      "state": "Colorado",
      "zip": "80524",
      "country": "United States",
      "contacts": [
        {
          "name": "Site Public Contact",
          "role": "CONTACT",
          "phone": "970-297-6150"
        },
        { "name": "Tyler Robin", "role": "PRINCIPAL_INVESTIGATOR" }
      ],
      "geoPoint": { "lat": 40.58526, "lon": -105.08442 }
    },
    {
      "facility": "Cancer Care and Hematology-Fort Collins",
      "status": "RECRUITING",
      "city": "Fort Collins",
      "state": "Colorado",
      "zip": "80528",
      "country": "United States",
      "contacts": [
        {
          "name": "Site Public Contact",
          "role": "CONTACT",
          "phone": "412-339-5294",
          "email": "Roster@nrgoncology.org"
        },
        { "name": "Tyler Robin", "role": "PRINCIPAL_INVESTIGATOR" }
      ],
      "geoPoint": { "lat": 40.58526, "lon": -105.08442 }
    },
    {
      "facility": "Banner North Colorado Medical Center",
      "status": "SUSPENDED",
      "city": "Greeley",
      "state": "Colorado",
      "zip": "80631",
      "country": "United States",
      "geoPoint": { "lat": 40.42331, "lon": -104.70913 }
    },
    {
      "facility": "UCHealth Greeley Hospital",
      "status": "RECRUITING",
      "city": "Greeley",
      "state": "Colorado",
      "zip": "80631",
      "country": "United States",
      "contacts": [
        {
          "name": "Site Public Contact",
          "role": "CONTACT",
          "phone": "412-339-5294",
          "email": "Roster@nrgoncology.org"
        },
        { "name": "Tyler Robin", "role": "PRINCIPAL_INVESTIGATOR" }
      ],
      "geoPoint": { "lat": 40.42331, "lon": -104.70913 }
    },
    {
      "facility": "UCHealth Highlands Ranch Hospital",
      "status": "RECRUITING",
      "city": "Highlands Ranch",
      "state": "Colorado",
      "zip": "80129",
      "country": "United States",
      "contacts": [
        {
          "name": "Site Public Contact",
          "role": "CONTACT",
          "phone": "720-848-0650"
        },
        { "name": "Tyler Robin", "role": "PRINCIPAL_INVESTIGATOR" }
      ],
      "geoPoint": { "lat": 39.55388, "lon": -104.96943 }
    },
    {
      "facility": "AdventHealth Littleton",
      "status": "RECRUITING",
      "city": "Littleton",
      "state": "Colorado",
      "zip": "80122",
      "country": "United States",
      "contacts": [
        {
          "name": "Site Public Contact",
          "role": "CONTACT",
          "email": "research.institute@adventhealth.com"
        },
        { "name": "Matthew B. Spraker", "role": "PRINCIPAL_INVESTIGATOR" }
      ],
      "geoPoint": { "lat": 39.61332, "lon": -105.01665 }
    },
    {
      "facility": "Medical Center of the Rockies",
      "status": "RECRUITING",
      "city": "Loveland",
      "state": "Colorado",
      "zip": "80538",
      "country": "United States",
      "contacts": [
        {
          "name": "Site Public Contact",
          "role": "CONTACT",
          "phone": "970-203-7083"
        },
        { "name": "Tyler Robin", "role": "PRINCIPAL_INVESTIGATOR" }
      ],
      "geoPoint": { "lat": 40.39776, "lon": -105.07498 }
    },
    {
      "facility": "Banner McKee Medical Center",
      "status": "SUSPENDED",
      "city": "Loveland",
      "state": "Colorado",
      "zip": "80539",
      "country": "United States",
      "geoPoint": { "lat": 40.39776, "lon": -105.07498 }
    },
    {
      "facility": "Beebe South Coastal Health Campus",
      "status": "RECRUITING",
      "city": "Millville",
      "state": "Delaware",
      "zip": "19967",
      "country": "United States",
      "contacts": [
        {
          "name": "Site Public Contact",
          "role": "CONTACT",
          "phone": "302-291-6730",
          "email": "research@beebehealthcare.org"
        },
        { "name": "Gregory A. Masters", "role": "PRINCIPAL_INVESTIGATOR" }
      ],
      "geoPoint": { "lat": 38.54956, "lon": -75.12324 }
    },
    {
      "facility": "Helen F Graham Cancer Center",
      "status": "RECRUITING",
      "city": "Newark",
      "state": "Delaware",
      "zip": "19713",
      "country": "United States",
      "contacts": [
        {
          "name": "Site Public Contact",
          "role": "CONTACT",
          "phone": "302-623-4450",
          "email": "lbarone@christianacare.org"
        },
        { "name": "Gregory A. Masters", "role": "PRINCIPAL_INVESTIGATOR" }
      ],
      "geoPoint": { "lat": 39.68372, "lon": -75.74966 }
    },
    {
      "facility": "Medical Oncology Hematology Consultants PA",
      "status": "RECRUITING",
      "city": "Newark",
      "state": "Delaware",
      "zip": "19713",
      "country": "United States",
      "contacts": [
        {
          "name": "Site Public Contact",
          "role": "CONTACT",
          "phone": "302-623-4450",
          "email": "lbarone@christianacare.org"
        },
        { "name": "Gregory A. Masters", "role": "PRINCIPAL_INVESTIGATOR" }
      ],
      "geoPoint": { "lat": 39.68372, "lon": -75.74966 }
    },
    {
      "facility": "Beebe Health Campus",
      "status": "RECRUITING",
      "city": "Rehoboth Beach",
      "state": "Delaware",
      "zip": "19971",
      "country": "United States",
      "contacts": [
        {
          "name": "Site Public Contact",
          "role": "CONTACT",
          "phone": "302-291-6730",
          "email": "research@beebehealthcare.org"
        },
        { "name": "Gregory A. Masters", "role": "PRINCIPAL_INVESTIGATOR" }
      ],
      "geoPoint": { "lat": 38.72095, "lon": -75.07601 }
    },
    {
      "facility": "George Washington University Medical Center",
      "status": "RECRUITING",
      "city": "Washington D.C.",
      "state": "District of Columbia",
      "zip": "20037",
      "country": "United States",
      "contacts": [
        {
          "name": "Site Public Contact",
          "role": "CONTACT",
          "phone": "202-741-2210"
        },
        { "name": "Sharad Goyal", "role": "PRINCIPAL_INVESTIGATOR" }
      ],
      "geoPoint": { "lat": 38.89511, "lon": -77.03637 }
    },
    {
      "facility": "AdventHealth Altamonte",
      "status": "RECRUITING",
      "city": "Altamonte Springs",
      "state": "Florida",
      "zip": "32701",
      "country": "United States",
      "contacts": [
        {
          "name": "Site Public Contact",
          "role": "CONTACT",
          "phone": "407-303-2200"
        },
        { "name": "Bridget F. Koontz", "role": "PRINCIPAL_INVESTIGATOR" }
      ],
      "geoPoint": { "lat": 28.66111, "lon": -81.36562 }
    },
    {
      "facility": "AdventHealth Celebration",
      "status": "RECRUITING",
      "city": "Celebration",
      "state": "Florida",
      "zip": "34747",
      "country": "United States",
      "contacts": [
        {
          "name": "Site Public Contact",
          "role": "CONTACT",
          "phone": "407-303-4120"
        },
        { "name": "Bridget F. Koontz", "role": "PRINCIPAL_INVESTIGATOR" }
      ],
      "geoPoint": { "lat": 28.32529, "lon": -81.53313 }
    },
    {
      "facility": "Jupiter Medical Center",
      "status": "ACTIVE_NOT_RECRUITING",
      "city": "Jupiter",
      "state": "Florida",
      "zip": "33458",
      "country": "United States",
      "geoPoint": { "lat": 26.93422, "lon": -80.09421 }
    },
    {
      "facility": "GenesisCare USA - Lakewood Ranch",
      "status": "SUSPENDED",
      "city": "Lakewood Rch",
      "state": "Florida",
      "zip": "34202",
      "country": "United States",
      "geoPoint": { "lat": 27.3863, "lon": -82.4332 }
    },
    {
      "facility": "AdventHealth Orlando",
      "status": "RECRUITING",
      "city": "Orlando",
      "state": "Florida",
      "zip": "32803",
      "country": "United States",
      "contacts": [
        {
          "name": "Site Public Contact",
          "role": "CONTACT",
          "phone": "407-303-2090",
          "email": "FH.Cancer.Research@flhosp.org"
        },
        { "name": "Bridget F. Koontz", "role": "PRINCIPAL_INVESTIGATOR" }
      ],
      "geoPoint": { "lat": 28.53834, "lon": -81.37924 }
    },
    {
      "facility": "GenesisCare USA - Plantation",
      "status": "SUSPENDED",
      "city": "Plantation",
      "state": "Florida",
      "zip": "33324",
      "country": "United States",
      "geoPoint": { "lat": 26.13421, "lon": -80.23184 }
    },
    {
      "facility": "Moffitt Cancer Center-International Plaza",
      "status": "RECRUITING",
      "city": "Tampa",
      "state": "Florida",
      "zip": "33607",
      "country": "United States",
      "contacts": [
        {
          "name": "Site Public Contact",
          "role": "CONTACT",
          "phone": "800-679-0775",
          "email": "ClinicalTrials@moffitt.org"
        },
        { "name": "George D. Grass", "role": "PRINCIPAL_INVESTIGATOR" }
      ],
      "geoPoint": { "lat": 27.94752, "lon": -82.45843 }
    },
    {
      "facility": "Moffitt Cancer Center - McKinley Campus",
      "status": "RECRUITING",
      "city": "Tampa",
      "state": "Florida",
      "zip": "33612",
      "country": "United States",
      "contacts": [
        {
          "name": "Site Public Contact",
          "role": "CONTACT",
          "phone": "800-679-0775",
          "email": "ClinicalTrials@moffitt.org"
        },
        { "name": "George D. Grass", "role": "PRINCIPAL_INVESTIGATOR" }
      ],
      "geoPoint": { "lat": 27.94752, "lon": -82.45843 }
    },
    {
      "facility": "Moffitt Cancer Center",
      "status": "RECRUITING",
      "city": "Tampa",
      "state": "Florida",
      "zip": "33612",
      "country": "United States",
      "contacts": [
        {
          "name": "Site Public Contact",
          "role": "CONTACT",
          "phone": "800-679-0775",
          "email": "ClinicalTrials@moffitt.org"
        },
        { "name": "George D. Grass", "role": "PRINCIPAL_INVESTIGATOR" }
      ],
      "geoPoint": { "lat": 27.94752, "lon": -82.45843 }
    },
    {
      "facility": "Cleveland Clinic-Weston",
      "status": "RECRUITING",
      "city": "Weston",
      "state": "Florida",
      "zip": "33331",
      "country": "United States",
      "contacts": [
        {
          "name": "Site Public Contact",
          "role": "CONTACT",
          "phone": "954-659-5705",
          "email": "CancerAnswer@ccf.org"
        },
        { "name": "Shalini Moningi", "role": "PRINCIPAL_INVESTIGATOR" }
      ],
      "geoPoint": { "lat": 26.10037, "lon": -80.39977 }
    },
    {
      "facility": "Grady Health System",
      "status": "RECRUITING",
      "city": "Atlanta",
      "state": "Georgia",
      "zip": "30303",
      "country": "United States",
      "contacts": [
        {
          "name": "Site Public Contact",
          "role": "CONTACT",
          "phone": "404-778-1868"
        },
        { "name": "Sheela Hanasoge", "role": "PRINCIPAL_INVESTIGATOR" }
      ],
      "geoPoint": { "lat": 33.749, "lon": -84.38798 }
    },
    {
      "facility": "Emory University Hospital Midtown",
      "status": "RECRUITING",
      "city": "Atlanta",
      "state": "Georgia",
      "zip": "30308",
      "country": "United States",
      "contacts": [
        {
          "name": "Site Public Contact",
          "role": "CONTACT",
          "phone": "888-946-7447"
        },
        { "name": "Sheela Hanasoge", "role": "PRINCIPAL_INVESTIGATOR" }
      ],
      "geoPoint": { "lat": 33.749, "lon": -84.38798 }
    },
    {
      "facility": "Piedmont Hospital",
      "status": "SUSPENDED",
      "city": "Atlanta",
      "state": "Georgia",
      "zip": "30309",
      "country": "United States",
      "geoPoint": { "lat": 33.749, "lon": -84.38798 }
    },
    {
      "facility": "Emory University Hospital/Winship Cancer Institute",
      "status": "RECRUITING",
      "city": "Atlanta",
      "state": "Georgia",
      "zip": "30322",
      "country": "United States",
      "contacts": [
        {
          "name": "Site Public Contact",
          "role": "CONTACT",
          "phone": "404-778-1868"
        },
        { "name": "Sheela Hanasoge", "role": "PRINCIPAL_INVESTIGATOR" }
      ],
      "geoPoint": { "lat": 33.749, "lon": -84.38798 }
    },
    {
      "facility": "Emory Saint Joseph's Hospital",
      "status": "RECRUITING",
      "city": "Atlanta",
      "state": "Georgia",
      "zip": "30342",
      "country": "United States",
      "contacts": [
        {
          "name": "Site Public Contact",
          "role": "CONTACT",
          "phone": "404-851-7115"
        },
        { "name": "Sheela Hanasoge", "role": "PRINCIPAL_INVESTIGATOR" }
      ],
      "geoPoint": { "lat": 33.749, "lon": -84.38798 }
    },
    {
      "facility": "WellStar Cobb Hospital",
      "status": "RECRUITING",
      "city": "Austell",
      "state": "Georgia",
      "zip": "30106",
      "country": "United States",
      "contacts": [
        {
          "name": "Site Public Contact",
          "role": "CONTACT",
          "phone": "470-793-4071",
          "email": "research@wellstar.org"
        },
        { "name": "Mark P. McLaughlin", "role": "PRINCIPAL_INVESTIGATOR" }
      ],
      "geoPoint": { "lat": 33.81261, "lon": -84.63438 }
    },
    {
      "facility": "Emory Decatur Hospital",
      "status": "RECRUITING",
      "city": "Decatur",
      "state": "Georgia",
      "zip": "30033",
      "country": "United States",
      "contacts": [
        {
          "name": "Site Public Contact",
          "role": "CONTACT",
          "phone": "440-778-1868",
          "email": "clinicaltrialsoncology@dekalbmedical.org"
        },
        { "name": "Sheela Hanasoge", "role": "PRINCIPAL_INVESTIGATOR" }
      ],
      "geoPoint": { "lat": 33.77483, "lon": -84.29631 }
    },
    {
      "facility": "Piedmont Fayette Hospital",
      "status": "SUSPENDED",
      "city": "Fayetteville",
      "state": "Georgia",
      "zip": "30214",
      "country": "United States",
      "geoPoint": { "lat": 33.44873, "lon": -84.45493 }
    },
    {
      "facility": "Emory Johns Creek Hospital",
      "status": "RECRUITING",
      "city": "Johns Creek",
      "state": "Georgia",
      "zip": "30097",
      "country": "United States",
      "contacts": [
        {
          "name": "Site Public Contact",
          "role": "CONTACT",
          "phone": "404-778-5714",
          "email": "m.lisa.hwang@emory.edu"
        },
        { "name": "Sheela Hanasoge", "role": "PRINCIPAL_INVESTIGATOR" }
      ],
      "geoPoint": { "lat": 34.02893, "lon": -84.19858 }
    },
    {
      "facility": "Alton Memorial Hospital",
      "status": "RECRUITING",
      "city": "Alton",
      "state": "Illinois",
      "zip": "62002",
      "country": "United States",
      "contacts": [
        {
          "name": "Site Public Contact",
          "role": "CONTACT",
          "phone": "618-463-7323"
        },
        { "name": "Hiram A. Gay", "role": "PRINCIPAL_INVESTIGATOR" }
      ],
      "geoPoint": { "lat": 38.8906, "lon": -90.18428 }
    },
    {
      "facility": "Advocate Good Shepherd Hospital",
      "status": "RECRUITING",
      "city": "Barrington",
      "state": "Illinois",
      "zip": "60010",
      "country": "United States",
      "contacts": [
        {
          "name": "Site Public Contact",
          "role": "CONTACT",
          "phone": "847-842-4847"
        },
        { "name": "Adam P. Siegel", "role": "PRINCIPAL_INVESTIGATOR" }
      ],
      "geoPoint": { "lat": 42.15391, "lon": -88.13619 }
    },
    {
      "facility": "Advocate Illinois Masonic Medical Center",
      "status": "RECRUITING",
      "city": "Chicago",
      "state": "Illinois",
      "zip": "60657",
      "country": "United States",
      "contacts": [
        {
          "name": "Site Public Contact",
          "role": "CONTACT",
          "phone": "773-296-5360"
        },
        { "name": "Adam P. Siegel", "role": "PRINCIPAL_INVESTIGATOR" }
      ],
      "geoPoint": { "lat": 41.85003, "lon": -87.65005 }
    },
    {
      "facility": "AMG Crystal Lake - Oncology",
      "status": "RECRUITING",
      "city": "Crystal Lake",
      "state": "Illinois",
      "zip": "60014",
      "country": "United States",
      "contacts": [
        {
          "name": "Site Public Contact",
          "role": "CONTACT",
          "phone": "630-929-6129",
          "email": "advocateresearch@advocate.com"
        },
        { "name": "Adam P. Siegel", "role": "PRINCIPAL_INVESTIGATOR" }
      ],
      "geoPoint": { "lat": 42.24113, "lon": -88.3162 }
    },
    {
      "facility": "Carle at The Riverfront",
      "status": "RECRUITING",
      "city": "Danville",
      "state": "Illinois",
      "zip": "61832",
      "country": "United States",
      "contacts": [
        {
          "name": "Site Public Contact",
          "role": "CONTACT",
          "phone": "800-446-5532",
          "email": "Research@Carle.com"
        },
        { "name": "Sinisa Stanic", "role": "PRINCIPAL_INVESTIGATOR" }
      ],
      "geoPoint": { "lat": 40.12448, "lon": -87.63002 }
    },
    {
      "facility": "Decatur Memorial Hospital",
      "status": "RECRUITING",
      "city": "Decatur",
      "state": "Illinois",
      "zip": "62526",
      "country": "United States",
      "contacts": [
        {
          "name": "Site Public Contact",
          "role": "CONTACT",
          "phone": "217-876-4762",
          "email": "morganthaler.jodi@mhsil.com"
        },
        { "name": "Bryan A. Faller", "role": "PRINCIPAL_INVESTIGATOR" }
      ],
      "geoPoint": { "lat": 39.84031, "lon": -88.9548 }
    },
    {
      "facility": "Advocate Good Samaritan Hospital",
      "status": "RECRUITING",
      "city": "Downers Grove",
      "state": "Illinois",
      "zip": "60515",
      "country": "United States",
      "contacts": [
        {
          "name": "Site Public Contact",
          "role": "CONTACT",
          "phone": "630-275-1270",
          "email": "Barbara.barhamand@advocatehealth.com"
        },
        { "name": "Adam P. Siegel", "role": "PRINCIPAL_INVESTIGATOR" }
      ],
      "geoPoint": { "lat": 41.80892, "lon": -88.01117 }
    },
    {
      "facility": "Crossroads Cancer Center",
      "status": "RECRUITING",
      "city": "Effingham",
      "state": "Illinois",
      "zip": "62401",
      "country": "United States",
      "contacts": [
        {
          "name": "Site Public Contact",
          "role": "CONTACT",
          "phone": "217-876-4762",
          "email": "morganthaler.jodi@mhsil.com"
        },
        { "name": "Bryan A. Faller", "role": "PRINCIPAL_INVESTIGATOR" }
      ],
      "geoPoint": { "lat": 39.12004, "lon": -88.54338 }
    },
    {
      "facility": "Advocate Sherman Hospital",
      "status": "RECRUITING",
      "city": "Elgin",
      "state": "Illinois",
      "zip": "60123",
      "country": "United States",
      "contacts": [
        {
          "name": "Site Public Contact",
          "role": "CONTACT",
          "phone": "847-429-2907"
        },
        { "name": "Adam P. Siegel", "role": "PRINCIPAL_INVESTIGATOR" }
      ],
      "geoPoint": { "lat": 42.03725, "lon": -88.28119 }
    },
    {
      "facility": "Advocate South Suburban Hospital",
      "status": "RECRUITING",
      "city": "Hazel Crest",
      "state": "Illinois",
      "zip": "60429",
      "country": "United States",
      "contacts": [
        {
          "name": "Site Public Contact",
          "role": "CONTACT",
          "phone": "708-799-9995"
        },
        { "name": "Adam P. Siegel", "role": "PRINCIPAL_INVESTIGATOR" }
      ],
      "geoPoint": { "lat": 41.5717, "lon": -87.69449 }
    },
    {
      "facility": "AMG Libertyville - Oncology",
      "status": "RECRUITING",
      "city": "Libertyville",
      "state": "Illinois",
      "zip": "60048",
      "country": "United States",
      "contacts": [
        {
          "name": "Site Public Contact",
          "role": "CONTACT",
          "phone": "630-929-6129",
          "email": "advocateresearch@advocatehealth.com"
        },
        { "name": "Adam P. Siegel", "role": "PRINCIPAL_INVESTIGATOR" }
      ],
      "geoPoint": { "lat": 42.28308, "lon": -87.95313 }
    },
    {
      "facility": "Carle Physician Group-Mattoon/Charleston",
      "status": "RECRUITING",
      "city": "Mattoon",
      "state": "Illinois",
      "zip": "61938",
      "country": "United States",
      "contacts": [
        {
          "name": "Site Public Contact",
          "role": "CONTACT",
          "phone": "800-446-5532",
          "email": "Research@carle.com"
        },
        { "name": "Sinisa Stanic", "role": "PRINCIPAL_INVESTIGATOR" }
      ],
      "geoPoint": { "lat": 39.48309, "lon": -88.37283 }
    },
    {
      "facility": "HSHS Saint Elizabeth's Hospital",
      "status": "RECRUITING",
      "city": "O'Fallon",
      "state": "Illinois",
      "zip": "62269",
      "country": "United States",
      "contacts": [
        {
          "name": "Site Public Contact",
          "role": "CONTACT",
          "phone": "217-876-4762",
          "email": "morganthaler.jodi@mhsil.com"
        },
        { "name": "Bryan A. Faller", "role": "PRINCIPAL_INVESTIGATOR" }
      ],
      "geoPoint": { "lat": 38.59227, "lon": -89.91121 }
    },
    {
      "facility": "Advocate Christ Medical Center",
      "status": "RECRUITING",
      "city": "Oak Lawn",
      "state": "Illinois",
      "zip": "60453-2699",
      "country": "United States",
      "contacts": [
        {
          "name": "Site Public Contact",
          "role": "CONTACT",
          "phone": "800-323-8622"
        },
        { "name": "Adam P. Siegel", "role": "PRINCIPAL_INVESTIGATOR" }
      ],
      "geoPoint": { "lat": 41.71087, "lon": -87.75811 }
    },
    {
      "facility": "Advocate Lutheran General Hospital",
      "status": "RECRUITING",
      "city": "Park Ridge",
      "state": "Illinois",
      "zip": "60068",
      "country": "United States",
      "contacts": [
        {
          "name": "Site Public Contact",
          "role": "CONTACT",
          "phone": "847-384-3621"
        },
        { "name": "Adam P. Siegel", "role": "PRINCIPAL_INVESTIGATOR" }
      ],
      "geoPoint": { "lat": 42.01114, "lon": -87.84062 }
    },
    {
      "facility": "Methodist Medical Center of Illinois",
      "status": "RECRUITING",
      "city": "Peoria",
      "state": "Illinois",
      "zip": "61636",
      "country": "United States",
      "contacts": [
        {
          "name": "Site Public Contact",
          "role": "CONTACT",
          "phone": "309-243-3605",
          "email": "andersonj@illinoiscancercare.com"
        },
        { "name": "Bryan A. Faller", "role": "PRINCIPAL_INVESTIGATOR" }
      ],
      "geoPoint": { "lat": 40.69365, "lon": -89.58899 }
    },
    {
      "facility": "OSF Saint Francis Medical Center",
      "status": "RECRUITING",
      "city": "Peoria",
      "state": "Illinois",
      "zip": "61637",
      "country": "United States",
      "contacts": [
        {
          "name": "Site Public Contact",
          "role": "CONTACT",
          "phone": "309-243-3605",
          "email": "andersonj@illinoiscancercare.com"
        },
        { "name": "Bryan A. Faller", "role": "PRINCIPAL_INVESTIGATOR" }
      ],
      "geoPoint": { "lat": 40.69365, "lon": -89.58899 }
    },
    {
      "facility": "Memorial Hospital East",
      "status": "RECRUITING",
      "city": "Shiloh",
      "state": "Illinois",
      "zip": "62269",
      "country": "United States",
      "contacts": [
        {
          "name": "Site Public Contact",
          "role": "CONTACT",
          "phone": "314-747-9912",
          "email": "dschwab@wustl.edu"
        },
        { "name": "Hiram A. Gay", "role": "PRINCIPAL_INVESTIGATOR" }
      ],
      "geoPoint": { "lat": 38.56144, "lon": -89.89732 }
    },
    {
      "facility": "Springfield Memorial Hospital",
      "status": "RECRUITING",
      "city": "Springfield",
      "state": "Illinois",
      "zip": "62781",
      "country": "United States",
      "contacts": [
        {
          "name": "Site Public Contact",
          "role": "CONTACT",
          "phone": "217-528-7541",
          "email": "pallante.beth@mhsil.com"
        },
        { "name": "Bryan A. Faller", "role": "PRINCIPAL_INVESTIGATOR" }
      ],
      "geoPoint": { "lat": 39.80172, "lon": -89.64371 }
    },
    {
      "facility": "Carle Cancer Center",
      "status": "RECRUITING",
      "city": "Urbana",
      "state": "Illinois",
      "zip": "61801",
      "country": "United States",
      "contacts": [
        {
          "name": "Site Public Contact",
          "role": "CONTACT",
          "phone": "800-446-5532",
          "email": "Research@carle.com"
        },
        { "name": "Sinisa Stanic", "role": "PRINCIPAL_INVESTIGATOR" }
      ],
      "geoPoint": { "lat": 40.11059, "lon": -88.20727 }
    },
    {
      "facility": "Parkview Regional Medical Center",
      "status": "ACTIVE_NOT_RECRUITING",
      "city": "Fort Wayne",
      "state": "Indiana",
      "zip": "46845",
      "country": "United States",
      "geoPoint": { "lat": 41.1306, "lon": -85.12886 }
    },
    {
      "facility": "Goshen Center for Cancer Care",
      "status": "RECRUITING",
      "city": "Goshen",
      "state": "Indiana",
      "zip": "46526",
      "country": "United States",
      "contacts": [
        {
          "name": "Site Public Contact",
          "role": "CONTACT",
          "phone": "574-364-2973",
          "email": "cccois@goshenhealth.com"
        },
        { "name": "Houman Vaghefi", "role": "PRINCIPAL_INVESTIGATOR" }
      ],
      "geoPoint": { "lat": 41.58227, "lon": -85.83444 }
    },
    {
      "facility": "Mary Greeley Medical Center",
      "status": "RECRUITING",
      "city": "Ames",
      "state": "Iowa",
      "zip": "50010",
      "country": "United States",
      "contacts": [
        {
          "name": "Site Public Contact",
          "role": "CONTACT",
          "phone": "515-956-4132"
        },
        { "name": "Joseph J. Merchant", "role": "PRINCIPAL_INVESTIGATOR" }
      ],
      "geoPoint": { "lat": 42.03471, "lon": -93.61994 }
    },
    {
      "facility": "McFarland Clinic - Ames",
      "status": "RECRUITING",
      "city": "Ames",
      "state": "Iowa",
      "zip": "50010",
      "country": "United States",
      "contacts": [
        {
          "name": "Site Public Contact",
          "role": "CONTACT",
          "phone": "515-239-4734",
          "email": "ksoder@mcfarlandclinic.com"
        },
        { "name": "Joseph J. Merchant", "role": "PRINCIPAL_INVESTIGATOR" }
      ],
      "geoPoint": { "lat": 42.03471, "lon": -93.61994 }
    },
    {
      "facility": "Iowa Methodist Medical Center",
      "status": "RECRUITING",
      "city": "Des Moines",
      "state": "Iowa",
      "zip": "50309",
      "country": "United States",
      "contacts": [
        {
          "name": "Site Public Contact",
          "role": "CONTACT",
          "phone": "515-241-6727"
        },
        {
          "name": "Seema Harichand-Herdt",
          "role": "PRINCIPAL_INVESTIGATOR"
        }
      ],
      "geoPoint": { "lat": 41.60054, "lon": -93.60911 }
    },
    {
      "facility": "UI Health Care Mission Cancer and Blood - Des Moines Clinic",
      "status": "RECRUITING",
      "city": "Des Moines",
      "state": "Iowa",
      "zip": "50309",
      "country": "United States",
      "contacts": [
        {
          "name": "Site Public Contact",
          "role": "CONTACT",
          "phone": "515-241-3305"
        },
        {
          "name": "Seema Harichand-Herdt",
          "role": "PRINCIPAL_INVESTIGATOR"
        }
      ],
      "geoPoint": { "lat": 41.60054, "lon": -93.60911 }
    },
    {
      "facility": "The James Graham Brown Cancer Center at University of Louisville",
      "status": "RECRUITING",
      "city": "Louisville",
      "state": "Kentucky",
      "zip": "40202",
      "country": "United States",
      "contacts": [
        {
          "name": "Site Public Contact",
          "role": "CONTACT",
          "phone": "502-562-3429"
        },
        { "name": "Scott R. Silva", "role": "PRINCIPAL_INVESTIGATOR" }
      ],
      "geoPoint": { "lat": 38.25424, "lon": -85.75941 }
    },
    {
      "facility": "UofL Health Medical Center Northeast",
      "status": "RECRUITING",
      "city": "Louisville",
      "state": "Kentucky",
      "zip": "40245",
      "country": "United States",
      "contacts": [
        {
          "name": "Site Public Contact",
          "role": "CONTACT",
          "phone": "502-852-2755",
          "email": "ctoinfo@louisville.edu"
        },
        { "name": "Scott R. Silva", "role": "PRINCIPAL_INVESTIGATOR" }
      ],
      "geoPoint": { "lat": 38.25424, "lon": -85.75941 }
    },
    {
      "facility": "Mary Bird Perkins Cancer Center",
      "status": "RECRUITING",
      "city": "Baton Rouge",
      "state": "Louisiana",
      "zip": "70809",
      "country": "United States",
      "contacts": [
        {
          "name": "Site Public Contact",
          "role": "CONTACT",
          "phone": "225-215-1353",
          "email": "clinicalresearch@marybird.com"
        },
        { "name": "Victor T. Lin", "role": "PRINCIPAL_INVESTIGATOR" }
      ],
      "geoPoint": { "lat": 30.44332, "lon": -91.18747 }
    },
    {
      "facility": "Mary Bird Perkins Cancer Center - Metairie",
      "status": "RECRUITING",
      "city": "Metairie",
      "state": "Louisiana",
      "zip": "70002",
      "country": "United States",
      "contacts": [
        {
          "name": "Site Public Contact",
          "role": "CONTACT",
          "phone": "504-584-6990"
        },
        { "name": "Victor T. Lin", "role": "PRINCIPAL_INVESTIGATOR" }
      ],
      "geoPoint": { "lat": 29.98409, "lon": -90.15285 }
    },
    {
      "facility": "East Jefferson General Hospital",
      "status": "RECRUITING",
      "city": "Metairie",
      "state": "Louisiana",
      "zip": "70006",
      "country": "United States",
      "contacts": [
        {
          "name": "Site Public Contact",
          "role": "CONTACT",
          "phone": "504-210-3539",
          "email": "emede1@lsuhsc.edu"
        },
        { "name": "Rajasree P. Chowdry", "role": "PRINCIPAL_INVESTIGATOR" }
      ],
      "geoPoint": { "lat": 29.98409, "lon": -90.15285 }
    },
    {
      "facility": "LSU Healthcare Network / Metairie Multi-Specialty Clinic",
      "status": "RECRUITING",
      "city": "Metairie",
      "state": "Louisiana",
      "zip": "70006",
      "country": "United States",
      "contacts": [
        {
          "name": "Site Public Contact",
          "role": "CONTACT",
          "phone": "504-210-3539",
          "email": "emede1@lsuhsc.edu"
        },
        { "name": "Rajasree P. Chowdry", "role": "PRINCIPAL_INVESTIGATOR" }
      ],
      "geoPoint": { "lat": 29.98409, "lon": -90.15285 }
    },
    {
      "facility": "University Medical Center New Orleans",
      "status": "RECRUITING",
      "city": "New Orleans",
      "state": "Louisiana",
      "zip": "70112",
      "country": "United States",
      "contacts": [
        {
          "name": "Site Public Contact",
          "role": "CONTACT",
          "phone": "504-210-3539",
          "email": "emede1@lsuhsc.edu"
        },
        { "name": "Rajasree P. Chowdry", "role": "PRINCIPAL_INVESTIGATOR" }
      ],
      "geoPoint": { "lat": 29.95465, "lon": -90.07507 }
    },
    {
      "facility": "Trinity Health Saint Joseph Mercy Hospital Ann Arbor",
      "status": "RECRUITING",
      "city": "Ann Arbor",
      "state": "Michigan",
      "zip": "48106",
      "country": "United States",
      "contacts": [
        {
          "name": "Site Public Contact",
          "role": "CONTACT",
          "phone": "734-712-7251",
          "email": "MCRCwebsitecontactform@stjoeshealth.org"
        },
        { "name": "Samir Narayan", "role": "PRINCIPAL_INVESTIGATOR" }
      ],
      "geoPoint": { "lat": 42.27756, "lon": -83.74088 }
    },
    {
      "facility": "Trinity Health IHA Medical Group Hematology Oncology - Brighton",
      "status": "RECRUITING",
      "city": "Brighton",
      "state": "Michigan",
      "zip": "48114",
      "country": "United States",
      "contacts": [
        {
          "name": "Site Public Contact",
          "role": "CONTACT",
          "phone": "734-712-7251",
          "email": "MCRCwebsitecontactform@stjoeshealth.org"
        },
        { "name": "Samir Narayan", "role": "PRINCIPAL_INVESTIGATOR" }
      ],
      "geoPoint": { "lat": 42.52948, "lon": -83.78022 }
    },
    {
      "facility": "Trinity Health Medical Center - Brighton",
      "status": "RECRUITING",
      "city": "Brighton",
      "state": "Michigan",
      "zip": "48114",
      "country": "United States",
      "contacts": [
        {
          "name": "Site Public Contact",
          "role": "CONTACT",
          "phone": "734-712-7251",
          "email": "MCRCwebsitecontactform@stjoeshealth.org"
        },
        { "name": "Samir Narayan", "role": "PRINCIPAL_INVESTIGATOR" }
      ],
      "geoPoint": { "lat": 42.52948, "lon": -83.78022 }
    },
    {
      "facility": "Trinity Health IHA Medical Group Hematology Oncology - Canton",
      "status": "RECRUITING",
      "city": "Canton",
      "state": "Michigan",
      "zip": "48188",
      "country": "United States",
      "contacts": [
        {
          "name": "Site Public Contact",
          "role": "CONTACT",
          "phone": "734-712-7251",
          "email": "MCRCwebsitecontactform@stjoeshealth.org"
        },
        { "name": "Samir Narayan", "role": "PRINCIPAL_INVESTIGATOR" }
      ],
      "geoPoint": { "lat": 42.30865, "lon": -83.48216 }
    },
    {
      "facility": "Trinity Health Medical Center - Canton",
      "status": "RECRUITING",
      "city": "Canton",
      "state": "Michigan",
      "zip": "48188",
      "country": "United States",
      "contacts": [
        {
          "name": "Site Public Contact",
          "role": "CONTACT",
          "phone": "734-712-7251",
          "email": "MCRCwebsitecontactform@stjoeshealth.org"
        },
        { "name": "Samir Narayan", "role": "PRINCIPAL_INVESTIGATOR" }
      ],
      "geoPoint": { "lat": 42.30865, "lon": -83.48216 }
    },
    {
      "facility": "Chelsea Hospital",
      "status": "RECRUITING",
      "city": "Chelsea",
      "state": "Michigan",
      "zip": "48118",
      "country": "United States",
      "contacts": [
        {
          "name": "Site Public Contact",
          "role": "CONTACT",
          "phone": "734-712-7251",
          "email": "MCRCwebsitecontactform@stjoeshealth.org"
        },
        { "name": "Samir Narayan", "role": "PRINCIPAL_INVESTIGATOR" }
      ],
      "geoPoint": { "lat": 42.31807, "lon": -84.02181 }
    },
    {
      "facility": "Trinity Health IHA Medical Group Hematology Oncology - Chelsea Hospital",
      "status": "RECRUITING",
      "city": "Chelsea",
      "state": "Michigan",
      "zip": "48118",
      "country": "United States",
      "contacts": [
        {
          "name": "Site Public Contact",
          "role": "CONTACT",
          "phone": "734-712-7251",
          "email": "MCRCwebsitecontactform@stjoeshealth.org"
        },
        { "name": "Samir Narayan", "role": "PRINCIPAL_INVESTIGATOR" }
      ],
      "geoPoint": { "lat": 42.31807, "lon": -84.02181 }
    },
    {
      "facility": "Michigan Healthcare Professionals Clarkston",
      "status": "RECRUITING",
      "city": "Clarkston",
      "state": "Michigan",
      "zip": "48346",
      "country": "United States",
      "contacts": [
        {
          "name": "Site Public Contact",
          "role": "CONTACT",
          "phone": "941-833-5700",
          "email": "rudi.ross@profoundresearch.io"
        },
        { "name": "Frank A. Vicini", "role": "PRINCIPAL_INVESTIGATOR" }
      ],
      "geoPoint": { "lat": 42.73586, "lon": -83.41883 }
    },
    {
      "facility": "Michigan Healthcare Professionals Farmington",
      "status": "RECRUITING",
      "city": "Farmington Hills",
      "state": "Michigan",
      "zip": "48334",
      "country": "United States",
      "contacts": [
        {
          "name": "Site Public Contact",
          "role": "CONTACT",
          "phone": "941-833-5700",
          "email": "rudi.ross@profoundresearch.io"
        },
        { "name": "Frank A. Vicini", "role": "PRINCIPAL_INVESTIGATOR" }
      ],
      "geoPoint": { "lat": 42.48531, "lon": -83.37716 }
    },
    {
      "facility": "Corewell Health Grand Rapids Hospitals - Butterworth Hospital",
      "status": "RECRUITING",
      "city": "Grand Rapids",
      "state": "Michigan",
      "zip": "49503",
      "country": "United States",
      "contacts": [
        {
          "name": "Site Public Contact",
          "role": "CONTACT",
          "phone": "616-391-1230",
          "email": "crcwm-regulatory@crcwm.org"
        },
        { "name": "Kathleen Y. Butler", "role": "PRINCIPAL_INVESTIGATOR" }
      ],
      "geoPoint": { "lat": 42.96336, "lon": -85.66809 }
    },
    {
      "facility": "Trinity Health Grand Rapids Hospital",
      "status": "RECRUITING",
      "city": "Grand Rapids",
      "state": "Michigan",
      "zip": "49503",
      "country": "United States",
      "contacts": [
        {
          "name": "Site Public Contact",
          "role": "CONTACT",
          "phone": "616-391-1230",
          "email": "crcwm-regulatory@crcwm.org"
        },
        { "name": "Kathleen Y. Butler", "role": "PRINCIPAL_INVESTIGATOR" }
      ],
      "geoPoint": { "lat": 42.96336, "lon": -85.66809 }
    },
    {
      "facility": "Bronson Methodist Hospital",
      "status": "RECRUITING",
      "city": "Kalamazoo",
      "state": "Michigan",
      "zip": "49007",
      "country": "United States",
      "contacts": [
        {
          "name": "Site Public Contact",
          "role": "CONTACT",
          "phone": "616-391-1230",
          "email": "crcwm-regulatory@crcwm.org"
        },
        { "name": "Kathleen Y. Butler", "role": "PRINCIPAL_INVESTIGATOR" }
      ],
      "geoPoint": { "lat": 42.29171, "lon": -85.58723 }
    },
    {
      "facility": "University of Michigan Health - Sparrow Lansing",
      "status": "RECRUITING",
      "city": "Lansing",
      "state": "Michigan",
      "zip": "48912",
      "country": "United States",
      "contacts": [
        {
          "name": "Site Public Contact",
          "role": "CONTACT",
          "phone": "517-364-3712",
          "email": "harsha.trivedi@umhsparrow.org"
        },
        { "name": "Samir Narayan", "role": "PRINCIPAL_INVESTIGATOR" }
      ],
      "geoPoint": { "lat": 42.73253, "lon": -84.55553 }
    },
    {
      "facility": "Trinity Health Saint Mary Mercy Livonia Hospital",
      "status": "RECRUITING",
      "city": "Livonia",
      "state": "Michigan",
      "zip": "48154",
      "country": "United States",
      "contacts": [
        {
          "name": "Site Public Contact",
          "role": "CONTACT",
          "phone": "734-712-7251",
          "email": "MCRCwebsitecontactform@stjoeshealth.org"
        },
        { "name": "Samir Narayan", "role": "PRINCIPAL_INVESTIGATOR" }
      ],
      "geoPoint": { "lat": 42.36837, "lon": -83.35271 }
    },
    {
      "facility": "Michigan Healthcare Professionals Macomb",
      "status": "RECRUITING",
      "city": "Macomb",
      "state": "Michigan",
      "zip": "48044",
      "country": "United States",
      "contacts": [
        {
          "name": "Site Public Contact",
          "role": "CONTACT",
          "email": "rudi.ross@profoundresearch.io"
        },
        { "name": "Frank A. Vicini", "role": "PRINCIPAL_INVESTIGATOR" }
      ],
      "geoPoint": { "lat": 42.70087, "lon": -82.95909 }
    },
    {
      "facility": "Michigan Healthcare Professionals Madison Heights",
      "status": "RECRUITING",
      "city": "Madison Heights",
      "state": "Michigan",
      "zip": "48071",
      "country": "United States",
      "contacts": [
        {
          "name": "Site Public Contact",
          "role": "CONTACT",
          "phone": "941-833-5700",
          "email": "rudi.ross@profoundresearch.io"
        },
        { "name": "Frank A. Vicini", "role": "PRINCIPAL_INVESTIGATOR" }
      ],
      "geoPoint": { "lat": 42.48587, "lon": -83.1052 }
    },
    {
      "facility": "Trinity Health Saint Joseph Mercy Oakland Hospital",
      "status": "RECRUITING",
      "city": "Pontiac",
      "state": "Michigan",
      "zip": "48341",
      "country": "United States",
      "contacts": [
        {
          "name": "Site Public Contact",
          "role": "CONTACT",
          "phone": "734-712-7251",
          "email": "MCRCwebsitecontactform@stjoeshealth.org"
        },
        { "name": "Samir Narayan", "role": "PRINCIPAL_INVESTIGATOR" }
      ],
      "geoPoint": { "lat": 42.63892, "lon": -83.29105 }
    },
    {
      "facility": "Corewell Health William Beaumont University Hospital",
      "status": "RECRUITING",
      "city": "Royal Oak",
      "state": "Michigan",
      "zip": "48073",
      "country": "United States",
      "contacts": [
        {
          "name": "Site Public Contact",
          "role": "CONTACT",
          "phone": "248-551-7695"
        },
        { "name": "Daniel J. Krauss", "role": "PRINCIPAL_INVESTIGATOR" }
      ],
      "geoPoint": { "lat": 42.48948, "lon": -83.14465 }
    },
    {
      "facility": "Munson Medical Center",
      "status": "RECRUITING",
      "city": "Traverse City",
      "state": "Michigan",
      "zip": "49684",
      "country": "United States",
      "contacts": [
        {
          "name": "Site Public Contact",
          "role": "CONTACT",
          "phone": "616-391-1230",
          "email": "crcwm-regulatory@crcwm.org"
        },
        { "name": "Kathleen Y. Butler", "role": "PRINCIPAL_INVESTIGATOR" }
      ],
      "geoPoint": { "lat": 44.76306, "lon": -85.62063 }
    },
    {
      "facility": "Corewell Health Beaumont Troy Hospital",
      "status": "RECRUITING",
      "city": "Troy",
      "state": "Michigan",
      "zip": "48085",
      "country": "United States",
      "contacts": [
        {
          "name": "Site Public Contact",
          "role": "CONTACT",
          "phone": "248-551-7695"
        },
        { "name": "Daniel J. Krauss", "role": "PRINCIPAL_INVESTIGATOR" }
      ],
      "geoPoint": { "lat": 42.60559, "lon": -83.14993 }
    },
    {
      "facility": "Michigan Healthcare Professionals Troy",
      "status": "RECRUITING",
      "city": "Troy",
      "state": "Michigan",
      "zip": "48098",
      "country": "United States",
      "contacts": [
        {
          "name": "Site Public Contact",
          "role": "CONTACT",
          "email": "rudi.ross@profoundresearch.io"
        },
        { "name": "Frank A. Vicini", "role": "PRINCIPAL_INVESTIGATOR" }
      ],
      "geoPoint": { "lat": 42.60559, "lon": -83.14993 }
    },
    {
      "facility": "University of Michigan Health - West",
      "status": "RECRUITING",
      "city": "Wyoming",
      "state": "Michigan",
      "zip": "49519",
      "country": "United States",
      "contacts": [
        {
          "name": "Site Public Contact",
          "role": "CONTACT",
          "phone": "616-391-1230",
          "email": "crcwm-regulatory@crcwm.org"
        },
        { "name": "Kathleen Y. Butler", "role": "PRINCIPAL_INVESTIGATOR" }
      ],
      "geoPoint": { "lat": 42.91336, "lon": -85.70531 }
    },
    {
      "facility": "Trinity Health IHA Medical Group Hematology Oncology Ann Arbor Campus",
      "status": "RECRUITING",
      "city": "Ypsilanti",
      "state": "Michigan",
      "zip": "48197",
      "country": "United States",
      "contacts": [
        {
          "name": "Site Public Contact",
          "role": "CONTACT",
          "phone": "734-712-7251",
          "email": "MCRCwebsitecontactform@stjoeshealth.org"
        },
        { "name": "Samir Narayan", "role": "PRINCIPAL_INVESTIGATOR" }
      ],
      "geoPoint": { "lat": 42.24115, "lon": -83.61299 }
    },
    {
      "facility": "Regions Hospital",
      "status": "RECRUITING",
      "city": "Saint Paul",
      "state": "Minnesota",
      "zip": "55101",
      "country": "United States",
      "contacts": [
        {
          "name": "Site Public Contact",
          "role": "CONTACT",
          "phone": "952-993-1517",
          "email": "mmcorc@healthpartners.com"
        },
        { "name": "Charles Shideman", "role": "PRINCIPAL_INVESTIGATOR" }
      ],
      "geoPoint": { "lat": 44.94441, "lon": -93.09327 }
    },
    {
      "facility": "Saint Francis Medical Center",
      "status": "RECRUITING",
      "city": "Cape Girardeau",
      "state": "Missouri",
      "zip": "63703",
      "country": "United States",
      "contacts": [
        {
          "name": "Site Public Contact",
          "role": "CONTACT",
          "phone": "573-334-2230",
          "email": "sfmc@sfmc.net"
        },
        { "name": "Bryan A. Faller", "role": "PRINCIPAL_INVESTIGATOR" }
      ],
      "geoPoint": { "lat": 37.30588, "lon": -89.51815 }
    },
    {
      "facility": "Siteman Cancer Center at Saint Peters Hospital",
      "status": "RECRUITING",
      "city": "City of Saint Peters",
      "state": "Missouri",
      "zip": "63376",
      "country": "United States",
      "contacts": [
        {
          "name": "Site Public Contact",
          "role": "CONTACT",
          "phone": "800-600-3606",
          "email": "info@siteman.wustl.edu"
        },
        { "name": "Hiram A. Gay", "role": "PRINCIPAL_INVESTIGATOR" }
      ],
      "geoPoint": { "lat": 38.80033, "lon": -90.62651 }
    },
    {
      "facility": "Siteman Cancer Center at West County Hospital",
      "status": "RECRUITING",
      "city": "Creve Coeur",
      "state": "Missouri",
      "zip": "63141",
      "country": "United States",
      "contacts": [
        {
          "name": "Site Public Contact",
          "role": "CONTACT",
          "phone": "800-600-3606",
          "email": "info@siteman.wustl.edu"
        },
        { "name": "Hiram A. Gay", "role": "PRINCIPAL_INVESTIGATOR" }
      ],
      "geoPoint": { "lat": 38.66089, "lon": -90.42262 }
    },
    {
      "facility": "Phelps Health Delbert Day Cancer Institute",
      "status": "RECRUITING",
      "city": "Rolla",
      "state": "Missouri",
      "zip": "65401",
      "country": "United States",
      "contacts": [
        {
          "name": "Site Public Contact",
          "role": "CONTACT",
          "phone": "573-458-7504",
          "email": "research@phelpshealth.org"
        },
        { "name": "Jay W. Carlson", "role": "PRINCIPAL_INVESTIGATOR" }
      ],
      "geoPoint": { "lat": 37.95143, "lon": -91.77127 }
    },
    {
      "facility": "Washington University School of Medicine",
      "status": "RECRUITING",
      "city": "St Louis",
      "state": "Missouri",
      "zip": "63110",
      "country": "United States",
      "contacts": [
        {
          "name": "Site Public Contact",
          "role": "CONTACT",
          "phone": "800-600-3606",
          "email": "info@siteman.wustl.edu"
        },
        { "name": "Hiram A. Gay", "role": "PRINCIPAL_INVESTIGATOR" }
      ],
      "geoPoint": { "lat": 38.62727, "lon": -90.19789 }
    },
    {
      "facility": "Siteman Cancer Center-South County",
      "status": "RECRUITING",
      "city": "St Louis",
      "state": "Missouri",
      "zip": "63129",
      "country": "United States",
      "contacts": [
        {
          "name": "Site Public Contact",
          "role": "CONTACT",
          "phone": "800-600-3606",
          "email": "info@siteman.wustl.edu"
        },
        { "name": "Hiram A. Gay", "role": "PRINCIPAL_INVESTIGATOR" }
      ],
      "geoPoint": { "lat": 38.62727, "lon": -90.19789 }
    },
    {
      "facility": "Siteman Cancer Center at Christian Hospital",
      "status": "RECRUITING",
      "city": "St Louis",
      "state": "Missouri",
      "zip": "63136",
      "country": "United States",
      "contacts": [
        {
          "name": "Site Public Contact",
          "role": "CONTACT",
          "phone": "800-600-3606",
          "email": "info@siteman.wustl.edu"
        },
        { "name": "Hiram A. Gay", "role": "PRINCIPAL_INVESTIGATOR" }
      ],
      "geoPoint": { "lat": 38.62727, "lon": -90.19789 }
    },
    {
      "facility": "Benefis Sletten Cancer Institute",
      "status": "RECRUITING",
      "city": "Great Falls",
      "state": "Montana",
      "zip": "59405",
      "country": "United States",
      "contacts": [
        {
          "name": "Site Public Contact",
          "role": "CONTACT",
          "phone": "406-969-6060",
          "email": "mccinfo@mtcancer.org"
        },
        { "name": "John M. Schallenkamp", "role": "PRINCIPAL_INVESTIGATOR" }
      ],
      "geoPoint": { "lat": 47.50024, "lon": -111.30081 }
    },
    {
      "facility": "Dartmouth Hitchcock Medical Center/Dartmouth Cancer Center",
      "status": "RECRUITING",
      "city": "Lebanon",
      "state": "New Hampshire",
      "zip": "03756",
      "country": "United States",
      "contacts": [
        {
          "name": "Site Public Contact",
          "role": "CONTACT",
          "phone": "800-639-6918",
          "email": "cancer.research.nurse@dartmouth.edu"
        },
        { "name": "Nirav S. Kapadia", "role": "PRINCIPAL_INVESTIGATOR" }
      ],
      "geoPoint": { "lat": 43.64229, "lon": -72.25176 }
    },
    {
      "facility": "The Valley Hospital - Luckow Pavilion",
      "status": "RECRUITING",
      "city": "Paramus",
      "state": "New Jersey",
      "zip": "07652",
      "country": "United States",
      "contacts": [
        {
          "name": "Site Public Contact",
          "role": "CONTACT",
          "phone": "201-634-5792",
          "email": "clinicaltrialsresearch@valleyhealth.com"
        },
        { "name": "Eli D. Kirshner", "role": "PRINCIPAL_INVESTIGATOR" }
      ],
      "geoPoint": { "lat": 40.94454, "lon": -74.07542 }
    },
    {
      "facility": "University of New Mexico Cancer Center",
      "status": "RECRUITING",
      "city": "Albuquerque",
      "state": "New Mexico",
      "zip": "87106",
      "country": "United States",
      "contacts": [
        {
          "name": "Site Public Contact",
          "role": "CONTACT",
          "phone": "505-925-0348",
          "email": "HSC-ClinicalTrialInfo@salud.unm.edu"
        },
        { "name": "Neda Hashemi Sadraei", "role": "PRINCIPAL_INVESTIGATOR" }
      ],
      "geoPoint": { "lat": 35.08449, "lon": -106.65114 }
    },
    {
      "facility": "Roswell Park Cancer Institute",
      "status": "RECRUITING",
      "city": "Buffalo",
      "state": "New York",
      "zip": "14263",
      "country": "United States",
      "contacts": [
        {
          "name": "Site Public Contact",
          "role": "CONTACT",
          "phone": "800-767-9355",
          "email": "askroswell@roswellpark.org"
        },
        { "name": "Michael R. Kuettel", "role": "PRINCIPAL_INVESTIGATOR" }
      ],
      "geoPoint": { "lat": 42.88645, "lon": -78.87837 }
    },
    {
      "facility": "Highland Hospital",
      "status": "RECRUITING",
      "city": "Rochester",
      "state": "New York",
      "zip": "14620",
      "country": "United States",
      "contacts": [
        {
          "name": "Site Public Contact",
          "role": "CONTACT",
          "phone": "585-341-8113"
        },
        { "name": "Yuhchyau Chen", "role": "PRINCIPAL_INVESTIGATOR" }
      ],
      "geoPoint": { "lat": 43.15478, "lon": -77.61556 }
    },
    {
      "facility": "University of Rochester",
      "status": "RECRUITING",
      "city": "Rochester",
      "state": "New York",
      "zip": "14642",
      "country": "United States",
      "contacts": [
        {
          "name": "Site Public Contact",
          "role": "CONTACT",
          "phone": "585-275-5830"
        },
        { "name": "Yuhchyau Chen", "role": "PRINCIPAL_INVESTIGATOR" }
      ],
      "geoPoint": { "lat": 43.15478, "lon": -77.61556 }
    },
    {
      "facility": "Wilmot Cancer Institute at Webster",
      "status": "RECRUITING",
      "city": "Webster",
      "state": "New York",
      "zip": "14580",
      "country": "United States",
      "contacts": [
        {
          "name": "Site Public Contact",
          "role": "CONTACT",
          "email": "WCICTOresearch@urmc.rochester.edu"
        },
        { "name": "Yuhchyau Chen", "role": "PRINCIPAL_INVESTIGATOR" }
      ],
      "geoPoint": { "lat": 43.21229, "lon": -77.42999 }
    },
    {
      "facility": "East Carolina University",
      "status": "RECRUITING",
      "city": "Greenville",
      "state": "North Carolina",
      "zip": "27834",
      "country": "United States",
      "contacts": [
        {
          "name": "Site Public Contact",
          "role": "CONTACT",
          "phone": "252-744-1015",
          "email": "eubankss@ecu.edu"
        },
        { "name": "Andrew W. Ju", "role": "PRINCIPAL_INVESTIGATOR" }
      ],
      "geoPoint": { "lat": 35.61266, "lon": -77.36635 }
    },
    {
      "facility": "Sanford Broadway Medical Center",
      "status": "RECRUITING",
      "city": "Fargo",
      "state": "North Dakota",
      "zip": "58122",
      "country": "United States",
      "contacts": [
        {
          "name": "Site Public Contact",
          "role": "CONTACT",
          "phone": "701-323-5760",
          "email": "OncologyClinicalTrialsFargo@sanfordhealth.org"
        },
        { "name": "Daniel Almquist", "role": "PRINCIPAL_INVESTIGATOR" }
      ],
      "geoPoint": { "lat": 46.87719, "lon": -96.7898 }
    },
    {
      "facility": "Sanford Roger Maris Cancer Center",
      "status": "RECRUITING",
      "city": "Fargo",
      "state": "North Dakota",
      "zip": "58122",
      "country": "United States",
      "contacts": [
        {
          "name": "Site Public Contact",
          "role": "CONTACT",
          "phone": "701-234-6161",
          "email": "OncologyClinicalTrialsFargo@sanfordhealth.org"
        },
        { "name": "Daniel Almquist", "role": "PRINCIPAL_INVESTIGATOR" }
      ],
      "geoPoint": { "lat": 46.87719, "lon": -96.7898 }
    },
    {
      "facility": "UH Seidman Cancer Center at UH Avon Health Center",
      "status": "ACTIVE_NOT_RECRUITING",
      "city": "Avon",
      "state": "Ohio",
      "zip": "44011",
      "country": "United States",
      "geoPoint": { "lat": 41.45171, "lon": -82.03542 }
    },
    {
      "facility": "UHHS-Chagrin Highlands Medical Center",
      "status": "ACTIVE_NOT_RECRUITING",
      "city": "Beachwood",
      "state": "Ohio",
      "zip": "44122",
      "country": "United States",
      "geoPoint": { "lat": 41.4645, "lon": -81.50873 }
    },
    {
      "facility": "Miami Valley Hospital South",
      "status": "RECRUITING",
      "city": "Centerville",
      "state": "Ohio",
      "zip": "45459",
      "country": "United States",
      "contacts": [
        {
          "name": "Site Public Contact",
          "role": "CONTACT",
          "phone": "937-528-2900",
          "email": "clinical.trials@daytonncorp.org"
        },
        { "name": "Tarek M. Sabagh", "role": "PRINCIPAL_INVESTIGATOR" }
      ],
      "geoPoint": { "lat": 39.62839, "lon": -84.15938 }
    },
    {
      "facility": "Case Western Reserve University",
      "status": "ACTIVE_NOT_RECRUITING",
      "city": "Cleveland",
      "state": "Ohio",
      "zip": "44106",
      "country": "United States",
      "geoPoint": { "lat": 41.4995, "lon": -81.69541 }
    },
    {
      "facility": "Cleveland Clinic Cancer Center/Fairview Hospital",
      "status": "RECRUITING",
      "city": "Cleveland",
      "state": "Ohio",
      "zip": "44111",
      "country": "United States",
      "contacts": [
        {
          "name": "Site Public Contact",
          "role": "CONTACT",
          "phone": "866-223-8100",
          "email": "TaussigResearch@ccf.org"
        },
        { "name": "Shalini Moningi", "role": "PRINCIPAL_INVESTIGATOR" }
      ],
      "geoPoint": { "lat": 41.4995, "lon": -81.69541 }
    },
    {
      "facility": "Cleveland Clinic Foundation",
      "status": "RECRUITING",
      "city": "Cleveland",
      "state": "Ohio",
      "zip": "44195",
      "country": "United States",
      "contacts": [
        {
          "name": "Site Public Contact",
          "role": "CONTACT",
          "phone": "866-223-8100",
          "email": "TaussigResearch@ccf.org"
        },
        { "name": "Shalini Moningi", "role": "PRINCIPAL_INVESTIGATOR" }
      ],
      "geoPoint": { "lat": 41.4995, "lon": -81.69541 }
    },
    {
      "facility": "Ohio State University Comprehensive Cancer Center",
      "status": "RECRUITING",
      "city": "Columbus",
      "state": "Ohio",
      "zip": "43210",
      "country": "United States",
      "contacts": [
        {
          "name": "Site Public Contact",
          "role": "CONTACT",
          "phone": "800-293-5066",
          "email": "Jamesline@osumc.edu"
        },
        { "name": "Jacob Eckstein", "role": "PRINCIPAL_INVESTIGATOR" }
      ],
      "geoPoint": { "lat": 39.96118, "lon": -82.99879 }
    },
    {
      "facility": "Miami Valley Hospital",
      "status": "RECRUITING",
      "city": "Dayton",
      "state": "Ohio",
      "zip": "45409",
      "country": "United States",
      "contacts": [
        {
          "name": "Site Public Contact",
          "role": "CONTACT",
          "phone": "937-528-2900",
          "email": "clinical.trials@daytonncorp.org"
        },
        { "name": "Tarek M. Sabagh", "role": "PRINCIPAL_INVESTIGATOR" }
      ],
      "geoPoint": { "lat": 39.75895, "lon": -84.19161 }
    },
    {
      "facility": "Premier Blood and Cancer Center",
      "status": "RECRUITING",
      "city": "Dayton",
      "state": "Ohio",
      "zip": "45409",
      "country": "United States",
      "contacts": [
        {
          "name": "Site Public Contact",
          "role": "CONTACT",
          "phone": "937-276-8320"
        },
        { "name": "Tarek M. Sabagh", "role": "PRINCIPAL_INVESTIGATOR" }
      ],
      "geoPoint": { "lat": 39.75895, "lon": -84.19161 }
    },
    {
      "facility": "Miami Valley Hospital North",
      "status": "RECRUITING",
      "city": "Dayton",
      "state": "Ohio",
      "zip": "45415",
      "country": "United States",
      "contacts": [
        {
          "name": "Site Public Contact",
          "role": "CONTACT",
          "phone": "937-528-2900",
          "email": "clinical.trials@daytonncorp.org"
        },
        { "name": "Tarek M. Sabagh", "role": "PRINCIPAL_INVESTIGATOR" }
      ],
      "geoPoint": { "lat": 39.75895, "lon": -84.19161 }
    },
    {
      "facility": "Atrium Medical Center-Middletown Regional Hospital",
      "status": "RECRUITING",
      "city": "Franklin",
      "state": "Ohio",
      "zip": "45005-1066",
      "country": "United States",
      "contacts": [
        {
          "name": "Site Public Contact",
          "role": "CONTACT",
          "phone": "937-528-2900",
          "email": "clinical.trials@daytonncorp.org"
        },
        { "name": "Tarek M. Sabagh", "role": "PRINCIPAL_INVESTIGATOR" }
      ],
      "geoPoint": { "lat": 39.55895, "lon": -84.30411 }
    },
    {
      "facility": "Hillcrest Hospital Cancer Center",
      "status": "RECRUITING",
      "city": "Mayfield Heights",
      "state": "Ohio",
      "zip": "44124",
      "country": "United States",
      "contacts": [
        {
          "name": "Site Public Contact",
          "role": "CONTACT",
          "phone": "866-223-8100",
          "email": "TaussigResearch@ccf.org"
        },
        { "name": "Shalini Moningi", "role": "PRINCIPAL_INVESTIGATOR" }
      ],
      "geoPoint": { "lat": 41.51922, "lon": -81.4579 }
    },
    {
      "facility": "UH Seidman Cancer Center at Lake Health Mentor Campus",
      "status": "ACTIVE_NOT_RECRUITING",
      "city": "Mentor",
      "state": "Ohio",
      "zip": "44060",
      "country": "United States",
      "geoPoint": { "lat": 41.66616, "lon": -81.33955 }
    },
    {
      "facility": "University Hospitals Parma Medical Center",
      "status": "ACTIVE_NOT_RECRUITING",
      "city": "Parma",
      "state": "Ohio",
      "zip": "44129",
      "country": "United States",
      "geoPoint": { "lat": 41.40477, "lon": -81.72291 }
    },
    {
      "facility": "University Hospitals Portage Medical Center",
      "status": "ACTIVE_NOT_RECRUITING",
      "city": "Ravenna",
      "state": "Ohio",
      "zip": "44266",
      "country": "United States",
      "geoPoint": { "lat": 41.15756, "lon": -81.24205 }
    },
    {
      "facility": "Cleveland Clinic Cancer Center Strongsville",
      "status": "RECRUITING",
      "city": "Strongsville",
      "state": "Ohio",
      "zip": "44136",
      "country": "United States",
      "contacts": [
        {
          "name": "Site Public Contact",
          "role": "CONTACT",
          "phone": "866-223-8100",
          "email": "TaussigResearch@ccf.org"
        },
        { "name": "Shalini Moningi", "role": "PRINCIPAL_INVESTIGATOR" }
      ],
      "geoPoint": { "lat": 41.3145, "lon": -81.83569 }
    },
    {
      "facility": "ProMedica Flower Hospital",
      "status": "RECRUITING",
      "city": "Sylvania",
      "state": "Ohio",
      "zip": "43560",
      "country": "United States",
      "contacts": [
        {
          "name": "Site Public Contact",
          "role": "CONTACT",
          "phone": "419-824-1842",
          "email": "PCIOncResearch@promedica.org"
        },
        { "name": "Steven J. Rubin", "role": "PRINCIPAL_INVESTIGATOR" }
      ],
      "geoPoint": { "lat": 41.71894, "lon": -83.71299 }
    },
    {
      "facility": "Upper Valley Medical Center",
      "status": "RECRUITING",
      "city": "Troy",
      "state": "Ohio",
      "zip": "45373",
      "country": "United States",
      "contacts": [
        {
          "name": "Site Public Contact",
          "role": "CONTACT",
          "phone": "937-528-2900",
          "email": "clinical.trials@daytonncorp.org"
        },
        { "name": "Tarek M. Sabagh", "role": "PRINCIPAL_INVESTIGATOR" }
      ],
      "geoPoint": { "lat": 40.0395, "lon": -84.20328 }
    },
    {
      "facility": "University of Oklahoma Health Sciences Center",
      "status": "RECRUITING",
      "city": "Oklahoma City",
      "state": "Oklahoma",
      "zip": "73104",
      "country": "United States",
      "contacts": [
        {
          "name": "Site Public Contact",
          "role": "CONTACT",
          "phone": "405-271-8777",
          "email": "ou-clinical-trials@ouhsc.edu"
        },
        { "name": "Tyler Gunter", "role": "PRINCIPAL_INVESTIGATOR" }
      ],
      "geoPoint": { "lat": 35.46756, "lon": -97.51643 }
    },
    {
      "facility": "Oregon Health and Science University",
      "status": "RECRUITING",
      "city": "Portland",
      "state": "Oregon",
      "zip": "97239",
      "country": "United States",
      "contacts": [
        {
          "name": "Site Public Contact",
          "role": "CONTACT",
          "phone": "503-494-1080",
          "email": "trials@ohsu.edu"
        },
        { "name": "Arthur Y. Hung", "role": "PRINCIPAL_INVESTIGATOR" }
      ],
      "geoPoint": { "lat": 45.52345, "lon": -122.67621 }
    },
    {
      "facility": "UPMC Altoona",
      "status": "RECRUITING",
      "city": "Altoona",
      "state": "Pennsylvania",
      "zip": "16601",
      "country": "United States",
      "contacts": [
        {
          "name": "Site Public Contact",
          "role": "CONTACT",
          "phone": "412-339-5294",
          "email": "Roster@nrgoncology.org"
        },
        { "name": "Adam Olson", "role": "PRINCIPAL_INVESTIGATOR" }
      ],
      "geoPoint": { "lat": 40.51868, "lon": -78.39474 }
    },
    {
      "facility": "UPMC-Heritage Valley Health System Beaver",
      "status": "RECRUITING",
      "city": "Beaver",
      "state": "Pennsylvania",
      "zip": "15009",
      "country": "United States",
      "contacts": [
        {
          "name": "Site Public Contact",
          "role": "CONTACT",
          "phone": "412-389-5208",
          "email": "haneydl@upmc.edu"
        },
        { "name": "Adam Olson", "role": "PRINCIPAL_INVESTIGATOR" }
      ],
      "geoPoint": { "lat": 40.69534, "lon": -80.30478 }
    },
    {
      "facility": "Bryn Mawr Hospital",
      "status": "RECRUITING",
      "city": "Bryn Mawr",
      "state": "Pennsylvania",
      "zip": "19010",
      "country": "United States",
      "contacts": [
        {
          "name": "Site Public Contact",
          "role": "CONTACT",
          "phone": "484-476-2649",
          "email": "turzoe@mlhs.org"
        },
        { "name": "Deric C. Savior", "role": "PRINCIPAL_INVESTIGATOR" }
      ],
      "geoPoint": { "lat": 40.30396, "lon": -80.08672 }
    },
    {
      "facility": "Carlisle Regional Cancer Center",
      "status": "RECRUITING",
      "city": "Carlisle",
      "state": "Pennsylvania",
      "zip": "17015",
      "country": "United States",
      "contacts": [
        {
          "name": "Site Public Contact",
          "role": "CONTACT",
          "phone": "412-339-5294",
          "email": "Roster@nrgoncology.org"
        },
        { "name": "Adam Olson", "role": "PRINCIPAL_INVESTIGATOR" }
      ],
      "geoPoint": { "lat": 40.20148, "lon": -77.18887 }
    },
    {
      "facility": "Christiana Care Health System-Concord Health Center",
      "status": "RECRUITING",
      "city": "Chadds Ford",
      "state": "Pennsylvania",
      "zip": "19317",
      "country": "United States",
      "contacts": [
        {
          "name": "Site Public Contact",
          "role": "CONTACT",
          "phone": "302-623-4450",
          "email": "lbarone@christianacare.org"
        },
        { "name": "Gregory A. Masters", "role": "PRINCIPAL_INVESTIGATOR" }
      ],
      "geoPoint": { "lat": 39.87178, "lon": -75.59132 }
    },
    {
      "facility": "Chambersburg Hospital",
      "status": "RECRUITING",
      "city": "Chambersburg",
      "state": "Pennsylvania",
      "zip": "17201",
      "country": "United States",
      "contacts": [
        {
          "name": "Site Public Contact",
          "role": "CONTACT",
          "phone": "412-339-5294",
          "email": "Roster@nrgoncology.org"
        },
        { "name": "Amit B. Shah", "role": "PRINCIPAL_INVESTIGATOR" }
      ],
      "geoPoint": { "lat": 39.93759, "lon": -77.6611 }
    },
    {
      "facility": "Geisinger Medical Center",
      "status": "RECRUITING",
      "city": "Danville",
      "state": "Pennsylvania",
      "zip": "17822",
      "country": "United States",
      "contacts": [
        {
          "name": "Site Public Contact",
          "role": "CONTACT",
          "phone": "570-271-5251",
          "email": "HemonCCTrials@geisinger.edu"
        },
        { "name": "Heath B. Mackley", "role": "PRINCIPAL_INVESTIGATOR" }
      ],
      "geoPoint": { "lat": 40.96342, "lon": -76.61273 }
    },
    {
      "facility": "Fox Chase Cancer Center - East Norriton Hospital Outpatient Center",
      "status": "ACTIVE_NOT_RECRUITING",
      "city": "East Norriton",
      "state": "Pennsylvania",
      "zip": "19401",
      "country": "United States",
      "geoPoint": { "lat": 40.15043, "lon": -75.33637 }
    },
    {
      "facility": "Ephrata Cancer Center",
      "status": "RECRUITING",
      "city": "Ephrata",
      "state": "Pennsylvania",
      "zip": "17522",
      "country": "United States",
      "contacts": [
        {
          "name": "Site Public Contact",
          "role": "CONTACT",
          "phone": "717-721-4840"
        },
        { "name": "Amit B. Shah", "role": "PRINCIPAL_INVESTIGATOR" }
      ],
      "geoPoint": { "lat": 40.17982, "lon": -76.17884 }
    },
    {
      "facility": "UPMC Hillman Cancer Center Erie",
      "status": "RECRUITING",
      "city": "Erie",
      "state": "Pennsylvania",
      "zip": "16505",
      "country": "United States",
      "contacts": [
        {
          "name": "Site Public Contact",
          "role": "CONTACT",
          "phone": "412-389-5208",
          "email": "haneydl@upmc.edu"
        },
        { "name": "Adam Olson", "role": "PRINCIPAL_INVESTIGATOR" }
      ],
      "geoPoint": { "lat": 42.12922, "lon": -80.08506 }
    },
    {
      "facility": "UPMC Cancer Center at UPMC Horizon",
      "status": "RECRUITING",
      "city": "Farrell",
      "state": "Pennsylvania",
      "zip": "16121",
      "country": "United States",
      "contacts": [
        {
          "name": "Site Public Contact",
          "role": "CONTACT",
          "phone": "412-339-5294",
          "email": "Roster@nrgoncology.org"
        },
        { "name": "Adam Olson", "role": "PRINCIPAL_INVESTIGATOR" }
      ],
      "geoPoint": { "lat": 41.21228, "lon": -80.49674 }
    },
    {
      "facility": "Fox Chase Cancer Center Buckingham",
      "status": "ACTIVE_NOT_RECRUITING",
      "city": "Furlong",
      "state": "Pennsylvania",
      "zip": "18925",
      "country": "United States",
      "geoPoint": { "lat": 40.29622, "lon": -75.08212 }
    },
    {
      "facility": "Adams Cancer Center",
      "status": "RECRUITING",
      "city": "Gettysburg",
      "state": "Pennsylvania",
      "zip": "17325",
      "country": "United States",
      "contacts": [
        {
          "name": "Site Public Contact",
          "role": "CONTACT",
          "phone": "877-441-7957"
        },
        { "name": "Amit B. Shah", "role": "PRINCIPAL_INVESTIGATOR" }
      ],
      "geoPoint": { "lat": 39.83093, "lon": -77.2311 }
    },
    {
      "facility": "UPMC Pinnacle Cancer Center/Community Osteopathic Campus",
      "status": "RECRUITING",
      "city": "Harrisburg",
      "state": "Pennsylvania",
      "zip": "17109",
      "country": "United States",
      "contacts": [
        {
          "name": "Site Public Contact",
          "role": "CONTACT",
          "phone": "717-724-6765",
          "email": "klitchfield@PINNACLEHEALTH.org"
        },
        { "name": "Adam Olson", "role": "PRINCIPAL_INVESTIGATOR" }
      ],
      "geoPoint": { "lat": 40.2737, "lon": -76.88442 }
    },
    {
      "facility": "Penn State Milton S Hershey Medical Center",
      "status": "RECRUITING",
      "city": "Hershey",
      "state": "Pennsylvania",
      "zip": "17033-0850",
      "country": "United States",
      "contacts": [
        {
          "name": "Site Public Contact",
          "role": "CONTACT",
          "phone": "717-531-3779",
          "email": "CTO@hmc.psu.edu"
        },
        { "name": "Joseph A. Miccio", "role": "PRINCIPAL_INVESTIGATOR" }
      ],
      "geoPoint": { "lat": 40.28592, "lon": -76.65025 }
    },
    {
      "facility": "IRMC Cancer Center",
      "status": "RECRUITING",
      "city": "Indiana",
      "state": "Pennsylvania",
      "zip": "15701",
      "country": "United States",
      "contacts": [
        {
          "name": "Site Public Contact",
          "role": "CONTACT",
          "phone": "412-389-5208",
          "email": "haneydl@upmc.edu"
        },
        { "name": "Adam Olson", "role": "PRINCIPAL_INVESTIGATOR" }
      ],
      "geoPoint": { "lat": 40.62146, "lon": -79.15253 }
    },
    {
      "facility": "Sechler Family Cancer Center",
      "status": "RECRUITING",
      "city": "Lebanon",
      "state": "Pennsylvania",
      "zip": "17042",
      "country": "United States",
      "contacts": [
        {
          "name": "Site Public Contact",
          "role": "CONTACT",
          "phone": "717-741-8303",
          "email": "doxenberg@wellspan.org"
        },
        { "name": "Amit B. Shah", "role": "PRINCIPAL_INVESTIGATOR" }
      ],
      "geoPoint": { "lat": 40.34093, "lon": -76.41135 }
    },
    {
      "facility": "Geisinger Medical Oncology-Lewisburg",
      "status": "RECRUITING",
      "city": "Lewisburg",
      "state": "Pennsylvania",
      "zip": "17837",
      "country": "United States",
      "contacts": [
        {
          "name": "Site Public Contact",
          "role": "CONTACT",
          "phone": "570-374-8555",
          "email": "HemonCCTrials@geisinger.edu"
        },
        { "name": "Heath B. Mackley", "role": "PRINCIPAL_INVESTIGATOR" }
      ],
      "geoPoint": { "lat": 40.96453, "lon": -76.88441 }
    },
    {
      "facility": "UPMC Hillman Cancer Center at Rocco And Nancy Ortenzio Cancer Pavilion",
      "status": "RECRUITING",
      "city": "Mechanicsburg",
      "state": "Pennsylvania",
      "zip": "17050",
      "country": "United States",
      "contacts": [
        {
          "name": "Site Public Contact",
          "role": "CONTACT",
          "phone": "412-389-5208",
          "email": "haneydl@upmc.edu"
        },
        { "name": "Adam Olson", "role": "PRINCIPAL_INVESTIGATOR" }
      ],
      "geoPoint": { "lat": 40.21426, "lon": -77.00859 }
    },
    {
      "facility": "Riddle Memorial Hospital",
      "status": "RECRUITING",
      "city": "Media",
      "state": "Pennsylvania",
      "zip": "19063",
      "country": "United States",
      "contacts": [
        {
          "name": "Site Public Contact",
          "role": "CONTACT",
          "phone": "484-476-2649",
          "email": "turzoe@mlhs.org"
        },
        { "name": "Deric C. Savior", "role": "PRINCIPAL_INVESTIGATOR" }
      ],
      "geoPoint": { "lat": 39.91678, "lon": -75.38769 }
    },
    {
      "facility": "UPMC Hillman Cancer Center in Coraopolis",
      "status": "RECRUITING",
      "city": "Moon Township",
      "state": "Pennsylvania",
      "zip": "15108",
      "country": "United States",
      "contacts": [
        {
          "name": "Site Public Contact",
          "role": "CONTACT",
          "phone": "412-389-5208",
          "email": "haneydl@upmc.edu"
        },
        { "name": "Adam Olson", "role": "PRINCIPAL_INVESTIGATOR" }
      ],
      "geoPoint": { "lat": 40.50896, "lon": -80.23923 }
    },
    {
      "facility": "Paoli Memorial Hospital",
      "status": "RECRUITING",
      "city": "Paoli",
      "state": "Pennsylvania",
      "zip": "19301",
      "country": "United States",
      "contacts": [
        {
          "name": "Site Public Contact",
          "role": "CONTACT",
          "phone": "484-476-2649",
          "email": "turzoe@mlhs.org"
        },
        { "name": "Deric C. Savior", "role": "PRINCIPAL_INVESTIGATOR" }
      ],
      "geoPoint": { "lat": 40.04205, "lon": -75.47631 }
    },
    {
      "facility": "Fox Chase Cancer Center",
      "status": "ACTIVE_NOT_RECRUITING",
      "city": "Philadelphia",
      "state": "Pennsylvania",
      "zip": "19111",
      "country": "United States",
      "geoPoint": { "lat": 39.95238, "lon": -75.16362 }
    },
    {
      "facility": "UPMC-Magee Womens Hospital",
      "status": "RECRUITING",
      "city": "Pittsburgh",
      "state": "Pennsylvania",
      "zip": "15213",
      "country": "United States",
      "contacts": [
        {
          "name": "Site Public Contact",
          "role": "CONTACT",
          "phone": "412-647-2811"
        },
        { "name": "Adam Olson", "role": "PRINCIPAL_INVESTIGATOR" }
      ],
      "geoPoint": { "lat": 40.44062, "lon": -79.99589 }
    },
    {
      "facility": "UPMC-Saint Margaret",
      "status": "RECRUITING",
      "city": "Pittsburgh",
      "state": "Pennsylvania",
      "zip": "15215",
      "country": "United States",
      "contacts": [
        {
          "name": "Site Public Contact",
          "role": "CONTACT",
          "phone": "412-784-4900"
        },
        { "name": "Adam Olson", "role": "PRINCIPAL_INVESTIGATOR" }
      ],
      "geoPoint": { "lat": 40.44062, "lon": -79.99589 }
    },
    {
      "facility": "University of Pittsburgh Cancer Institute (UPCI)",
      "status": "RECRUITING",
      "city": "Pittsburgh",
      "state": "Pennsylvania",
      "zip": "15232",
      "country": "United States",
      "contacts": [
        {
          "name": "Site Public Contact",
          "role": "CONTACT",
          "phone": "412-647-8073"
        },
        { "name": "Adam Olson", "role": "PRINCIPAL_INVESTIGATOR" }
      ],
      "geoPoint": { "lat": 40.44062, "lon": -79.99589 }
    },
    {
      "facility": "UPMC-Shadyside Hospital",
      "status": "RECRUITING",
      "city": "Pittsburgh",
      "state": "Pennsylvania",
      "zip": "15232",
      "country": "United States",
      "contacts": [
        {
          "name": "Site Public Contact",
          "role": "CONTACT",
          "phone": "412-621-2334"
        },
        { "name": "Adam Olson", "role": "PRINCIPAL_INVESTIGATOR" }
      ],
      "geoPoint": { "lat": 40.44062, "lon": -79.99589 }
    },
    {
      "facility": "UPMC-Passavant Hospital",
      "status": "RECRUITING",
      "city": "Pittsburgh",
      "state": "Pennsylvania",
      "zip": "15237",
      "country": "United States",
      "contacts": [
        {
          "name": "Site Public Contact",
          "role": "CONTACT",
          "phone": "412-367-6454"
        },
        { "name": "Adam Olson", "role": "PRINCIPAL_INVESTIGATOR" }
      ],
      "geoPoint": { "lat": 40.44062, "lon": -79.99589 }
    },
    {
      "facility": "Geisinger Cancer Services-Pottsville",
      "status": "RECRUITING",
      "city": "Pottsville",
      "state": "Pennsylvania",
      "zip": "17901",
      "country": "United States",
      "contacts": [
        {
          "name": "Site Public Contact",
          "role": "CONTACT",
          "phone": "800-275-6401",
          "email": "HemonCCTrials@geisinger.edu"
        },
        { "name": "Heath B. Mackley", "role": "PRINCIPAL_INVESTIGATOR" }
      ],
      "geoPoint": { "lat": 40.68565, "lon": -76.1955 }
    },
    {
      "facility": "UPMC Cancer Center at UPMC Northwest",
      "status": "RECRUITING",
      "city": "Seneca",
      "state": "Pennsylvania",
      "zip": "16346",
      "country": "United States",
      "contacts": [
        {
          "name": "Site Public Contact",
          "role": "CONTACT",
          "phone": "814-676-7900"
        },
        { "name": "Adam Olson", "role": "PRINCIPAL_INVESTIGATOR" }
      ],
      "geoPoint": { "lat": 41.37867, "lon": -79.70394 }
    },
    {
      "facility": "UPMC Washington Hospital Radiation Oncology",
      "status": "RECRUITING",
      "city": "Washington",
      "state": "Pennsylvania",
      "zip": "15301",
      "country": "United States",
      "contacts": [
        {
          "name": "Site Public Contact",
          "role": "CONTACT",
          "phone": "724-223-3788",
          "email": "cancer@washingtonhospital.org"
        },
        { "name": "Adam Olson", "role": "PRINCIPAL_INVESTIGATOR" }
      ],
      "geoPoint": { "lat": 40.17396, "lon": -80.24617 }
    },
    {
      "facility": "Geisinger Wyoming Valley/Henry Cancer Center",
      "status": "RECRUITING",
      "city": "Wilkes-Barre",
      "state": "Pennsylvania",
      "zip": "18711",
      "country": "United States",
      "contacts": [
        {
          "name": "Site Public Contact",
          "role": "CONTACT",
          "phone": "570-271-5251",
          "email": "HemonCCTrials@geisinger.edu"
        },
        { "name": "Heath B. Mackley", "role": "PRINCIPAL_INVESTIGATOR" }
      ],
      "geoPoint": { "lat": 41.24591, "lon": -75.88131 }
    },
    {
      "facility": "Divine Providence Hospital",
      "status": "RECRUITING",
      "city": "Williamsport",
      "state": "Pennsylvania",
      "zip": "17754",
      "country": "United States",
      "contacts": [
        {
          "name": "Site Public Contact",
          "role": "CONTACT",
          "phone": "412-339-5294",
          "email": "Roster@nrgoncology.org"
        },
        { "name": "Adam Olson", "role": "PRINCIPAL_INVESTIGATOR" }
      ],
      "geoPoint": { "lat": 41.24119, "lon": -77.00108 }
    },
    {
      "facility": "Lankenau Medical Center",
      "status": "RECRUITING",
      "city": "Wynnewood",
      "state": "Pennsylvania",
      "zip": "19096",
      "country": "United States",
      "contacts": [
        {
          "name": "Site Public Contact",
          "role": "CONTACT",
          "phone": "484-476-2649",
          "email": "turzoe@mlhs.org"
        },
        { "name": "Deric C. Savior", "role": "PRINCIPAL_INVESTIGATOR" }
      ],
      "geoPoint": { "lat": 40.00289, "lon": -75.27074 }
    },
    {
      "facility": "WellSpan Health-York Cancer Center",
      "status": "RECRUITING",
      "city": "York",
      "state": "Pennsylvania",
      "zip": "17403",
      "country": "United States",
      "contacts": [
        {
          "name": "Site Public Contact",
          "role": "CONTACT",
          "phone": "877-441-7957"
        },
        { "name": "Amit B. Shah", "role": "PRINCIPAL_INVESTIGATOR" }
      ],
      "geoPoint": { "lat": 39.9626, "lon": -76.72774 }
    },
    {
      "facility": "UPMC Memorial",
      "status": "RECRUITING",
      "city": "York",
      "state": "Pennsylvania",
      "zip": "17408",
      "country": "United States",
      "contacts": [
        {
          "name": "Site Public Contact",
          "role": "CONTACT",
          "phone": "717-724-6760"
        },
        { "name": "Adam Olson", "role": "PRINCIPAL_INVESTIGATOR" }
      ],
      "geoPoint": { "lat": 39.9626, "lon": -76.72774 }
    },
    {
      "facility": "Ralph H Johnson VA Medical Center",
      "status": "RECRUITING",
      "city": "Charleston",
      "state": "South Carolina",
      "zip": "29401",
      "country": "United States",
      "contacts": [
        {
          "name": "Site Public Contact",
          "role": "CONTACT",
          "phone": "843-789-7020",
          "email": "ashley.salvo@va.gov"
        },
        { "name": "Stephen J. Savage", "role": "PRINCIPAL_INVESTIGATOR" }
      ],
      "geoPoint": { "lat": 32.77632, "lon": -79.93275 }
    },
    {
      "facility": "Carolina Regional Cancer Center",
      "status": "SUSPENDED",
      "city": "Myrtle Beach",
      "state": "South Carolina",
      "zip": "29577",
      "country": "United States",
      "geoPoint": { "lat": 33.68906, "lon": -78.88669 }
    },
    {
      "facility": "Sanford Cancer Center Oncology Clinic",
      "status": "RECRUITING",
      "city": "Sioux Falls",
      "state": "South Dakota",
      "zip": "57104",
      "country": "United States",
      "contacts": [
        {
          "name": "Site Public Contact",
          "role": "CONTACT",
          "phone": "605-312-3320",
          "email": "OncologyClinicTrialsSF@sanfordhealth.org"
        },
        { "name": "Daniel Almquist", "role": "PRINCIPAL_INVESTIGATOR" }
      ],
      "geoPoint": { "lat": 43.54369, "lon": -96.72796 }
    },
    {
      "facility": "Sanford USD Medical Center - Sioux Falls",
      "status": "RECRUITING",
      "city": "Sioux Falls",
      "state": "South Dakota",
      "zip": "57117-5134",
      "country": "United States",
      "contacts": [
        {
          "name": "Site Public Contact",
          "role": "CONTACT",
          "phone": "605-312-3320",
          "email": "OncologyClinicalTrialsSF@SanfordHealth.org"
        },
        { "name": "Daniel Almquist", "role": "PRINCIPAL_INVESTIGATOR" }
      ],
      "geoPoint": { "lat": 43.54369, "lon": -96.72796 }
    },
    {
      "facility": "Covenant Medical Center-Lakeside",
      "status": "RECRUITING",
      "city": "Lubbock",
      "state": "Texas",
      "zip": "79410",
      "country": "United States",
      "contacts": [
        {
          "name": "Site Public Contact",
          "role": "CONTACT",
          "phone": "806-725-8000",
          "email": "jaccresearch@covhs.org"
        },
        { "name": "Gabriel Axelrud", "role": "PRINCIPAL_INVESTIGATOR" }
      ],
      "geoPoint": { "lat": 33.57786, "lon": -101.85517 }
    },
    {
      "facility": "Central Vermont Medical Center/National Life Cancer Treatment",
      "status": "RECRUITING",
      "city": "Berlin Corners",
      "state": "Vermont",
      "zip": "05602",
      "country": "United States",
      "contacts": [
        {
          "name": "Site Public Contact",
          "role": "CONTACT",
          "phone": "802-225-5400"
        },
        {
          "name": "Nataniel H. Lester-Coll",
          "role": "PRINCIPAL_INVESTIGATOR"
        }
      ],
      "geoPoint": { "lat": 44.21006, "lon": -72.57594 }
    },
    {
      "facility": "University of Vermont Medical Center",
      "status": "RECRUITING",
      "city": "Burlington",
      "state": "Vermont",
      "zip": "05401",
      "country": "United States",
      "contacts": [
        {
          "name": "Site Public Contact",
          "role": "CONTACT",
          "phone": "802-656-4101",
          "email": "rpo@uvm.edu"
        },
        {
          "name": "Nataniel H. Lester-Coll",
          "role": "PRINCIPAL_INVESTIGATOR"
        }
      ],
      "geoPoint": { "lat": 44.47588, "lon": -73.21207 }
    },
    {
      "facility": "Dartmouth Cancer Center - North",
      "status": "RECRUITING",
      "city": "Saint Johnsbury",
      "state": "Vermont",
      "zip": "05819",
      "country": "United States",
      "contacts": [
        {
          "name": "Site Public Contact",
          "role": "CONTACT",
          "phone": "800-639-6918",
          "email": "cancer.research.nurse@hitchcock.org"
        },
        { "name": "Nirav S. Kapadia", "role": "PRINCIPAL_INVESTIGATOR" }
      ],
      "geoPoint": { "lat": 44.41922, "lon": -72.01509 }
    },
    {
      "facility": "Bon Secours Saint Francis Medical Center",
      "status": "RECRUITING",
      "city": "Midlothian",
      "state": "Virginia",
      "zip": "23114",
      "country": "United States",
      "contacts": [
        {
          "name": "Site Public Contact",
          "role": "CONTACT",
          "phone": "804-893-8978",
          "email": "anne_carmellat@bshsi.org"
        },
        { "name": "Joseph D. Pennington", "role": "PRINCIPAL_INVESTIGATOR" }
      ],
      "geoPoint": { "lat": 37.50598, "lon": -77.64916 }
    },
    {
      "facility": "Bon Secours Cancer Institute at Reynolds Crossing",
      "status": "RECRUITING",
      "city": "Richmond",
      "state": "Virginia",
      "zip": "23230",
      "country": "United States",
      "contacts": [
        {
          "name": "Site Public Contact",
          "role": "CONTACT",
          "phone": "804-893-8978",
          "email": "Anne_caramella@bshsi.org"
        },
        { "name": "Joseph D. Pennington", "role": "PRINCIPAL_INVESTIGATOR" }
      ],
      "geoPoint": { "lat": 37.55376, "lon": -77.46026 }
    },
    {
      "facility": "VCU Massey Cancer Center at Stony Point",
      "status": "RECRUITING",
      "city": "Richmond",
      "state": "Virginia",
      "zip": "23235",
      "country": "United States",
      "contacts": [
        {
          "name": "Site Public Contact",
          "role": "CONTACT",
          "email": "ctoclinops@vcu.edu"
        },
        { "name": "Alfredo I. Urdaneta", "role": "PRINCIPAL_INVESTIGATOR" }
      ],
      "geoPoint": { "lat": 37.55376, "lon": -77.46026 }
    },
    {
      "facility": "VCU Massey Comprehensive Cancer Center",
      "status": "RECRUITING",
      "city": "Richmond",
      "state": "Virginia",
      "zip": "23298",
      "country": "United States",
      "contacts": [
        {
          "name": "Site Public Contact",
          "role": "CONTACT",
          "phone": "804-628-6430",
          "email": "CTOclinops@vcu.edu"
        },
        { "name": "Alfredo I. Urdaneta", "role": "PRINCIPAL_INVESTIGATOR" }
      ],
      "geoPoint": { "lat": 37.55376, "lon": -77.46026 }
    },
    {
      "facility": "VCU Community Memorial Health Center",
      "status": "RECRUITING",
      "city": "South Hill",
      "state": "Virginia",
      "zip": "23970",
      "country": "United States",
      "contacts": [
        {
          "name": "Site Public Contact",
          "role": "CONTACT",
          "email": "nemer.elmouallem@vcuhealth.org"
        },
        { "name": "Alfredo I. Urdaneta", "role": "PRINCIPAL_INVESTIGATOR" }
      ],
      "geoPoint": { "lat": 36.72653, "lon": -78.12889 }
    },
    {
      "facility": "FHCC at EvergreenHealth",
      "status": "RECRUITING",
      "city": "Kirkland",
      "state": "Washington",
      "zip": "98034",
      "country": "United States",
      "contacts": [
        {
          "name": "Site Public Contact",
          "role": "CONTACT",
          "phone": "425-899-6000"
        },
        { "name": "Prakash Varadarajan", "role": "PRINCIPAL_INVESTIGATOR" }
      ],
      "geoPoint": { "lat": 47.68149, "lon": -122.20874 }
    },
    {
      "facility": "Fred Hutchinson Cancer Center",
      "status": "RECRUITING",
      "city": "Seattle",
      "state": "Washington",
      "zip": "98109",
      "country": "United States",
      "contacts": [
        {
          "name": "Site Public Contact",
          "role": "CONTACT",
          "phone": "800-804-8824"
        },
        { "name": "Martin Ma", "role": "PRINCIPAL_INVESTIGATOR" }
      ],
      "geoPoint": { "lat": 47.60621, "lon": -122.33207 }
    },
    {
      "facility": "FHCC at Northwest Hospital",
      "status": "RECRUITING",
      "city": "Seattle",
      "state": "Washington",
      "zip": "98133",
      "country": "United States",
      "contacts": [
        {
          "name": "Site Public Contact",
          "role": "CONTACT",
          "phone": "206-606-5800"
        },
        { "name": "Jonathan J. Chen", "role": "PRINCIPAL_INVESTIGATOR" }
      ],
      "geoPoint": { "lat": 47.60621, "lon": -122.33207 }
    },
    {
      "facility": "University of Washington Medical Center - Montlake",
      "status": "RECRUITING",
      "city": "Seattle",
      "state": "Washington",
      "zip": "98195",
      "country": "United States",
      "contacts": [
        {
          "name": "Site Public Contact",
          "role": "CONTACT",
          "phone": "800-804-8824"
        },
        { "name": "Martin Ma", "role": "PRINCIPAL_INVESTIGATOR" }
      ],
      "geoPoint": { "lat": 47.60621, "lon": -122.33207 }
    },
    {
      "facility": "Edwards Comprehensive Cancer Center",
      "status": "RECRUITING",
      "city": "Huntington",
      "state": "West Virginia",
      "zip": "25701",
      "country": "United States",
      "contacts": [
        {
          "name": "Site Public Contact",
          "role": "CONTACT",
          "phone": "304-399-6566",
          "email": "Christina.Cole@chhi.org"
        },
        { "name": "Toni O. Pacioles", "role": "PRINCIPAL_INVESTIGATOR" }
      ],
      "geoPoint": { "lat": 38.41925, "lon": -82.44515 }
    },
    {
      "facility": "Langlade Hospital and Cancer Center",
      "status": "RECRUITING",
      "city": "Antigo",
      "state": "Wisconsin",
      "zip": "54409",
      "country": "United States",
      "contacts": [
        {
          "name": "Site Public Contact",
          "role": "CONTACT",
          "phone": "715-623-9869",
          "email": "Juli.Alford@aspirus.org"
        },
        { "name": "Andrew J. Huang", "role": "PRINCIPAL_INVESTIGATOR" }
      ],
      "geoPoint": { "lat": 45.14025, "lon": -89.15234 }
    },
    {
      "facility": "Marshfield Medical Center-EC Cancer Center",
      "status": "RECRUITING",
      "city": "Eau Claire",
      "state": "Wisconsin",
      "zip": "54701",
      "country": "United States",
      "contacts": [
        {
          "name": "Site Public Contact",
          "role": "CONTACT",
          "phone": "800-782-8581",
          "email": "oncology.clinical.trials@marshfieldresearch.org"
        },
        { "name": "David F. Lee", "role": "PRINCIPAL_INVESTIGATOR" }
      ],
      "geoPoint": { "lat": 44.81135, "lon": -91.49849 }
    },
    {
      "facility": "Aurora Cancer Care-Grafton",
      "status": "RECRUITING",
      "city": "Grafton",
      "state": "Wisconsin",
      "zip": "53024",
      "country": "United States",
      "contacts": [
        {
          "name": "Site Public Contact",
          "role": "CONTACT",
          "phone": "414-302-2304",
          "email": "ncorp@aurora.org"
        },
        { "name": "Adam P. Siegel", "role": "PRINCIPAL_INVESTIGATOR" }
      ],
      "geoPoint": { "lat": 43.31973, "lon": -87.95342 }
    },
    {
      "facility": "Aurora BayCare Medical Center",
      "status": "RECRUITING",
      "city": "Green Bay",
      "state": "Wisconsin",
      "zip": "54311",
      "country": "United States",
      "contacts": [
        {
          "name": "Site Public Contact",
          "role": "CONTACT",
          "phone": "414-302-2304",
          "email": "ncorp@aurora.org"
        },
        { "name": "Adam P. Siegel", "role": "PRINCIPAL_INVESTIGATOR" }
      ],
      "geoPoint": { "lat": 44.51916, "lon": -88.01983 }
    },
    {
      "facility": "Aurora Bay Area Medical Group-Marinette",
      "status": "RECRUITING",
      "city": "Marinette",
      "state": "Wisconsin",
      "zip": "54143",
      "country": "United States",
      "contacts": [
        {
          "name": "Site Public Contact",
          "role": "CONTACT",
          "phone": "414-302-2304",
          "email": "ncorp@aurora.org"
        },
        { "name": "Adam P. Siegel", "role": "PRINCIPAL_INVESTIGATOR" }
      ],
      "geoPoint": { "lat": 45.09998, "lon": -87.63066 }
    },
    {
      "facility": "Marshfield Medical Center-Marshfield",
      "status": "RECRUITING",
      "city": "Marshfield",
      "state": "Wisconsin",
      "zip": "54449",
      "country": "United States",
      "contacts": [
        {
          "name": "Site Public Contact",
          "role": "CONTACT",
          "phone": "800-782-8581",
          "email": "oncology.clinical.trials@marshfieldresearch.org"
        },
        { "name": "David F. Lee", "role": "PRINCIPAL_INVESTIGATOR" }
      ],
      "geoPoint": { "lat": 44.66885, "lon": -90.1718 }
    },
    {
      "facility": "Froedtert Menomonee Falls Hospital",
      "status": "RECRUITING",
      "city": "Menomonee Falls",
      "state": "Wisconsin",
      "zip": "53051",
      "country": "United States",
      "contacts": [
        {
          "name": "Site Public Contact",
          "role": "CONTACT",
          "phone": "262-257-5100"
        },
        { "name": "William A. Hall", "role": "PRINCIPAL_INVESTIGATOR" }
      ],
      "geoPoint": { "lat": 43.1789, "lon": -88.11731 }
    },
    {
      "facility": "Aurora Saint Luke's Medical Center",
      "status": "RECRUITING",
      "city": "Milwaukee",
      "state": "Wisconsin",
      "zip": "53215",
      "country": "United States",
      "contacts": [
        {
          "name": "Site Public Contact",
          "role": "CONTACT",
          "phone": "414-302-2304",
          "email": "ncorp@aurora.org"
        },
        { "name": "Adam P. Siegel", "role": "PRINCIPAL_INVESTIGATOR" }
      ],
      "geoPoint": { "lat": 43.0389, "lon": -87.90647 }
    },
    {
      "facility": "Medical College of Wisconsin",
      "status": "RECRUITING",
      "city": "Milwaukee",
      "state": "Wisconsin",
      "zip": "53226",
      "country": "United States",
      "contacts": [
        {
          "name": "Site Public Contact",
          "role": "CONTACT",
          "phone": "414-805-3666"
        },
        { "name": "William A. Hall", "role": "PRINCIPAL_INVESTIGATOR" }
      ],
      "geoPoint": { "lat": 43.0389, "lon": -87.90647 }
    },
    {
      "facility": "Aurora Sinai Medical Center",
      "status": "RECRUITING",
      "city": "Milwaukee",
      "state": "Wisconsin",
      "zip": "53233",
      "country": "United States",
      "contacts": [
        {
          "name": "Site Public Contact",
          "role": "CONTACT",
          "phone": "414-302-2304",
          "email": "ncorp@aurora.org"
        },
        { "name": "Adam P. Siegel", "role": "PRINCIPAL_INVESTIGATOR" }
      ],
      "geoPoint": { "lat": 43.0389, "lon": -87.90647 }
    },
    {
      "facility": "Marshfield Medical Center - Minocqua",
      "status": "RECRUITING",
      "city": "Minocqua",
      "state": "Wisconsin",
      "zip": "54548",
      "country": "United States",
      "contacts": [
        {
          "name": "Site Public Contact",
          "role": "CONTACT",
          "phone": "800-782-8581",
          "email": "oncology.clinical.trials@marshfieldresearch.org"
        },
        { "name": "David F. Lee", "role": "PRINCIPAL_INVESTIGATOR" }
      ],
      "geoPoint": { "lat": 45.87134, "lon": -89.71098 }
    },
    {
      "facility": "ProHealth D N Greenwald Center",
      "status": "RECRUITING",
      "city": "Mukwonago",
      "state": "Wisconsin",
      "zip": "53149",
      "country": "United States",
      "contacts": [
        {
          "name": "Site Public Contact",
          "role": "CONTACT",
          "email": "research.institute@phci.org"
        },
        { "name": "Timothy R. Wassenaar", "role": "PRINCIPAL_INVESTIGATOR" }
      ],
      "geoPoint": { "lat": 42.86668, "lon": -88.33343 }
    },
    {
      "facility": "Cancer Center of Western Wisconsin",
      "status": "RECRUITING",
      "city": "New Richmond",
      "state": "Wisconsin",
      "zip": "54017",
      "country": "United States",
      "contacts": [
        {
          "name": "Site Public Contact",
          "role": "CONTACT",
          "phone": "952-993-1517",
          "email": "mmcorc@healthpartners.com"
        },
        { "name": "Charles Shideman", "role": "PRINCIPAL_INVESTIGATOR" }
      ],
      "geoPoint": { "lat": 45.12302, "lon": -92.53659 }
    },
    {
      "facility": "Drexel Town Square Health Center",
      "status": "RECRUITING",
      "city": "Oak Creek",
      "state": "Wisconsin",
      "zip": "53154",
      "country": "United States",
      "contacts": [
        {
          "name": "Site Public Contact",
          "role": "CONTACT",
          "phone": "414-805-0505"
        },
        { "name": "William A. Hall", "role": "PRINCIPAL_INVESTIGATOR" }
      ],
      "geoPoint": { "lat": 42.88585, "lon": -87.86314 }
    },
    {
      "facility": "ProHealth Oconomowoc Memorial Hospital",
      "status": "RECRUITING",
      "city": "Oconomowoc",
      "state": "Wisconsin",
      "zip": "53066",
      "country": "United States",
      "contacts": [
        {
          "name": "Site Public Contact",
          "role": "CONTACT",
          "phone": "262-928-7878"
        },
        { "name": "Timothy R. Wassenaar", "role": "PRINCIPAL_INVESTIGATOR" }
      ],
      "geoPoint": { "lat": 43.11167, "lon": -88.49927 }
    },
    {
      "facility": "Vince Lombardi Cancer Clinic - Oshkosh",
      "status": "RECRUITING",
      "city": "Oshkosh",
      "state": "Wisconsin",
      "zip": "54904",
      "country": "United States",
      "contacts": [
        {
          "name": "Site Public Contact",
          "role": "CONTACT",
          "phone": "414-302-2304",
          "email": "ncorp@aurora.org"
        },
        { "name": "Adam P. Siegel", "role": "PRINCIPAL_INVESTIGATOR" }
      ],
      "geoPoint": { "lat": 44.02471, "lon": -88.54261 }
    },
    {
      "facility": "Aspirus Cancer Care - James Beck Cancer Center",
      "status": "RECRUITING",
      "city": "Rhinelander",
      "state": "Wisconsin",
      "zip": "54501",
      "country": "United States",
      "contacts": [
        {
          "name": "Site Public Contact",
          "role": "CONTACT",
          "phone": "715-847-2353",
          "email": "Beth.Knetter@aspirus.org"
        },
        { "name": "Andrew J. Huang", "role": "PRINCIPAL_INVESTIGATOR" }
      ],
      "geoPoint": { "lat": 45.63662, "lon": -89.41208 }
    },
    {
      "facility": "Marshfield Medical Center-Rice Lake",
      "status": "RECRUITING",
      "city": "Rice Lake",
      "state": "Wisconsin",
      "zip": "54868",
      "country": "United States",
      "contacts": [
        {
          "name": "Site Public Contact",
          "role": "CONTACT",
          "phone": "800-782-8581",
          "email": "oncology.clinical.trials@marshfieldresearch.org"
        },
        { "name": "David F. Lee", "role": "PRINCIPAL_INVESTIGATOR" }
      ],
      "geoPoint": { "lat": 45.50607, "lon": -91.73823 }
    },
    {
      "facility": "Vince Lombardi Cancer Clinic-Sheboygan",
      "status": "RECRUITING",
      "city": "Sheboygan",
      "state": "Wisconsin",
      "zip": "53081",
      "country": "United States",
      "contacts": [
        {
          "name": "Site Public Contact",
          "role": "CONTACT",
          "phone": "414-302-2304",
          "email": "ncorp@aurora.org"
        },
        { "name": "Adam P. Siegel", "role": "PRINCIPAL_INVESTIGATOR" }
      ],
      "geoPoint": { "lat": 43.75083, "lon": -87.71453 }
    },
    {
      "facility": "Aspirus Cancer Care - Stevens Point",
      "status": "RECRUITING",
      "city": "Stevens Point",
      "state": "Wisconsin",
      "zip": "54481",
      "country": "United States",
      "contacts": [
        {
          "name": "Site Public Contact",
          "role": "CONTACT",
          "phone": "715-847-2353",
          "email": "Beth.Knetter@aspirus.org"
        },
        { "name": "Andrew J. Huang", "role": "PRINCIPAL_INVESTIGATOR" }
      ],
      "geoPoint": { "lat": 44.52358, "lon": -89.57456 }
    },
    {
      "facility": "Marshfield Medical Center-River Region at Stevens Point",
      "status": "RECRUITING",
      "city": "Stevens Point",
      "state": "Wisconsin",
      "zip": "54482",
      "country": "United States",
      "contacts": [
        {
          "name": "Site Public Contact",
          "role": "CONTACT",
          "phone": "800-782-8581",
          "email": "oncology.clinical.trials@marshfieldresearch.org"
        },
        { "name": "David F. Lee", "role": "PRINCIPAL_INVESTIGATOR" }
      ],
      "geoPoint": { "lat": 44.52358, "lon": -89.57456 }
    },
    {
      "facility": "Aurora Medical Center in Summit",
      "status": "RECRUITING",
      "city": "Summit",
      "state": "Wisconsin",
      "zip": "53066",
      "country": "United States",
      "contacts": [
        {
          "name": "Site Public Contact",
          "role": "CONTACT",
          "phone": "414-302-2304",
          "email": "ncorp@aurora.org"
        },
        { "name": "Adam P. Siegel", "role": "PRINCIPAL_INVESTIGATOR" }
      ]
    },
    {
      "facility": "UW Cancer Center at ProHealth Care",
      "status": "RECRUITING",
      "city": "Waukesha",
      "state": "Wisconsin",
      "zip": "53188",
      "country": "United States",
      "contacts": [
        {
          "name": "Site Public Contact",
          "role": "CONTACT",
          "phone": "262-928-5539",
          "email": "Chanda.miller@phci.org"
        },
        { "name": "Timothy R. Wassenaar", "role": "PRINCIPAL_INVESTIGATOR" }
      ],
      "geoPoint": { "lat": 43.01168, "lon": -88.23148 }
    },
    {
      "facility": "Aspirus Regional Cancer Center",
      "status": "RECRUITING",
      "city": "Wausau",
      "state": "Wisconsin",
      "zip": "54401",
      "country": "United States",
      "contacts": [
        {
          "name": "Site Public Contact",
          "role": "CONTACT",
          "phone": "877-405-6866"
        },
        { "name": "Andrew J. Huang", "role": "PRINCIPAL_INVESTIGATOR" }
      ],
      "geoPoint": { "lat": 44.95914, "lon": -89.63012 }
    },
    {
      "facility": "Aurora Cancer Care-Milwaukee West",
      "status": "RECRUITING",
      "city": "Wauwatosa",
      "state": "Wisconsin",
      "zip": "53226",
      "country": "United States",
      "contacts": [
        {
          "name": "Site Public Contact",
          "role": "CONTACT",
          "phone": "414-302-2304",
          "email": "ncorp@aurora.org"
        },
        { "name": "Adam P. Siegel", "role": "PRINCIPAL_INVESTIGATOR" }
      ],
      "geoPoint": { "lat": 43.04946, "lon": -88.00759 }
    },
    {
      "facility": "Aurora West Allis Medical Center",
      "status": "RECRUITING",
      "city": "West Allis",
      "state": "Wisconsin",
      "zip": "53227",
      "country": "United States",
      "contacts": [
        {
          "name": "Site Public Contact",
          "role": "CONTACT",
          "phone": "414-302-2304",
          "email": "ncorp@aurora.org"
        },
        { "name": "Adam P. Siegel", "role": "PRINCIPAL_INVESTIGATOR" }
      ],
      "geoPoint": { "lat": 43.01668, "lon": -88.00703 }
    },
    {
      "facility": "Froedtert West Bend Hospital/Kraemer Cancer Center",
      "status": "RECRUITING",
      "city": "West Bend",
      "state": "Wisconsin",
      "zip": "53095",
      "country": "United States",
      "contacts": [
        {
          "name": "Site Public Contact",
          "role": "CONTACT",
          "phone": "414-805-0505"
        },
        { "name": "William A. Hall", "role": "PRINCIPAL_INVESTIGATOR" }
      ],
      "geoPoint": { "lat": 43.42528, "lon": -88.18343 }
    },
    {
      "facility": "Marshfield Medical Center - Weston",
      "status": "RECRUITING",
      "city": "Weston",
      "state": "Wisconsin",
      "zip": "54476",
      "country": "United States",
      "contacts": [
        {
          "name": "Site Public Contact",
          "role": "CONTACT",
          "phone": "800-782-8581",
          "email": "oncology.clinical.trials@marshfieldresearch.org"
        },
        { "name": "David F. Lee", "role": "PRINCIPAL_INVESTIGATOR" }
      ],
      "geoPoint": { "lat": 44.8908, "lon": -89.54762 }
    },
    {
      "facility": "Aspirus Cancer Care - Wisconsin Rapids",
      "status": "RECRUITING",
      "city": "Wisconsin Rapids",
      "state": "Wisconsin",
      "zip": "54494",
      "country": "United States",
      "contacts": [
        {
          "name": "Site Public Contact",
          "role": "CONTACT",
          "phone": "715-422-7718"
        },
        { "name": "Andrew J. Huang", "role": "PRINCIPAL_INVESTIGATOR" }
      ],
      "geoPoint": { "lat": 44.38358, "lon": -89.81735 }
    },
    {
      "facility": "University Health Network-Princess Margaret Hospital",
      "status": "RECRUITING",
      "city": "Toronto",
      "state": "Ontario",
      "zip": "M5G 2M9",
      "country": "Canada",
      "contacts": [
        {
          "name": "Site Public Contact",
          "role": "CONTACT",
          "phone": "416-946-4501",
          "email": "clinical.trials@uhn.on.ca"
        },
        { "name": "Alejandro Berlin", "role": "PRINCIPAL_INVESTIGATOR" }
      ],
      "geoPoint": { "lat": 43.70643, "lon": -79.39864 }
    },
    {
      "facility": "CHUM - Centre Hospitalier de l'Universite de Montreal",
      "status": "RECRUITING",
      "city": "Montreal",
      "state": "Quebec",
      "zip": "H2X 3E4",
      "country": "Canada",
      "contacts": [
        {
          "name": "Site Public Contact",
          "role": "CONTACT",
          "phone": "514-890-8000",
          "phoneExt": "12725",
          "email": "info.cr.chum@ssss.gouv.qc.ca"
        },
        { "name": "Maroie Barkati", "role": "PRINCIPAL_INVESTIGATOR" }
      ],
      "geoPoint": { "lat": 45.50884, "lon": -73.58781 }
    },
    {
      "facility": "CHU de Quebec-L'Hotel-Dieu de Quebec (HDQ)",
      "status": "RECRUITING",
      "city": "Qubec",
      "state": "Quebec",
      "zip": "G1R 2J6",
      "country": "Canada",
      "contacts": [
        {
          "name": "Site Public Contact",
          "role": "CONTACT",
          "email": "rechclinique@crchuq.ulaval.ca"
        },
        { "name": "Andre-Guy Martin", "role": "PRINCIPAL_INVESTIGATOR" }
      ],
      "geoPoint": { "lat": 46.81228, "lon": -71.21454 }
    }
  ],
  "key_inclusion_summary": [
    "Pathologically proven diagnosis of prostate adenocarcinoma.",
    "Must have 1-5 oligometastatic lesions identified on a PET scan.",
    "Must have had prior curative-intent treatment to the prostate (either surgery or radiation).",
    "Eastern Cooperative Oncology Group (ECOG) performance status of 0-2.",
    "Serum testosterone level of 100 ng/dL or higher."
  ],
  "key_exclusion_summary": [
    "Currently receiving androgen deprivation or anti-androgen therapy.",
    "Presence of spinal cord compression, brain, or visceral metastases (lung metastases are allowed).",
    "Prior chemotherapy for prostate cancer or a previous bilateral orchiectomy.",
    "Prior high-dose radiotherapy to a lesion that has now recurred.",
    "Recurrence only in the intrapelvic lymph nodes."
  ]
}
