{
    "nct_id": "NCT04804644",
    "official_title": "Phase III Trial of Stereotactic Radiosurgery (SRS) Versus Hippocampal-Avoidant Whole Brain Radiotherapy (HA-WBRT) for Brain Metastases From Small Cell Lung Cancer",
    "brief_title": "Testing if High Dose Radiation Only to the Sites of Brain Cancer Compared to Whole Brain Radiation That Avoids the Hippocampus is Better at Preventing Loss of Memory and Thinking Ability",
    "cancer_type_display": "A study for patients with small cell lung cancer that has spread to the brain.",
    "cancer_tags": [
      "Metastatic Lung Small Cell Carcinoma",
      "Metastatic Malignant Neoplasm in the Brain",
      "Recurrent Lung Small Cell Carcinoma",
      "Stage IV Lung Cancer AJCC v8"
    ],
    "link_to_trial": "https://clinicaltrials.gov/study/NCT04804644",
    "phase": "Phase 3",
    "recruitment_status": "RECRUITING",
    "last_update_date": "2025-09-11",
    "enrollment": 200,
    "min_age": 18,
    "max_age": null,
    "sex": "ALL",
    "is_metastatic_allowed": true,
    "performance_status_scale": "Karnofsky",
    "performance_status_values": null,
    "min_prior_lines": null,
    "max_prior_lines": null,
    "prior_treatments_required": null,
    "prior_treatments_excluded": [
      "Prior radiotherapy to the brain, including SRS, WBRT, or prophylactic cranial irradiation (PCI)",
      "Planned infusion of cytotoxic chemotherapy on the same day as SRS or HA-WBRT treatment",
      "Current use of other N-methyl-D-aspartate (NMDA) antagonists (amantadine, ketamine, or dextromethorphan)"
    ],
    "principal_investigator": "Vinai Gondi",
    "site_name": "Mayo Clinic Hospital in Arizona",
    "contact_email": null,
    "contact_phone": null,
    "locations": [
      {
        "facility": "Mayo Clinic Hospital in Arizona",
        "status": "ACTIVE_NOT_RECRUITING",
        "city": "Phoenix",
        "state": "Arizona",
        "zip": "85054",
        "country": "United States",
        "geoPoint": {
          "lat": 33.44838,
          "lon": -112.07404
        }
      },
      {
        "facility": "Kaiser Permanente-Anaheim",
        "status": "RECRUITING",
        "city": "Anaheim",
        "state": "California",
        "zip": "92806",
        "country": "United States",
        "contacts": [
          {
            "name": "Site Public Contact",
            "role": "CONTACT",
            "phone": "800-398-3996",
            "email": "clinical.trials@kp.org"
          },
          {
            "name": "Aakash Batra",
            "role": "PRINCIPAL_INVESTIGATOR"
          }
        ],
        "geoPoint": {
          "lat": 33.83529,
          "lon": -117.9145
        }
      },
      {
        "facility": "Kaiser Permanente-Bellflower",
        "status": "RECRUITING",
        "city": "Bellflower",
        "state": "California",
        "zip": "90706",
        "country": "United States",
        "contacts": [
          {
            "name": "Site Public Contact",
            "role": "CONTACT",
            "phone": "800-398-3996",
            "email": "clinical.trials@kp.org"
          },
          {
            "name": "Aakash Batra",
            "role": "PRINCIPAL_INVESTIGATOR"
          }
        ],
        "geoPoint": {
          "lat": 33.88168,
          "lon": -118.11701
        }
      },
      {
        "facility": "Kaiser Permanente Los Angeles Medical Center",
        "status": "RECRUITING",
        "city": "Los Angeles",
        "state": "California",
        "zip": "90027",
        "country": "United States",
        "contacts": [
          {
            "name": "Site Public Contact",
            "role": "CONTACT",
            "phone": "800-398-3996",
            "email": "clinical.trials@kp.org"
          },
          {
            "name": "Aakash Batra",
            "role": "PRINCIPAL_INVESTIGATOR"
          }
        ],
        "geoPoint": {
          "lat": 34.05223,
          "lon": -118.24368
        }
      },
      {
        "facility": "Los Angeles General Medical Center",
        "status": "RECRUITING",
        "city": "Los Angeles",
        "state": "California",
        "zip": "90033",
        "country": "United States",
        "contacts": [
          {
            "name": "Site Public Contact",
            "role": "CONTACT",
            "phone": "323-865-0451",
            "email": "uscnorrisinfo@med.usc.edu"
          },
          {
            "name": "Jason C. Ye",
            "role": "PRINCIPAL_INVESTIGATOR"
          }
        ],
        "geoPoint": {
          "lat": 34.05223,
          "lon": -118.24368
        }
      },
      {
        "facility": "USC / Norris Comprehensive Cancer Center",
        "status": "RECRUITING",
        "city": "Los Angeles",
        "state": "California",
        "zip": "90033",
        "country": "United States",
        "contacts": [
          {
            "name": "Site Public Contact",
            "role": "CONTACT",
            "phone": "323-865-0451"
          },
          {
            "name": "Jason C. Ye",
            "role": "PRINCIPAL_INVESTIGATOR"
          }
        ],
        "geoPoint": {
          "lat": 34.05223,
          "lon": -118.24368
        }
      },
      {
        "facility": "Kaiser Permanente-Ontario",
        "status": "RECRUITING",
        "city": "Ontario",
        "state": "California",
        "zip": "91761",
        "country": "United States",
        "contacts": [
          {
            "name": "Site Public Contact",
            "role": "CONTACT",
            "phone": "800-398-3996",
            "email": "clinical.trials@kp.org"
          },
          {
            "name": "Aakash Batra",
            "role": "PRINCIPAL_INVESTIGATOR"
          }
        ],
        "geoPoint": {
          "lat": 34.06334,
          "lon": -117.65089
        }
      },
      {
        "facility": "UCHealth University of Colorado Hospital",
        "status": "ACTIVE_NOT_RECRUITING",
        "city": "Aurora",
        "state": "Colorado",
        "zip": "80045",
        "country": "United States",
        "geoPoint": {
          "lat": 39.72943,
          "lon": -104.83192
        }
      },
      {
        "facility": "UCHealth Memorial Hospital Central",
        "status": "ACTIVE_NOT_RECRUITING",
        "city": "Colorado Springs",
        "state": "Colorado",
        "zip": "80909",
        "country": "United States",
        "geoPoint": {
          "lat": 38.83388,
          "lon": -104.82136
        }
      },
      {
        "facility": "Memorial Hospital North",
        "status": "ACTIVE_NOT_RECRUITING",
        "city": "Colorado Springs",
        "state": "Colorado",
        "zip": "80920",
        "country": "United States",
        "geoPoint": {
          "lat": 38.83388,
          "lon": -104.82136
        }
      },
      {
        "facility": "Smilow Cancer Hospital Care Center at Greenwich",
        "status": "TERMINATED",
        "city": "Greenwich",
        "state": "Connecticut",
        "zip": "06830",
        "country": "United States",
        "geoPoint": {
          "lat": 41.02649,
          "lon": -73.62846
        }
      },
      {
        "facility": "Smilow Cancer Hospital Care Center - Guilford",
        "status": "TERMINATED",
        "city": "Guilford",
        "state": "Connecticut",
        "zip": "06437",
        "country": "United States",
        "geoPoint": {
          "lat": 41.28899,
          "lon": -72.68176
        }
      },
      {
        "facility": "Smilow Cancer Center/Yale-New Haven Hospital",
        "status": "TERMINATED",
        "city": "New Haven",
        "state": "Connecticut",
        "zip": "06510",
        "country": "United States",
        "geoPoint": {
          "lat": 41.30815,
          "lon": -72.92816
        }
      },
      {
        "facility": "Yale University",
        "status": "TERMINATED",
        "city": "New Haven",
        "state": "Connecticut",
        "zip": "06520",
        "country": "United States",
        "geoPoint": {
          "lat": 41.30815,
          "lon": -72.92816
        }
      },
      {
        "facility": "Smilow Cancer Hospital Care Center-Trumbull",
        "status": "TERMINATED",
        "city": "Trumbull",
        "state": "Connecticut",
        "zip": "06611",
        "country": "United States",
        "geoPoint": {
          "lat": 41.24287,
          "lon": -73.20067
        }
      },
      {
        "facility": "Smilow Cancer Hospital Care Center - Waterford",
        "status": "TERMINATED",
        "city": "Waterford",
        "state": "Connecticut",
        "zip": "06385",
        "country": "United States",
        "geoPoint": {
          "lat": 41.3417,
          "lon": -72.13597
        }
      },
      {
        "facility": "Beebe Medical Center",
        "status": "RECRUITING",
        "city": "Lewes",
        "state": "Delaware",
        "zip": "19958",
        "country": "United States",
        "contacts": [
          {
            "name": "Site Public Contact",
            "role": "CONTACT",
            "phone": "302-291-6730",
            "email": "research@beebehealthcare.org"
          },
          {
            "name": "Gregory A. Masters",
            "role": "PRINCIPAL_INVESTIGATOR"
          }
        ],
        "geoPoint": {
          "lat": 38.77456,
          "lon": -75.13935
        }
      },
      {
        "facility": "Delaware Clinical and Laboratory Physicians PA",
        "status": "SUSPENDED",
        "city": "Newark",
        "state": "Delaware",
        "zip": "19713",
        "country": "United States",
        "geoPoint": {
          "lat": 39.68372,
          "lon": -75.74966
        }
      },
      {
        "facility": "Helen F Graham Cancer Center",
        "status": "RECRUITING",
        "city": "Newark",
        "state": "Delaware",
        "zip": "19713",
        "country": "United States",
        "contacts": [
          {
            "name": "Site Public Contact",
            "role": "CONTACT",
            "phone": "302-623-4450",
            "email": "lbarone@christianacare.org"
          },
          {
            "name": "Gregory A. Masters",
            "role": "PRINCIPAL_INVESTIGATOR"
          }
        ],
        "geoPoint": {
          "lat": 39.68372,
          "lon": -75.74966
        }
      },
      {
        "facility": "Medical Oncology Hematology Consultants PA",
        "status": "RECRUITING",
        "city": "Newark",
        "state": "Delaware",
        "zip": "19713",
        "country": "United States",
        "contacts": [
          {
            "name": "Site Public Contact",
            "role": "CONTACT",
            "phone": "302-623-4450",
            "email": "lbarone@christianacare.org"
          },
          {
            "name": "Gregory A. Masters",
            "role": "PRINCIPAL_INVESTIGATOR"
          }
        ],
        "geoPoint": {
          "lat": 39.68372,
          "lon": -75.74966
        }
      },
      {
        "facility": "Christiana Care Health System-Christiana Hospital",
        "status": "RECRUITING",
        "city": "Newark",
        "state": "Delaware",
        "zip": "19718",
        "country": "United States",
        "contacts": [
          {
            "name": "Site Public Contact",
            "role": "CONTACT",
            "phone": "302-623-4450",
            "email": "lbarone@christianacare.org"
          },
          {
            "name": "Gregory A. Masters",
            "role": "PRINCIPAL_INVESTIGATOR"
          }
        ],
        "geoPoint": {
          "lat": 39.68372,
          "lon": -75.74966
        }
      },
      {
        "facility": "Beebe Health Campus",
        "status": "RECRUITING",
        "city": "Rehoboth Beach",
        "state": "Delaware",
        "zip": "19971",
        "country": "United States",
        "contacts": [
          {
            "name": "Site Public Contact",
            "role": "CONTACT",
            "phone": "302-291-6730",
            "email": "research@beebehealthcare.org"
          },
          {
            "name": "Gregory A. Masters",
            "role": "PRINCIPAL_INVESTIGATOR"
          }
        ],
        "geoPoint": {
          "lat": 38.72095,
          "lon": -75.07601
        }
      },
      {
        "facility": "Christiana Care Health System-Wilmington Hospital",
        "status": "RECRUITING",
        "city": "Wilmington",
        "state": "Delaware",
        "zip": "19801",
        "country": "United States",
        "contacts": [
          {
            "name": "Site Public Contact",
            "role": "CONTACT",
            "phone": "302-623-4450",
            "email": "lbarone@christianacare.org"
          },
          {
            "name": "Gregory A. Masters",
            "role": "PRINCIPAL_INVESTIGATOR"
          }
        ],
        "geoPoint": {
          "lat": 39.74595,
          "lon": -75.54659
        }
      },
      {
        "facility": "UM Sylvester Comprehensive Cancer Center at Coral Gables",
        "status": "ACTIVE_NOT_RECRUITING",
        "city": "Coral Gables",
        "state": "Florida",
        "zip": "33146",
        "country": "United States",
        "geoPoint": {
          "lat": 25.72149,
          "lon": -80.26838
        }
      },
      {
        "facility": "UM Sylvester Comprehensive Cancer Center at Deerfield Beach",
        "status": "ACTIVE_NOT_RECRUITING",
        "city": "Deerfield Beach",
        "state": "Florida",
        "zip": "33442",
        "country": "United States",
        "geoPoint": {
          "lat": 26.31841,
          "lon": -80.09977
        }
      },
      {
        "facility": "University of Florida Health Science Center - Gainesville",
        "status": "ACTIVE_NOT_RECRUITING",
        "city": "Gainesville",
        "state": "Florida",
        "zip": "32610",
        "country": "United States",
        "geoPoint": {
          "lat": 29.65163,
          "lon": -82.32483
        }
      },
      {
        "facility": "University of Miami Miller School of Medicine-Sylvester Cancer Center",
        "status": "ACTIVE_NOT_RECRUITING",
        "city": "Miami",
        "state": "Florida",
        "zip": "33136",
        "country": "United States",
        "geoPoint": {
          "lat": 25.77427,
          "lon": -80.19366
        }
      },
      {
        "facility": "Moffitt Cancer Center-International Plaza",
        "status": "RECRUITING",
        "city": "Tampa",
        "state": "Florida",
        "zip": "33607",
        "country": "United States",
        "contacts": [
          {
            "name": "Site Public Contact",
            "role": "CONTACT",
            "phone": "800-679-0775",
            "email": "ClinicalTrials@moffitt.org"
          },
          {
            "name": "Hsiang-Hsuan M. Yu",
            "role": "PRINCIPAL_INVESTIGATOR"
          }
        ],
        "geoPoint": {
          "lat": 27.94752,
          "lon": -82.45843
        }
      },
      {
        "facility": "Moffitt Cancer Center - McKinley Campus",
        "status": "RECRUITING",
        "city": "Tampa",
        "state": "Florida",
        "zip": "33612",
        "country": "United States",
        "contacts": [
          {
            "name": "Site Public Contact",
            "role": "CONTACT",
            "phone": "800-679-0775",
            "email": "ClinicalTrials@moffitt.org"
          },
          {
            "name": "Hsiang-Hsuan M. Yu",
            "role": "PRINCIPAL_INVESTIGATOR"
          }
        ],
        "geoPoint": {
          "lat": 27.94752,
          "lon": -82.45843
        }
      },
      {
        "facility": "Moffitt Cancer Center",
        "status": "RECRUITING",
        "city": "Tampa",
        "state": "Florida",
        "zip": "33612",
        "country": "United States",
        "contacts": [
          {
            "name": "Site Public Contact",
            "role": "CONTACT",
            "phone": "800-679-0775",
            "email": "ClinicalTrials@moffitt.org"
          },
          {
            "name": "Hsiang-Hsuan M. Yu",
            "role": "PRINCIPAL_INVESTIGATOR"
          }
        ],
        "geoPoint": {
          "lat": 27.94752,
          "lon": -82.45843
        }
      },
      {
        "facility": "Moffitt Cancer Center at Wesley Chapel",
        "status": "RECRUITING",
        "city": "Wesley Chapel",
        "state": "Florida",
        "zip": "33544",
        "country": "United States",
        "contacts": [
          {
            "name": "Site Public Contact",
            "role": "CONTACT",
            "phone": "800-679-0775",
            "email": "ClinicalTrials@moffitt.org"
          },
          {
            "name": "Hsiang-Hsuan M. Yu",
            "role": "PRINCIPAL_INVESTIGATOR"
          }
        ],
        "geoPoint": {
          "lat": 28.23973,
          "lon": -82.32787
        }
      },
      {
        "facility": "Emory University Hospital Midtown",
        "status": "ACTIVE_NOT_RECRUITING",
        "city": "Atlanta",
        "state": "Georgia",
        "zip": "30308",
        "country": "United States",
        "geoPoint": {
          "lat": 33.749,
          "lon": -84.38798
        }
      },
      {
        "facility": "Emory University Hospital/Winship Cancer Institute",
        "status": "ACTIVE_NOT_RECRUITING",
        "city": "Atlanta",
        "state": "Georgia",
        "zip": "30322",
        "country": "United States",
        "geoPoint": {
          "lat": 33.749,
          "lon": -84.38798
        }
      },
      {
        "facility": "Emory Saint Joseph's Hospital",
        "status": "ACTIVE_NOT_RECRUITING",
        "city": "Atlanta",
        "state": "Georgia",
        "zip": "30342",
        "country": "United States",
        "geoPoint": {
          "lat": 33.749,
          "lon": -84.38798
        }
      },
      {
        "facility": "Northside Hospital",
        "status": "RECRUITING",
        "city": "Atlanta",
        "state": "Georgia",
        "zip": "30342",
        "country": "United States",
        "contacts": [
          {
            "name": "Site Public Contact",
            "role": "CONTACT",
            "phone": "404-303-3355",
            "email": "ClinicalTrials@northside.com"
          },
          {
            "name": "Gena H. Volas-Redd",
            "role": "PRINCIPAL_INVESTIGATOR"
          }
        ],
        "geoPoint": {
          "lat": 33.749,
          "lon": -84.38798
        }
      },
      {
        "facility": "Northside Hospital-Cherokee",
        "status": "RECRUITING",
        "city": "Canton",
        "state": "Georgia",
        "zip": "30115",
        "country": "United States",
        "contacts": [
          {
            "name": "Site Public Contact",
            "role": "CONTACT",
            "phone": "404-303-3355",
            "email": "clinical.trials@northside.com"
          },
          {
            "name": "Gena H. Volas-Redd",
            "role": "PRINCIPAL_INVESTIGATOR"
          }
        ],
        "geoPoint": {
          "lat": 34.23676,
          "lon": -84.49076
        }
      },
      {
        "facility": "Northside Hospital-Forsyth",
        "status": "RECRUITING",
        "city": "Cumming",
        "state": "Georgia",
        "zip": "30041",
        "country": "United States",
        "contacts": [
          {
            "name": "Site Public Contact",
            "role": "CONTACT",
            "phone": "404-303-3355",
            "email": "clinicaltrials@northside.com"
          },
          {
            "name": "Gena H. Volas-Redd",
            "role": "PRINCIPAL_INVESTIGATOR"
          }
        ],
        "geoPoint": {
          "lat": 34.20732,
          "lon": -84.14019
        }
      },
      {
        "facility": "Memorial Health University Medical Center",
        "status": "RECRUITING",
        "city": "Savannah",
        "state": "Georgia",
        "zip": "31404",
        "country": "United States",
        "contacts": [
          {
            "name": "Site Public Contact",
            "role": "CONTACT",
            "phone": "912-350-7887",
            "email": "Lorraine.OHara@hcahealthcare.com"
          },
          {
            "name": "Michael D. Hasselle",
            "role": "PRINCIPAL_INVESTIGATOR"
          }
        ],
        "geoPoint": {
          "lat": 32.08354,
          "lon": -81.09983
        }
      },
      {
        "facility": "Rush-Copley Medical Center",
        "status": "RECRUITING",
        "city": "Aurora",
        "state": "Illinois",
        "zip": "60504",
        "country": "United States",
        "contacts": [
          {
            "name": "Site Public Contact",
            "role": "CONTACT",
            "phone": "630-978-6212",
            "email": "RCMC_Cancer_Research@rush.edu"
          },
          {
            "name": "Kalika P. Sarma",
            "role": "PRINCIPAL_INVESTIGATOR"
          }
        ],
        "geoPoint": {
          "lat": 41.76058,
          "lon": -88.32007
        }
      },
      {
        "facility": "Centralia Oncology Clinic",
        "status": "RECRUITING",
        "city": "Centralia",
        "state": "Illinois",
        "zip": "62801",
        "country": "United States",
        "contacts": [
          {
            "name": "Site Public Contact",
            "role": "CONTACT",
            "phone": "217-876-4762",
            "email": "morganthaler.jodi@mhsil.com"
          },
          {
            "name": "Bryan A. Faller",
            "role": "PRINCIPAL_INVESTIGATOR"
          }
        ],
        "geoPoint": {
          "lat": 38.52505,
          "lon": -89.1334
        }
      },
      {
        "facility": "Rush University Medical Center",
        "status": "ACTIVE_NOT_RECRUITING",
        "city": "Chicago",
        "state": "Illinois",
        "zip": "60612",
        "country": "United States",
        "geoPoint": {
          "lat": 41.85003,
          "lon": -87.65005
        }
      },
      {
        "facility": "University of Chicago Comprehensive Cancer Center",
        "status": "SUSPENDED",
        "city": "Chicago",
        "state": "Illinois",
        "zip": "60637",
        "country": "United States",
        "geoPoint": {
          "lat": 41.85003,
          "lon": -87.65005
        }
      },
      {
        "facility": "Carle at The Riverfront",
        "status": "RECRUITING",
        "city": "Danville",
        "state": "Illinois",
        "zip": "61832",
        "country": "United States",
        "contacts": [
          {
            "name": "Site Public Contact",
            "role": "CONTACT",
            "phone": "800-446-5532",
            "email": "Research@Carle.com"
          },
          {
            "name": "Kalika P. Sarma",
            "role": "PRINCIPAL_INVESTIGATOR"
          }
        ],
        "geoPoint": {
          "lat": 40.12448,
          "lon": -87.63002
        }
      },
      {
        "facility": "Cancer Care Specialists of Illinois - Decatur",
        "status": "RECRUITING",
        "city": "Decatur",
        "state": "Illinois",
        "zip": "62526",
        "country": "United States",
        "contacts": [
          {
            "name": "Site Public Contact",
            "role": "CONTACT",
            "phone": "217-876-4762",
            "email": "morganthaler.jodi@mhsil.com"
          },
          {
            "name": "Bryan A. Faller",
            "role": "PRINCIPAL_INVESTIGATOR"
          }
        ],
        "geoPoint": {
          "lat": 39.84031,
          "lon": -88.9548
        }
      },
      {
        "facility": "Decatur Memorial Hospital",
        "status": "RECRUITING",
        "city": "Decatur",
        "state": "Illinois",
        "zip": "62526",
        "country": "United States",
        "contacts": [
          {
            "name": "Site Public Contact",
            "role": "CONTACT",
            "phone": "217-876-4762",
            "email": "morganthaler.jodi@mhsil.com"
          },
          {
            "name": "Bryan A. Faller",
            "role": "PRINCIPAL_INVESTIGATOR"
          }
        ],
        "geoPoint": {
          "lat": 39.84031,
          "lon": -88.9548
        }
      },
      {
        "facility": "Northwestern Medicine Cancer Center Kishwaukee",
        "status": "RECRUITING",
        "city": "DeKalb",
        "state": "Illinois",
        "zip": "60115",
        "country": "United States",
        "contacts": [
          {
            "name": "Site Public Contact",
            "role": "CONTACT",
            "phone": "630-352-5360",
            "email": "Donald.Smith3@nm.org"
          },
          {
            "name": "Vinai Gondi",
            "role": "PRINCIPAL_INVESTIGATOR"
          }
        ],
        "geoPoint": {
          "lat": 41.92947,
          "lon": -88.75036
        }
      },
      {
        "facility": "Carle Physician Group-Effingham",
        "status": "RECRUITING",
        "city": "Effingham",
        "state": "Illinois",
        "zip": "62401",
        "country": "United States",
        "contacts": [
          {
            "name": "Site Public Contact",
            "role": "CONTACT",
            "phone": "800-446-5532",
            "email": "Research@carle.com"
          },
          {
            "name": "Kalika P. Sarma",
            "role": "PRINCIPAL_INVESTIGATOR"
          }
        ],
        "geoPoint": {
          "lat": 39.12004,
          "lon": -88.54338
        }
      },
      {
        "facility": "Crossroads Cancer Center",
        "status": "RECRUITING",
        "city": "Effingham",
        "state": "Illinois",
        "zip": "62401",
        "country": "United States",
        "contacts": [
          {
            "name": "Site Public Contact",
            "role": "CONTACT",
            "phone": "217-876-4762",
            "email": "morganthaler.jodi@mhsil.com"
          },
          {
            "name": "Bryan A. Faller",
            "role": "PRINCIPAL_INVESTIGATOR"
          }
        ],
        "geoPoint": {
          "lat": 39.12004,
          "lon": -88.54338
        }
      },
      {
        "facility": "Northwestern Medicine Cancer Center Delnor",
        "status": "RECRUITING",
        "city": "Geneva",
        "state": "Illinois",
        "zip": "60134",
        "country": "United States",
        "contacts": [
          {
            "name": "Site Public Contact",
            "role": "CONTACT",
            "phone": "630-352-5360",
            "email": "Donald.Smith3@nm.org"
          },
          {
            "name": "Vinai Gondi",
            "role": "PRINCIPAL_INVESTIGATOR"
          }
        ],
        "geoPoint": {
          "lat": 41.88753,
          "lon": -88.30535
        }
      },
      {
        "facility": "Carle Physician Group-Mattoon/Charleston",
        "status": "RECRUITING",
        "city": "Mattoon",
        "state": "Illinois",
        "zip": "61938",
        "country": "United States",
        "contacts": [
          {
            "name": "Site Public Contact",
            "role": "CONTACT",
            "phone": "800-446-5532",
            "email": "Research@carle.com"
          },
          {
            "name": "Kalika P. Sarma",
            "role": "PRINCIPAL_INVESTIGATOR"
          }
        ],
        "geoPoint": {
          "lat": 39.48309,
          "lon": -88.37283
        }
      },
      {
        "facility": "UC Comprehensive Cancer Center at Silver Cross",
        "status": "SUSPENDED",
        "city": "New Lenox",
        "state": "Illinois",
        "zip": "60451",
        "country": "United States",
        "geoPoint": {
          "lat": 41.51198,
          "lon": -87.96561
        }
      },
      {
        "facility": "Cancer Care Center of O'Fallon",
        "status": "RECRUITING",
        "city": "O'Fallon",
        "state": "Illinois",
        "zip": "62269",
        "country": "United States",
        "contacts": [
          {
            "name": "Site Public Contact",
            "role": "CONTACT",
            "phone": "217-876-4762",
            "email": "morganthaler.jodi@mhsil.com"
          },
          {
            "name": "Bryan A. Faller",
            "role": "PRINCIPAL_INVESTIGATOR"
          }
        ],
        "geoPoint": {
          "lat": 38.59227,
          "lon": -89.91121
        }
      },
      {
        "facility": "HSHS Saint Elizabeth's Hospital",
        "status": "RECRUITING",
        "city": "O'Fallon",
        "state": "Illinois",
        "zip": "62269",
        "country": "United States",
        "contacts": [
          {
            "name": "Site Public Contact",
            "role": "CONTACT",
            "phone": "217-876-4762",
            "email": "morganthaler.jodi@mhsil.com"
          },
          {
            "name": "Bryan A. Faller",
            "role": "PRINCIPAL_INVESTIGATOR"
          }
        ],
        "geoPoint": {
          "lat": 38.59227,
          "lon": -89.91121
        }
      },
      {
        "facility": "OSF Saint Francis Medical Center",
        "status": "RECRUITING",
        "city": "Peoria",
        "state": "Illinois",
        "zip": "61637",
        "country": "United States",
        "contacts": [
          {
            "name": "Site Public Contact",
            "role": "CONTACT",
            "phone": "309-243-3605",
            "email": "andersonj@illinoiscancercare.com"
          },
          {
            "name": "Bryan A. Faller",
            "role": "PRINCIPAL_INVESTIGATOR"
          }
        ],
        "geoPoint": {
          "lat": 40.69365,
          "lon": -89.58899
        }
      },
      {
        "facility": "Carle Cancer Center",
        "status": "RECRUITING",
        "city": "Urbana",
        "state": "Illinois",
        "zip": "61801",
        "country": "United States",
        "contacts": [
          {
            "name": "Site Public Contact",
            "role": "CONTACT",
            "phone": "800-446-5532",
            "email": "Research@carle.com"
          },
          {
            "name": "Kalika P. Sarma",
            "role": "PRINCIPAL_INVESTIGATOR"
          }
        ],
        "geoPoint": {
          "lat": 40.11059,
          "lon": -88.20727
        }
      },
      {
        "facility": "The Carle Foundation Hospital",
        "status": "RECRUITING",
        "city": "Urbana",
        "state": "Illinois",
        "zip": "61801",
        "country": "United States",
        "contacts": [
          {
            "name": "Site Public Contact",
            "role": "CONTACT",
            "phone": "800-446-5532",
            "email": "Research@carle.com"
          },
          {
            "name": "Kalika P. Sarma",
            "role": "PRINCIPAL_INVESTIGATOR"
          }
        ],
        "geoPoint": {
          "lat": 40.11059,
          "lon": -88.20727
        }
      },
      {
        "facility": "Northwestern Medicine Cancer Center Warrenville",
        "status": "RECRUITING",
        "city": "Warrenville",
        "state": "Illinois",
        "zip": "60555",
        "country": "United States",
        "contacts": [
          {
            "name": "Site Public Contact",
            "role": "CONTACT",
            "phone": "630-352-5360",
            "email": "Donald.Smith3@nm.org"
          },
          {
            "name": "Vinai Gondi",
            "role": "PRINCIPAL_INVESTIGATOR"
          }
        ],
        "geoPoint": {
          "lat": 41.81781,
          "lon": -88.1734
        }
      },
      {
        "facility": "IU Health West Hospital",
        "status": "RECRUITING",
        "city": "Avon",
        "state": "Indiana",
        "zip": "46123",
        "country": "United States",
        "contacts": [
          {
            "name": "Site Public Contact",
            "role": "CONTACT",
            "phone": "317-278-5632",
            "email": "iutrials@iu.edu"
          },
          {
            "name": "Kevin Shiue",
            "role": "PRINCIPAL_INVESTIGATOR"
          }
        ],
        "geoPoint": {
          "lat": 39.76282,
          "lon": -86.39972
        }
      },
      {
        "facility": "IU Health North Hospital",
        "status": "RECRUITING",
        "city": "Carmel",
        "state": "Indiana",
        "zip": "46032",
        "country": "United States",
        "contacts": [
          {
            "name": "Site Public Contact",
            "role": "CONTACT",
            "phone": "317-278-5632",
            "email": "iutrials@iu.edu"
          },
          {
            "name": "Kevin Shiue",
            "role": "PRINCIPAL_INVESTIGATOR"
          }
        ],
        "geoPoint": {
          "lat": 39.97837,
          "lon": -86.11804
        }
      },
      {
        "facility": "Goshen Center for Cancer Care",
        "status": "RECRUITING",
        "city": "Goshen",
        "state": "Indiana",
        "zip": "46526",
        "country": "United States",
        "contacts": [
          {
            "name": "Site Public Contact",
            "role": "CONTACT",
            "phone": "574-364-2973",
            "email": "cccois@goshenhealth.com"
          },
          {
            "name": "Irina Sparks",
            "role": "PRINCIPAL_INVESTIGATOR"
          }
        ],
        "geoPoint": {
          "lat": 41.58227,
          "lon": -85.83444
        }
      },
      {
        "facility": "Indiana University/Melvin and Bren Simon Cancer Center",
        "status": "RECRUITING",
        "city": "Indianapolis",
        "state": "Indiana",
        "zip": "46202",
        "country": "United States",
        "contacts": [
          {
            "name": "Site Public Contact",
            "role": "CONTACT",
            "phone": "317-278-5632",
            "email": "iutrials@iu.edu"
          },
          {
            "name": "Kevin Shiue",
            "role": "PRINCIPAL_INVESTIGATOR"
          }
        ],
        "geoPoint": {
          "lat": 39.76838,
          "lon": -86.15804
        }
      },
      {
        "facility": "IU Health Methodist Hospital",
        "status": "RECRUITING",
        "city": "Indianapolis",
        "state": "Indiana",
        "zip": "46202",
        "country": "United States",
        "contacts": [
          {
            "name": "Site Public Contact",
            "role": "CONTACT",
            "phone": "317-278-5632",
            "email": "iutrials@iu.edu"
          },
          {
            "name": "Kevin Shiue",
            "role": "PRINCIPAL_INVESTIGATOR"
          }
        ],
        "geoPoint": {
          "lat": 39.76838,
          "lon": -86.15804
        }
      },
      {
        "facility": "Mary Greeley Medical Center",
        "status": "RECRUITING",
        "city": "Ames",
        "state": "Iowa",
        "zip": "50010",
        "country": "United States",
        "contacts": [
          {
            "name": "Site Public Contact",
            "role": "CONTACT",
            "phone": "515-956-4132"
          },
          {
            "name": "Joseph J. Merchant",
            "role": "PRINCIPAL_INVESTIGATOR"
          }
        ],
        "geoPoint": {
          "lat": 42.03471,
          "lon": -93.61994
        }
      },
      {
        "facility": "McFarland Clinic - Ames",
        "status": "RECRUITING",
        "city": "Ames",
        "state": "Iowa",
        "zip": "50010",
        "country": "United States",
        "contacts": [
          {
            "name": "Site Public Contact",
            "role": "CONTACT",
            "phone": "515-239-4734",
            "email": "ksoder@mcfarlandclinic.com"
          },
          {
            "name": "Joseph J. Merchant",
            "role": "PRINCIPAL_INVESTIGATOR"
          }
        ],
        "geoPoint": {
          "lat": 42.03471,
          "lon": -93.61994
        }
      },
      {
        "facility": "Baptist Health Lexington",
        "status": "ACTIVE_NOT_RECRUITING",
        "city": "Lexington",
        "state": "Kentucky",
        "zip": "40503",
        "country": "United States",
        "geoPoint": {
          "lat": 37.98869,
          "lon": -84.47772
        }
      },
      {
        "facility": "The James Graham Brown Cancer Center at University of Louisville",
        "status": "RECRUITING",
        "city": "Louisville",
        "state": "Kentucky",
        "zip": "40202",
        "country": "United States",
        "contacts": [
          {
            "name": "Site Public Contact",
            "role": "CONTACT",
            "phone": "502-562-3429"
          },
          {
            "name": "Neal E. Dunlap",
            "role": "PRINCIPAL_INVESTIGATOR"
          }
        ],
        "geoPoint": {
          "lat": 38.25424,
          "lon": -85.75941
        }
      },
      {
        "facility": "UofL Health Medical Center Northeast",
        "status": "RECRUITING",
        "city": "Louisville",
        "state": "Kentucky",
        "zip": "40245",
        "country": "United States",
        "contacts": [
          {
            "name": "Site Public Contact",
            "role": "CONTACT",
            "phone": "502-852-2755",
            "email": "ctoinfo@louisville.edu"
          },
          {
            "name": "Neal E. Dunlap",
            "role": "PRINCIPAL_INVESTIGATOR"
          }
        ],
        "geoPoint": {
          "lat": 38.25424,
          "lon": -85.75941
        }
      },
      {
        "facility": "Mary Bird Perkins Cancer Center",
        "status": "RECRUITING",
        "city": "Baton Rouge",
        "state": "Louisiana",
        "zip": "70809",
        "country": "United States",
        "contacts": [
          {
            "name": "Site Public Contact",
            "role": "CONTACT",
            "phone": "225-215-1353",
            "email": "clinicalresearch@marybird.com"
          },
          {
            "name": "Victor T. Lin",
            "role": "PRINCIPAL_INVESTIGATOR"
          }
        ],
        "geoPoint": {
          "lat": 30.44332,
          "lon": -91.18747
        }
      },
      {
        "facility": "Luminis Health Anne Arundel Medical Center",
        "status": "ACTIVE_NOT_RECRUITING",
        "city": "Annapolis",
        "state": "Maryland",
        "zip": "21401",
        "country": "United States",
        "geoPoint": {
          "lat": 38.97859,
          "lon": -76.49184
        }
      },
      {
        "facility": "University of Maryland/Greenebaum Cancer Center",
        "status": "RECRUITING",
        "city": "Baltimore",
        "state": "Maryland",
        "zip": "21201",
        "country": "United States",
        "contacts": [
          {
            "name": "Site Public Contact",
            "role": "CONTACT",
            "phone": "800-888-8823"
          },
          {
            "name": "Mark V. Mishra",
            "role": "PRINCIPAL_INVESTIGATOR"
          }
        ],
        "geoPoint": {
          "lat": 39.29038,
          "lon": -76.61219
        }
      },
      {
        "facility": "MedStar Franklin Square Medical Center/Weinberg Cancer Institute",
        "status": "SUSPENDED",
        "city": "Baltimore",
        "state": "Maryland",
        "zip": "21237",
        "country": "United States",
        "geoPoint": {
          "lat": 39.29038,
          "lon": -76.61219
        }
      },
      {
        "facility": "UM Upper Chesapeake Medical Center",
        "status": "RECRUITING",
        "city": "Bel Air",
        "state": "Maryland",
        "zip": "21014",
        "country": "United States",
        "contacts": [
          {
            "name": "Site Public Contact",
            "role": "CONTACT",
            "phone": "443-643-3010"
          },
          {
            "name": "Kamila Nowak Choi",
            "role": "PRINCIPAL_INVESTIGATOR"
          }
        ],
        "geoPoint": {
          "lat": 39.53594,
          "lon": -76.34829
        }
      },
      {
        "facility": "Central Maryland Radiation Oncology in Howard County",
        "status": "RECRUITING",
        "city": "Columbia",
        "state": "Maryland",
        "zip": "21044",
        "country": "United States",
        "contacts": [
          {
            "name": "Site Public Contact",
            "role": "CONTACT",
            "phone": "443-546-1300"
          },
          {
            "name": "Mark V. Mishra",
            "role": "PRINCIPAL_INVESTIGATOR"
          }
        ],
        "geoPoint": {
          "lat": 39.24038,
          "lon": -76.83942
        }
      },
      {
        "facility": "University of Maryland Shore Medical Center at Easton",
        "status": "RECRUITING",
        "city": "Easton",
        "state": "Maryland",
        "zip": "21601",
        "country": "United States",
        "contacts": [
          {
            "name": "Site Public Contact",
            "role": "CONTACT",
            "phone": "410-822-1000",
            "email": "Christina.weisenborn@umm.edu"
          },
          {
            "name": "Mark V. Mishra",
            "role": "PRINCIPAL_INVESTIGATOR"
          }
        ],
        "geoPoint": {
          "lat": 38.77428,
          "lon": -76.07633
        }
      },
      {
        "facility": "UM Baltimore Washington Medical Center/Tate Cancer Center",
        "status": "RECRUITING",
        "city": "Glen Burnie",
        "state": "Maryland",
        "zip": "21061",
        "country": "United States",
        "contacts": [
          {
            "name": "Site Public Contact",
            "role": "CONTACT",
            "phone": "410-553-8100"
          },
          {
            "name": "Mark V. Mishra",
            "role": "PRINCIPAL_INVESTIGATOR"
          }
        ],
        "geoPoint": {
          "lat": 39.16261,
          "lon": -76.62469
        }
      },
      {
        "facility": "TidalHealth Richard A Henson Cancer Institute",
        "status": "ACTIVE_NOT_RECRUITING",
        "city": "Ocean Pines",
        "state": "Maryland",
        "zip": "21811",
        "country": "United States",
        "geoPoint": {
          "lat": 38.39539,
          "lon": -75.15574
        }
      },
      {
        "facility": "TidalHealth Peninsula Regional",
        "status": "ACTIVE_NOT_RECRUITING",
        "city": "Salisbury",
        "state": "Maryland",
        "zip": "21801",
        "country": "United States",
        "geoPoint": {
          "lat": 38.36067,
          "lon": -75.59937
        }
      },
      {
        "facility": "Boston Medical Center",
        "status": "RECRUITING",
        "city": "Boston",
        "state": "Massachusetts",
        "zip": "02118",
        "country": "United States",
        "contacts": [
          {
            "name": "Site Public Contact",
            "role": "CONTACT",
            "phone": "617-638-8265"
          },
          {
            "name": "Kimberley S. Mak",
            "role": "PRINCIPAL_INVESTIGATOR"
          }
        ],
        "geoPoint": {
          "lat": 42.35843,
          "lon": -71.05977
        }
      },
      {
        "facility": "Trinity Health Saint Joseph Mercy Hospital Ann Arbor",
        "status": "RECRUITING",
        "city": "Ann Arbor",
        "state": "Michigan",
        "zip": "48106",
        "country": "United States",
        "contacts": [
          {
            "name": "Site Public Contact",
            "role": "CONTACT",
            "phone": "734-712-7251",
            "email": "MCRCwebsitecontactform@stjoeshealth.org"
          },
          {
            "name": "Samir Narayan",
            "role": "PRINCIPAL_INVESTIGATOR"
          }
        ],
        "geoPoint": {
          "lat": 42.27756,
          "lon": -83.74088
        }
      },
      {
        "facility": "McLaren Cancer Institute-Bay City",
        "status": "RECRUITING",
        "city": "Bay City",
        "state": "Michigan",
        "zip": "48706",
        "country": "United States",
        "contacts": [
          {
            "name": "Site Public Contact",
            "role": "CONTACT",
            "phone": "313-576-9790",
            "email": "ctoadmin@karmanos.org"
          },
          {
            "name": "Michael M. Dominello",
            "role": "PRINCIPAL_INVESTIGATOR"
          }
        ],
        "geoPoint": {
          "lat": 43.59447,
          "lon": -83.88886
        }
      },
      {
        "facility": "Trinity Health IHA Medical Group Hematology Oncology - Brighton",
        "status": "RECRUITING",
        "city": "Brighton",
        "state": "Michigan",
        "zip": "48114",
        "country": "United States",
        "contacts": [
          {
            "name": "Site Public Contact",
            "role": "CONTACT",
            "phone": "734-712-7251",
            "email": "MCRCwebsitecontactform@stjoeshealth.org"
          },
          {
            "name": "Samir Narayan",
            "role": "PRINCIPAL_INVESTIGATOR"
          }
        ],
        "geoPoint": {
          "lat": 42.52948,
          "lon": -83.78022
        }
      },
      {
        "facility": "Trinity Health Medical Center - Brighton",
        "status": "RECRUITING",
        "city": "Brighton",
        "state": "Michigan",
        "zip": "48114",
        "country": "United States",
        "contacts": [
          {
            "name": "Site Public Contact",
            "role": "CONTACT",
            "phone": "734-712-7251",
            "email": "MCRCwebsitecontactform@stjoeshealth.org"
          },
          {
            "name": "Samir Narayan",
            "role": "PRINCIPAL_INVESTIGATOR"
          }
        ],
        "geoPoint": {
          "lat": 42.52948,
          "lon": -83.78022
        }
      },
      {
        "facility": "Trinity Health IHA Medical Group Hematology Oncology - Canton",
        "status": "RECRUITING",
        "city": "Canton",
        "state": "Michigan",
        "zip": "48188",
        "country": "United States",
        "contacts": [
          {
            "name": "Site Public Contact",
            "role": "CONTACT",
            "phone": "734-712-7251",
            "email": "MCRCwebsitecontactform@stjoeshealth.org"
          },
          {
            "name": "Samir Narayan",
            "role": "PRINCIPAL_INVESTIGATOR"
          }
        ],
        "geoPoint": {
          "lat": 42.30865,
          "lon": -83.48216
        }
      },
      {
        "facility": "Trinity Health Medical Center - Canton",
        "status": "RECRUITING",
        "city": "Canton",
        "state": "Michigan",
        "zip": "48188",
        "country": "United States",
        "contacts": [
          {
            "name": "Site Public Contact",
            "role": "CONTACT",
            "phone": "734-712-7251",
            "email": "MCRCwebsitecontactform@stjoeshealth.org"
          },
          {
            "name": "Samir Narayan",
            "role": "PRINCIPAL_INVESTIGATOR"
          }
        ],
        "geoPoint": {
          "lat": 42.30865,
          "lon": -83.48216
        }
      },
      {
        "facility": "Caro Cancer Center",
        "status": "SUSPENDED",
        "city": "Caro",
        "state": "Michigan",
        "zip": "48723",
        "country": "United States",
        "geoPoint": {
          "lat": 43.49073,
          "lon": -83.39885
        }
      },
      {
        "facility": "Chelsea Hospital",
        "status": "RECRUITING",
        "city": "Chelsea",
        "state": "Michigan",
        "zip": "48118",
        "country": "United States",
        "contacts": [
          {
            "name": "Site Public Contact",
            "role": "CONTACT",
            "phone": "734-712-7251",
            "email": "MCRCwebsitecontactform@stjoeshealth.org"
          },
          {
            "name": "Samir Narayan",
            "role": "PRINCIPAL_INVESTIGATOR"
          }
        ],
        "geoPoint": {
          "lat": 42.31807,
          "lon": -84.02181
        }
      },
      {
        "facility": "Trinity Health IHA Medical Group Hematology Oncology - Chelsea Hospital",
        "status": "RECRUITING",
        "city": "Chelsea",
        "state": "Michigan",
        "zip": "48118",
        "country": "United States",
        "contacts": [
          {
            "name": "Site Public Contact",
            "role": "CONTACT",
            "phone": "734-712-7251",
            "email": "MCRCwebsitecontactform@stjoeshealth.org"
          },
          {
            "name": "Samir Narayan",
            "role": "PRINCIPAL_INVESTIGATOR"
          }
        ],
        "geoPoint": {
          "lat": 42.31807,
          "lon": -84.02181
        }
      },
      {
        "facility": "Wayne State University/Karmanos Cancer Institute",
        "status": "RECRUITING",
        "city": "Detroit",
        "state": "Michigan",
        "zip": "48201",
        "country": "United States",
        "contacts": [
          {
            "name": "Site Public Contact",
            "role": "CONTACT",
            "phone": "313-576-9790",
            "email": "ctoadmin@karmanos.org"
          },
          {
            "name": "Michael M. Dominello",
            "role": "PRINCIPAL_INVESTIGATOR"
          }
        ],
        "geoPoint": {
          "lat": 42.33143,
          "lon": -83.04575
        }
      },
      {
        "facility": "Weisberg Cancer Treatment Center",
        "status": "RECRUITING",
        "city": "Farmington Hills",
        "state": "Michigan",
        "zip": "48334",
        "country": "United States",
        "contacts": [
          {
            "name": "Site Public Contact",
            "role": "CONTACT",
            "phone": "313-576-9790",
            "email": "ctoadmin@karmanos.org"
          },
          {
            "name": "Michael M. Dominello",
            "role": "PRINCIPAL_INVESTIGATOR"
          }
        ],
        "geoPoint": {
          "lat": 42.48531,
          "lon": -83.37716
        }
      },
      {
        "facility": "McLaren Cancer Institute-Flint",
        "status": "RECRUITING",
        "city": "Flint",
        "state": "Michigan",
        "zip": "48532",
        "country": "United States",
        "contacts": [
          {
            "name": "Site Public Contact",
            "role": "CONTACT",
            "phone": "313-576-9790",
            "email": "ctoadmin@karmanos.org"
          },
          {
            "name": "Michael M. Dominello",
            "role": "PRINCIPAL_INVESTIGATOR"
          }
        ],
        "geoPoint": {
          "lat": 43.01253,
          "lon": -83.68746
        }
      },
      {
        "facility": "Karmanos Cancer Institute at McLaren Greater Lansing",
        "status": "RECRUITING",
        "city": "Lansing",
        "state": "Michigan",
        "zip": "48910",
        "country": "United States",
        "contacts": [
          {
            "name": "Site Public Contact",
            "role": "CONTACT",
            "phone": "313-576-9790",
            "email": "ctoadmin@karmanos.org"
          },
          {
            "name": "Michael M. Dominello",
            "role": "PRINCIPAL_INVESTIGATOR"
          }
        ],
        "geoPoint": {
          "lat": 42.73253,
          "lon": -84.55553
        }
      },
      {
        "facility": "McLaren Cancer Institute-Lapeer Region",
        "status": "RECRUITING",
        "city": "Lapeer",
        "state": "Michigan",
        "zip": "48446",
        "country": "United States",
        "contacts": [
          {
            "name": "Site Public Contact",
            "role": "CONTACT",
            "phone": "313-576-9790",
            "email": "ctoadmin@karmanos.org"
          },
          {
            "name": "Michael M. Dominello",
            "role": "PRINCIPAL_INVESTIGATOR"
          }
        ],
        "geoPoint": {
          "lat": 43.05142,
          "lon": -83.31883
        }
      },
      {
        "facility": "Trinity Health Saint Mary Mercy Livonia Hospital",
        "status": "RECRUITING",
        "city": "Livonia",
        "state": "Michigan",
        "zip": "48154",
        "country": "United States",
        "contacts": [
          {
            "name": "Site Public Contact",
            "role": "CONTACT",
            "phone": "734-712-7251",
            "email": "MCRCwebsitecontactform@stjoeshealth.org"
          },
          {
            "name": "Samir Narayan",
            "role": "PRINCIPAL_INVESTIGATOR"
          }
        ],
        "geoPoint": {
          "lat": 42.36837,
          "lon": -83.35271
        }
      },
      {
        "facility": "Saint Mary's Oncology/Hematology Associates of Marlette",
        "status": "SUSPENDED",
        "city": "Marlette",
        "state": "Michigan",
        "zip": "48453",
        "country": "United States",
        "geoPoint": {
          "lat": 43.32697,
          "lon": -83.08022
        }
      },
      {
        "facility": "McLaren Cancer Institute-Macomb",
        "status": "RECRUITING",
        "city": "Mount Clemens",
        "state": "Michigan",
        "zip": "48043",
        "country": "United States",
        "contacts": [
          {
            "name": "Site Public Contact",
            "role": "CONTACT",
            "phone": "313-576-9790",
            "email": "ctoadmin@karmanos.org"
          },
          {
            "name": "Michael M. Dominello",
            "role": "PRINCIPAL_INVESTIGATOR"
          }
        ],
        "geoPoint": {
          "lat": 42.59726,
          "lon": -82.87798
        }
      },
      {
        "facility": "McLaren Cancer Institute-Northern Michigan",
        "status": "RECRUITING",
        "city": "Petoskey",
        "state": "Michigan",
        "zip": "49770",
        "country": "United States",
        "contacts": [
          {
            "name": "Site Public Contact",
            "role": "CONTACT",
            "phone": "313-576-9790",
            "email": "ctoadmin@karmanos.org"
          },
          {
            "name": "Michael M. Dominello",
            "role": "PRINCIPAL_INVESTIGATOR"
          }
        ],
        "geoPoint": {
          "lat": 45.37334,
          "lon": -84.95533
        }
      },
      {
        "facility": "McLaren-Port Huron",
        "status": "RECRUITING",
        "city": "Port Huron",
        "state": "Michigan",
        "zip": "48060",
        "country": "United States",
        "contacts": [
          {
            "name": "Site Public Contact",
            "role": "CONTACT",
            "phone": "313-576-9790",
            "email": "ctoadmin@karmanos.org"
          },
          {
            "name": "Michael M. Dominello",
            "role": "PRINCIPAL_INVESTIGATOR"
          }
        ],
        "geoPoint": {
          "lat": 42.97086,
          "lon": -82.42491
        }
      },
      {
        "facility": "MyMichigan Medical Center Saginaw",
        "status": "RECRUITING",
        "city": "Saginaw",
        "state": "Michigan",
        "zip": "48601",
        "country": "United States",
        "contacts": [
          {
            "name": "Site Public Contact",
            "role": "CONTACT",
            "phone": "734-712-7251",
            "email": "MCRCwebsitecontactform@stjoeshealth.org"
          },
          {
            "name": "Samir Narayan",
            "role": "PRINCIPAL_INVESTIGATOR"
          }
        ],
        "geoPoint": {
          "lat": 43.41947,
          "lon": -83.95081
        }
      },
      {
        "facility": "Oncology Hematology Associates of Saginaw Valley PC",
        "status": "SUSPENDED",
        "city": "Saginaw",
        "state": "Michigan",
        "zip": "48604",
        "country": "United States",
        "geoPoint": {
          "lat": 43.41947,
          "lon": -83.95081
        }
      },
      {
        "facility": "MyMichigan Medical Center Tawas",
        "status": "RECRUITING",
        "city": "Tawas City",
        "state": "Michigan",
        "zip": "48764",
        "country": "United States",
        "contacts": [
          {
            "name": "Site Public Contact",
            "role": "CONTACT",
            "phone": "734-712-7251",
            "email": "MCRCwebsitecontactform@stjoeshealth.org"
          },
          {
            "name": "Samir Narayan",
            "role": "PRINCIPAL_INVESTIGATOR"
          }
        ],
        "geoPoint": {
          "lat": 44.26946,
          "lon": -83.5147
        }
      },
      {
        "facility": "Saint Mary's Oncology/Hematology Associates of West Branch",
        "status": "SUSPENDED",
        "city": "West Branch",
        "state": "Michigan",
        "zip": "48661",
        "country": "United States",
        "geoPoint": {
          "lat": 44.27641,
          "lon": -84.23861
        }
      },
      {
        "facility": "Trinity Health IHA Medical Group Hematology Oncology Ann Arbor Campus",
        "status": "RECRUITING",
        "city": "Ypsilanti",
        "state": "Michigan",
        "zip": "48197",
        "country": "United States",
        "contacts": [
          {
            "name": "Site Public Contact",
            "role": "CONTACT",
            "phone": "734-712-7251",
            "email": "MCRCwebsitecontactform@stjoeshealth.org"
          },
          {
            "name": "Samir Narayan",
            "role": "PRINCIPAL_INVESTIGATOR"
          }
        ],
        "geoPoint": {
          "lat": 42.24115,
          "lon": -83.61299
        }
      },
      {
        "facility": "Sanford Joe Lueken Cancer Center",
        "status": "RECRUITING",
        "city": "Bemidji",
        "state": "Minnesota",
        "zip": "56601",
        "country": "United States",
        "contacts": [
          {
            "name": "Site Public Contact",
            "role": "CONTACT",
            "phone": "218-333-5000",
            "email": "OncologyClinicalTrialsFargo@sanfordhealth.org"
          },
          {
            "name": "Daniel Almquist",
            "role": "PRINCIPAL_INVESTIGATOR"
          }
        ],
        "geoPoint": {
          "lat": 47.47356,
          "lon": -94.88028
        }
      },
      {
        "facility": "Minnesota Oncology - Burnsville",
        "status": "RECRUITING",
        "city": "Burnsville",
        "state": "Minnesota",
        "zip": "55337",
        "country": "United States",
        "contacts": [
          {
            "name": "Site Public Contact",
            "role": "CONTACT",
            "phone": "952-993-1517",
            "email": "mmcorc@healthpartners.com"
          },
          {
            "name": "Yan Ji",
            "role": "PRINCIPAL_INVESTIGATOR"
          }
        ],
        "geoPoint": {
          "lat": 44.76774,
          "lon": -93.27772
        }
      },
      {
        "facility": "Mercy Hospital",
        "status": "RECRUITING",
        "city": "Coon Rapids",
        "state": "Minnesota",
        "zip": "55433",
        "country": "United States",
        "contacts": [
          {
            "name": "Site Public Contact",
            "role": "CONTACT",
            "phone": "952-993-1517",
            "email": "mmcorc@healthpartners.com"
          },
          {
            "name": "Yan Ji",
            "role": "PRINCIPAL_INVESTIGATOR"
          }
        ],
        "geoPoint": {
          "lat": 45.11997,
          "lon": -93.28773
        }
      },
      {
        "facility": "Fairview Southdale Hospital",
        "status": "RECRUITING",
        "city": "Edina",
        "state": "Minnesota",
        "zip": "55435",
        "country": "United States",
        "contacts": [
          {
            "name": "Site Public Contact",
            "role": "CONTACT",
            "phone": "952-993-1517",
            "email": "mmcorc@healthpartners.com"
          },
          {
            "name": "Yan Ji",
            "role": "PRINCIPAL_INVESTIGATOR"
          }
        ],
        "geoPoint": {
          "lat": 44.88969,
          "lon": -93.34995
        }
      },
      {
        "facility": "Unity Hospital",
        "status": "ACTIVE_NOT_RECRUITING",
        "city": "Fridley",
        "state": "Minnesota",
        "zip": "55432",
        "country": "United States",
        "geoPoint": {
          "lat": 45.08608,
          "lon": -93.26328
        }
      },
      {
        "facility": "Fairview Clinics and Surgery Center Maple Grove",
        "status": "RECRUITING",
        "city": "Maple Grove",
        "state": "Minnesota",
        "zip": "55369",
        "country": "United States",
        "contacts": [
          {
            "name": "Site Public Contact",
            "role": "CONTACT",
            "phone": "952-993-1517",
            "email": "mmcorc@healthpartners.com"
          },
          {
            "name": "Yan Ji",
            "role": "PRINCIPAL_INVESTIGATOR"
          }
        ],
        "geoPoint": {
          "lat": 45.07246,
          "lon": -93.45579
        }
      },
      {
        "facility": "Minnesota Oncology Hematology PA-Maplewood",
        "status": "RECRUITING",
        "city": "Maplewood",
        "state": "Minnesota",
        "zip": "55109",
        "country": "United States",
        "contacts": [
          {
            "name": "Site Public Contact",
            "role": "CONTACT",
            "phone": "952-993-1517",
            "email": "mmcorc@healthpartners.com"
          },
          {
            "name": "Yan Ji",
            "role": "PRINCIPAL_INVESTIGATOR"
          }
        ],
        "geoPoint": {
          "lat": 44.95302,
          "lon": -92.99522
        }
      },
      {
        "facility": "Abbott-Northwestern Hospital",
        "status": "RECRUITING",
        "city": "Minneapolis",
        "state": "Minnesota",
        "zip": "55407",
        "country": "United States",
        "contacts": [
          {
            "name": "Site Public Contact",
            "role": "CONTACT",
            "phone": "952-993-1517",
            "email": "mmcorc@healthpartners.com"
          },
          {
            "name": "Yan Ji",
            "role": "PRINCIPAL_INVESTIGATOR"
          }
        ],
        "geoPoint": {
          "lat": 44.97997,
          "lon": -93.26384
        }
      },
      {
        "facility": "Monticello Cancer Center",
        "status": "RECRUITING",
        "city": "Monticello",
        "state": "Minnesota",
        "zip": "55362",
        "country": "United States",
        "contacts": [
          {
            "name": "Site Public Contact",
            "role": "CONTACT",
            "phone": "952-993-1517",
            "email": "mmcorc@healthpartners.com"
          },
          {
            "name": "Yan Ji",
            "role": "PRINCIPAL_INVESTIGATOR"
          }
        ],
        "geoPoint": {
          "lat": 45.30552,
          "lon": -93.79414
        }
      },
      {
        "facility": "Coborn Cancer Center at Saint Cloud Hospital",
        "status": "RECRUITING",
        "city": "Saint Cloud",
        "state": "Minnesota",
        "zip": "56303",
        "country": "United States",
        "contacts": [
          {
            "name": "Site Public Contact",
            "role": "CONTACT",
            "phone": "877-229-4907",
            "email": "coborncancercenter@centracare.com"
          },
          {
            "name": "Donald J. Jurgens",
            "role": "PRINCIPAL_INVESTIGATOR"
          }
        ],
        "geoPoint": {
          "lat": 45.5608,
          "lon": -94.16249
        }
      },
      {
        "facility": "Regions Hospital",
        "status": "RECRUITING",
        "city": "Saint Paul",
        "state": "Minnesota",
        "zip": "55101",
        "country": "United States",
        "contacts": [
          {
            "name": "Site Public Contact",
            "role": "CONTACT",
            "phone": "952-993-1517",
            "email": "mmcorc@healthpartners.com"
          },
          {
            "name": "Yan Ji",
            "role": "PRINCIPAL_INVESTIGATOR"
          }
        ],
        "geoPoint": {
          "lat": 44.94441,
          "lon": -93.09327
        }
      },
      {
        "facility": "United Hospital",
        "status": "RECRUITING",
        "city": "Saint Paul",
        "state": "Minnesota",
        "zip": "55102",
        "country": "United States",
        "contacts": [
          {
            "name": "Site Public Contact",
            "role": "CONTACT",
            "phone": "952-993-1517",
            "email": "mmcorc@healthpartners.com"
          },
          {
            "name": "Yan Ji",
            "role": "PRINCIPAL_INVESTIGATOR"
          }
        ],
        "geoPoint": {
          "lat": 44.94441,
          "lon": -93.09327
        }
      },
      {
        "facility": "Lakeview Hospital",
        "status": "RECRUITING",
        "city": "Stillwater",
        "state": "Minnesota",
        "zip": "55082",
        "country": "United States",
        "contacts": [
          {
            "name": "Site Public Contact",
            "role": "CONTACT",
            "phone": "952-993-1517",
            "email": "mmcorc@healthpartners.com"
          },
          {
            "name": "Yan Ji",
            "role": "PRINCIPAL_INVESTIGATOR"
          }
        ],
        "geoPoint": {
          "lat": 45.05636,
          "lon": -92.80604
        }
      },
      {
        "facility": "Minnesota Oncology Hematology PA-Woodbury",
        "status": "RECRUITING",
        "city": "Woodbury",
        "state": "Minnesota",
        "zip": "55125",
        "country": "United States",
        "contacts": [
          {
            "name": "Site Public Contact",
            "role": "CONTACT",
            "phone": "952-993-1517",
            "email": "mmcorc@healthpartners.com"
          },
          {
            "name": "Yan Ji",
            "role": "PRINCIPAL_INVESTIGATOR"
          }
        ],
        "geoPoint": {
          "lat": 44.92386,
          "lon": -92.95938
        }
      },
      {
        "facility": "Saint Francis Medical Center",
        "status": "RECRUITING",
        "city": "Cape Girardeau",
        "state": "Missouri",
        "zip": "63703",
        "country": "United States",
        "contacts": [
          {
            "name": "Site Public Contact",
            "role": "CONTACT",
            "phone": "573-334-2230",
            "email": "sfmc@sfmc.net"
          },
          {
            "name": "Bryan A. Faller",
            "role": "PRINCIPAL_INVESTIGATOR"
          }
        ],
        "geoPoint": {
          "lat": 37.30588,
          "lon": -89.51815
        }
      },
      {
        "facility": "Parkland Health Center - Farmington",
        "status": "RECRUITING",
        "city": "Farmington",
        "state": "Missouri",
        "zip": "63640",
        "country": "United States",
        "contacts": [
          {
            "name": "Site Public Contact",
            "role": "CONTACT",
            "phone": "314-996-5569"
          },
          {
            "name": "Bryan A. Faller",
            "role": "PRINCIPAL_INVESTIGATOR"
          }
        ],
        "geoPoint": {
          "lat": 37.78088,
          "lon": -90.42179
        }
      },
      {
        "facility": "Freeman Health System",
        "status": "RECRUITING",
        "city": "Joplin",
        "state": "Missouri",
        "zip": "64804",
        "country": "United States",
        "contacts": [
          {
            "name": "Site Public Contact",
            "role": "CONTACT",
            "phone": "417-347-4030",
            "email": "LJCrockett@freemanhealth.com"
          },
          {
            "name": "Jay W. Carlson",
            "role": "PRINCIPAL_INVESTIGATOR"
          }
        ],
        "geoPoint": {
          "lat": 37.08423,
          "lon": -94.51328
        }
      },
      {
        "facility": "Sainte Genevieve County Memorial Hospital",
        "status": "RECRUITING",
        "city": "Sainte Genevieve",
        "state": "Missouri",
        "zip": "63670",
        "country": "United States",
        "contacts": [
          {
            "name": "Site Public Contact",
            "role": "CONTACT",
            "phone": "314-996-5569"
          },
          {
            "name": "Bryan A. Faller",
            "role": "PRINCIPAL_INVESTIGATOR"
          }
        ],
        "geoPoint": {
          "lat": 37.98144,
          "lon": -90.04178
        }
      },
      {
        "facility": "Mercy Hospital Springfield",
        "status": "RECRUITING",
        "city": "Springfield",
        "state": "Missouri",
        "zip": "65804",
        "country": "United States",
        "contacts": [
          {
            "name": "Site Public Contact",
            "role": "CONTACT",
            "phone": "417-269-4520"
          },
          {
            "name": "Jay W. Carlson",
            "role": "PRINCIPAL_INVESTIGATOR"
          }
        ],
        "geoPoint": {
          "lat": 37.21533,
          "lon": -93.29824
        }
      },
      {
        "facility": "Missouri Baptist Medical Center",
        "status": "RECRUITING",
        "city": "St Louis",
        "state": "Missouri",
        "zip": "63131",
        "country": "United States",
        "contacts": [
          {
            "name": "Site Public Contact",
            "role": "CONTACT",
            "phone": "314-996-5569"
          },
          {
            "name": "Bryan A. Faller",
            "role": "PRINCIPAL_INVESTIGATOR"
          }
        ],
        "geoPoint": {
          "lat": 38.62727,
          "lon": -90.19789
        }
      },
      {
        "facility": "Missouri Baptist Sullivan Hospital",
        "status": "RECRUITING",
        "city": "Sullivan",
        "state": "Missouri",
        "zip": "63080",
        "country": "United States",
        "contacts": [
          {
            "name": "Site Public Contact",
            "role": "CONTACT",
            "phone": "314-996-5569"
          },
          {
            "name": "Bryan A. Faller",
            "role": "PRINCIPAL_INVESTIGATOR"
          }
        ],
        "geoPoint": {
          "lat": 38.2081,
          "lon": -91.16042
        }
      },
      {
        "facility": "BJC Outpatient Center at Sunset Hills",
        "status": "RECRUITING",
        "city": "Sunset Hills",
        "state": "Missouri",
        "zip": "63127",
        "country": "United States",
        "contacts": [
          {
            "name": "Site Public Contact",
            "role": "CONTACT",
            "phone": "314-996-5569"
          },
          {
            "name": "Bryan A. Faller",
            "role": "PRINCIPAL_INVESTIGATOR"
          }
        ],
        "geoPoint": {
          "lat": 38.53894,
          "lon": -90.40734
        }
      },
      {
        "facility": "Billings Clinic Cancer Center",
        "status": "SUSPENDED",
        "city": "Billings",
        "state": "Montana",
        "zip": "59101",
        "country": "United States",
        "geoPoint": {
          "lat": 45.78329,
          "lon": -108.50069
        }
      },
      {
        "facility": "Benefis Sletten Cancer Institute",
        "status": "SUSPENDED",
        "city": "Great Falls",
        "state": "Montana",
        "zip": "59405",
        "country": "United States",
        "geoPoint": {
          "lat": 47.50024,
          "lon": -111.30081
        }
      },
      {
        "facility": "Logan Health Medical Center",
        "status": "SUSPENDED",
        "city": "Kalispell",
        "state": "Montana",
        "zip": "59901",
        "country": "United States",
        "geoPoint": {
          "lat": 48.19579,
          "lon": -114.31291
        }
      },
      {
        "facility": "Cooper Hospital University Medical Center",
        "status": "RECRUITING",
        "city": "Camden",
        "state": "New Jersey",
        "zip": "08103",
        "country": "United States",
        "contacts": [
          {
            "name": "Site Public Contact",
            "role": "CONTACT",
            "phone": "856-325-6757"
          },
          {
            "name": "Justin Mann",
            "role": "PRINCIPAL_INVESTIGATOR"
          }
        ],
        "geoPoint": {
          "lat": 39.92595,
          "lon": -75.11962
        }
      },
      {
        "facility": "Sands Cancer Center",
        "status": "ACTIVE_NOT_RECRUITING",
        "city": "Canandaigua",
        "state": "New York",
        "zip": "14424",
        "country": "United States",
        "geoPoint": {
          "lat": 42.87423,
          "lon": -77.28804
        }
      },
      {
        "facility": "Northwell Health/Center for Advanced Medicine",
        "status": "ACTIVE_NOT_RECRUITING",
        "city": "Lake Success",
        "state": "New York",
        "zip": "11042",
        "country": "United States",
        "geoPoint": {
          "lat": 40.77066,
          "lon": -73.71763
        }
      },
      {
        "facility": "Northern Westchester Hospital",
        "status": "ACTIVE_NOT_RECRUITING",
        "city": "Mount Kisco",
        "state": "New York",
        "zip": "10549",
        "country": "United States",
        "geoPoint": {
          "lat": 41.20426,
          "lon": -73.72708
        }
      },
      {
        "facility": "NYP/Columbia University Medical Center/Herbert Irving Comprehensive Cancer Center",
        "status": "ACTIVE_NOT_RECRUITING",
        "city": "New York",
        "state": "New York",
        "zip": "10032",
        "country": "United States",
        "geoPoint": {
          "lat": 40.71427,
          "lon": -74.00597
        }
      },
      {
        "facility": "Upstate Cancer Center Radiation Oncology at Oswego",
        "status": "RECRUITING",
        "city": "Oswego",
        "state": "New York",
        "zip": "13126",
        "country": "United States",
        "contacts": [
          {
            "name": "Site Public Contact",
            "role": "CONTACT",
            "phone": "315-464-3603",
            "email": "BinghamE@upstate.edu"
          },
          {
            "name": "Michael D. Mix",
            "role": "PRINCIPAL_INVESTIGATOR"
          }
        ],
        "geoPoint": {
          "lat": 43.45535,
          "lon": -76.5105
        }
      },
      {
        "facility": "Wilmot Cancer Institute Radiation Oncology at Greece",
        "status": "ACTIVE_NOT_RECRUITING",
        "city": "Rochester",
        "state": "New York",
        "zip": "14606",
        "country": "United States",
        "geoPoint": {
          "lat": 43.15478,
          "lon": -77.61556
        }
      },
      {
        "facility": "University of Rochester",
        "status": "ACTIVE_NOT_RECRUITING",
        "city": "Rochester",
        "state": "New York",
        "zip": "14642",
        "country": "United States",
        "geoPoint": {
          "lat": 43.15478,
          "lon": -77.61556
        }
      },
      {
        "facility": "State University of New York Upstate Medical University",
        "status": "RECRUITING",
        "city": "Syracuse",
        "state": "New York",
        "zip": "13210",
        "country": "United States",
        "contacts": [
          {
            "name": "Site Public Contact",
            "role": "CONTACT",
            "phone": "315-464-5476"
          },
          {
            "name": "Michael D. Mix",
            "role": "PRINCIPAL_INVESTIGATOR"
          }
        ],
        "geoPoint": {
          "lat": 43.04812,
          "lon": -76.14742
        }
      },
      {
        "facility": "Upstate Cancer Center at Hill Radiation Oncology",
        "status": "RECRUITING",
        "city": "Syracuse",
        "state": "New York",
        "zip": "13210",
        "country": "United States",
        "contacts": [
          {
            "name": "Site Public Contact",
            "role": "CONTACT",
            "phone": "315-464-3603",
            "email": "BinghamE@upstate.edu"
          },
          {
            "name": "Michael D. Mix",
            "role": "PRINCIPAL_INVESTIGATOR"
          }
        ],
        "geoPoint": {
          "lat": 43.04812,
          "lon": -76.14742
        }
      },
      {
        "facility": "Montefiore Medical Center-Einstein Campus",
        "status": "ACTIVE_NOT_RECRUITING",
        "city": "The Bronx",
        "state": "New York",
        "zip": "10461",
        "country": "United States",
        "geoPoint": {
          "lat": 40.84985,
          "lon": -73.86641
        }
      },
      {
        "facility": "Montefiore Medical Center-Weiler Hospital",
        "status": "ACTIVE_NOT_RECRUITING",
        "city": "The Bronx",
        "state": "New York",
        "zip": "10461",
        "country": "United States",
        "geoPoint": {
          "lat": 40.84985,
          "lon": -73.86641
        }
      },
      {
        "facility": "Montefiore Medical Center - Moses Campus",
        "status": "ACTIVE_NOT_RECRUITING",
        "city": "The Bronx",
        "state": "New York",
        "zip": "10467",
        "country": "United States",
        "geoPoint": {
          "lat": 40.84985,
          "lon": -73.86641
        }
      },
      {
        "facility": "Upstate Cancer Center at Verona",
        "status": "SUSPENDED",
        "city": "Verona",
        "state": "New York",
        "zip": "13478",
        "country": "United States",
        "geoPoint": {
          "lat": 43.13812,
          "lon": -75.57073
        }
      },
      {
        "facility": "Wilmot Cancer Institute at Webster",
        "status": "ACTIVE_NOT_RECRUITING",
        "city": "Webster",
        "state": "New York",
        "zip": "14580",
        "country": "United States",
        "geoPoint": {
          "lat": 43.21229,
          "lon": -77.42999
        }
      },
      {
        "facility": "Wake Forest University Health Sciences",
        "status": "RECRUITING",
        "city": "Winston-Salem",
        "state": "North Carolina",
        "zip": "27157",
        "country": "United States",
        "contacts": [
          {
            "name": "Site Public Contact",
            "role": "CONTACT",
            "phone": "336-713-6771"
          },
          {
            "name": "Christina K. Cramer",
            "role": "PRINCIPAL_INVESTIGATOR"
          }
        ],
        "geoPoint": {
          "lat": 36.09986,
          "lon": -80.24422
        }
      },
      {
        "facility": "Sanford Bismarck Medical Center",
        "status": "RECRUITING",
        "city": "Bismarck",
        "state": "North Dakota",
        "zip": "58501",
        "country": "United States",
        "contacts": [
          {
            "name": "Site Public Contact",
            "role": "CONTACT",
            "phone": "701-323-5760",
            "email": "OncologyClinicalTrialsFargo@sanfordhealth.org"
          },
          {
            "name": "Daniel Almquist",
            "role": "PRINCIPAL_INVESTIGATOR"
          }
        ],
        "geoPoint": {
          "lat": 46.80833,
          "lon": -100.78374
        }
      },
      {
        "facility": "Sanford Broadway Medical Center",
        "status": "RECRUITING",
        "city": "Fargo",
        "state": "North Dakota",
        "zip": "58122",
        "country": "United States",
        "contacts": [
          {
            "name": "Site Public Contact",
            "role": "CONTACT",
            "phone": "701-323-5760",
            "email": "OncologyClinicalTrialsFargo@sanfordhealth.org"
          },
          {
            "name": "Daniel Almquist",
            "role": "PRINCIPAL_INVESTIGATOR"
          }
        ],
        "geoPoint": {
          "lat": 46.87719,
          "lon": -96.7898
        }
      },
      {
        "facility": "Sanford Roger Maris Cancer Center",
        "status": "RECRUITING",
        "city": "Fargo",
        "state": "North Dakota",
        "zip": "58122",
        "country": "United States",
        "contacts": [
          {
            "name": "Site Public Contact",
            "role": "CONTACT",
            "phone": "701-234-6161",
            "email": "OncologyClinicalTrialsFargo@sanfordhealth.org"
          },
          {
            "name": "Daniel Almquist",
            "role": "PRINCIPAL_INVESTIGATOR"
          }
        ],
        "geoPoint": {
          "lat": 46.87719,
          "lon": -96.7898
        }
      },
      {
        "facility": "University of Cincinnati Cancer Center-UC Medical Center",
        "status": "RECRUITING",
        "city": "Cincinnati",
        "state": "Ohio",
        "zip": "45219",
        "country": "United States",
        "contacts": [
          {
            "name": "Site Public Contact",
            "role": "CONTACT",
            "phone": "513-584-7698",
            "email": "cancer@uchealth.com"
          },
          {
            "name": "Kyle Wang",
            "role": "PRINCIPAL_INVESTIGATOR"
          }
        ],
        "geoPoint": {
          "lat": 39.12711,
          "lon": -84.51439
        }
      },
      {
        "facility": "Case Western Reserve University",
        "status": "RECRUITING",
        "city": "Cleveland",
        "state": "Ohio",
        "zip": "44106",
        "country": "United States",
        "contacts": [
          {
            "name": "Site Public Contact",
            "role": "CONTACT",
            "phone": "800-641-2422",
            "email": "CTUReferral@UHhospitals.org"
          },
          {
            "name": "Prashant Vempati",
            "role": "PRINCIPAL_INVESTIGATOR"
          }
        ],
        "geoPoint": {
          "lat": 41.4995,
          "lon": -81.69541
        }
      },
      {
        "facility": "Ohio State University Comprehensive Cancer Center",
        "status": "RECRUITING",
        "city": "Columbus",
        "state": "Ohio",
        "zip": "43210",
        "country": "United States",
        "contacts": [
          {
            "name": "Site Public Contact",
            "role": "CONTACT",
            "phone": "800-293-5066",
            "email": "Jamesline@osumc.edu"
          },
          {
            "name": "Raj Singh",
            "role": "PRINCIPAL_INVESTIGATOR"
          }
        ],
        "geoPoint": {
          "lat": 39.96118,
          "lon": -82.99879
        }
      },
      {
        "facility": "Riverside Methodist Hospital",
        "status": "RECRUITING",
        "city": "Columbus",
        "state": "Ohio",
        "zip": "43214",
        "country": "United States",
        "contacts": [
          {
            "name": "Site Public Contact",
            "role": "CONTACT",
            "phone": "614-788-3860",
            "email": "Jennifer.Sexton@ohiohealth.com"
          },
          {
            "name": "Andrew B. Freeman",
            "role": "PRINCIPAL_INVESTIGATOR"
          }
        ],
        "geoPoint": {
          "lat": 39.96118,
          "lon": -82.99879
        }
      },
      {
        "facility": "Grant Medical Center",
        "status": "RECRUITING",
        "city": "Columbus",
        "state": "Ohio",
        "zip": "43215",
        "country": "United States",
        "contacts": [
          {
            "name": "Site Public Contact",
            "role": "CONTACT",
            "phone": "614-788-3860",
            "email": "Jennifer.Sexton@ohiohealth.com"
          },
          {
            "name": "Andrew B. Freeman",
            "role": "PRINCIPAL_INVESTIGATOR"
          }
        ],
        "geoPoint": {
          "lat": 39.96118,
          "lon": -82.99879
        }
      },
      {
        "facility": "Delaware Health Center-Grady Cancer Center",
        "status": "RECRUITING",
        "city": "Delaware",
        "state": "Ohio",
        "zip": "43015",
        "country": "United States",
        "contacts": [
          {
            "name": "Site Public Contact",
            "role": "CONTACT",
            "phone": "614-788-3860",
            "email": "Jennifer.Sexton@ohiohealth.com"
          },
          {
            "name": "Andrew B. Freeman",
            "role": "PRINCIPAL_INVESTIGATOR"
          }
        ],
        "geoPoint": {
          "lat": 40.29867,
          "lon": -83.06797
        }
      },
      {
        "facility": "Grady Memorial Hospital",
        "status": "RECRUITING",
        "city": "Delaware",
        "state": "Ohio",
        "zip": "43015",
        "country": "United States",
        "contacts": [
          {
            "name": "Site Public Contact",
            "role": "CONTACT",
            "phone": "614-788-3860",
            "email": "Jennifer.Sexton@ohiohealth.com"
          },
          {
            "name": "Andrew B. Freeman",
            "role": "PRINCIPAL_INVESTIGATOR"
          }
        ],
        "geoPoint": {
          "lat": 40.29867,
          "lon": -83.06797
        }
      },
      {
        "facility": "UH Seidman Cancer Center at Lake Health Mentor Campus",
        "status": "RECRUITING",
        "city": "Mentor",
        "state": "Ohio",
        "zip": "44060",
        "country": "United States",
        "contacts": [
          {
            "name": "Site Public Contact",
            "role": "CONTACT",
            "phone": "800-641-2422",
            "email": "CTUReferral@UHhospitals.org"
          },
          {
            "name": "Prashant Vempati",
            "role": "PRINCIPAL_INVESTIGATOR"
          }
        ],
        "geoPoint": {
          "lat": 41.66616,
          "lon": -81.33955
        }
      },
      {
        "facility": "Mercy Health - Perrysburg Hospital",
        "status": "RECRUITING",
        "city": "Perrysburg",
        "state": "Ohio",
        "zip": "43551",
        "country": "United States",
        "contacts": [
          {
            "name": "Site Public Contact",
            "role": "CONTACT",
            "phone": "614-488-2745",
            "email": "Jeffh@columbusccop.org"
          },
          {
            "name": "William A. Wilson",
            "role": "PRINCIPAL_INVESTIGATOR"
          }
        ],
        "geoPoint": {
          "lat": 41.557,
          "lon": -83.62716
        }
      },
      {
        "facility": "Mercy Health - Saint Anne Hospital",
        "status": "SUSPENDED",
        "city": "Toledo",
        "state": "Ohio",
        "zip": "43623",
        "country": "United States",
        "geoPoint": {
          "lat": 41.66394,
          "lon": -83.55521
        }
      },
      {
        "facility": "University of Cincinnati Cancer Center-West Chester",
        "status": "RECRUITING",
        "city": "West Chester",
        "state": "Ohio",
        "zip": "45069",
        "country": "United States",
        "contacts": [
          {
            "name": "Site Public Contact",
            "role": "CONTACT",
            "phone": "513-584-7698",
            "email": "cancer@uchealth.com"
          },
          {
            "name": "Kyle Wang",
            "role": "PRINCIPAL_INVESTIGATOR"
          }
        ],
        "geoPoint": {
          "lat": 39.33172,
          "lon": -84.40716
        }
      },
      {
        "facility": "University of Oklahoma Health Sciences Center",
        "status": "RECRUITING",
        "city": "Oklahoma City",
        "state": "Oklahoma",
        "zip": "73104",
        "country": "United States",
        "contacts": [
          {
            "name": "Site Public Contact",
            "role": "CONTACT",
            "phone": "405-271-8777",
            "email": "ou-clinical-trials@ouhsc.edu"
          },
          {
            "name": "Tyler Gunter",
            "role": "PRINCIPAL_INVESTIGATOR"
          }
        ],
        "geoPoint": {
          "lat": 35.46756,
          "lon": -97.51643
        }
      },
      {
        "facility": "Saint Luke's Cancer Center - Allentown",
        "status": "ACTIVE_NOT_RECRUITING",
        "city": "Allentown",
        "state": "Pennsylvania",
        "zip": "18104",
        "country": "United States",
        "geoPoint": {
          "lat": 40.60843,
          "lon": -75.49018
        }
      },
      {
        "facility": "UPMC Altoona",
        "status": "RECRUITING",
        "city": "Altoona",
        "state": "Pennsylvania",
        "zip": "16601",
        "country": "United States",
        "contacts": [
          {
            "name": "Site Public Contact",
            "role": "CONTACT",
            "phone": "412-339-5294",
            "email": "Roster@nrgoncology.org"
          },
          {
            "name": "Serah Choi",
            "role": "PRINCIPAL_INVESTIGATOR"
          }
        ],
        "geoPoint": {
          "lat": 40.51868,
          "lon": -78.39474
        }
      },
      {
        "facility": "Saint Luke's University Hospital-Bethlehem Campus",
        "status": "ACTIVE_NOT_RECRUITING",
        "city": "Bethlehem",
        "state": "Pennsylvania",
        "zip": "18015",
        "country": "United States",
        "geoPoint": {
          "lat": 40.62593,
          "lon": -75.37046
        }
      },
      {
        "facility": "Carlisle Regional Cancer Center",
        "status": "RECRUITING",
        "city": "Carlisle",
        "state": "Pennsylvania",
        "zip": "17015",
        "country": "United States",
        "contacts": [
          {
            "name": "Site Public Contact",
            "role": "CONTACT",
            "phone": "412-339-5294",
            "email": "Roster@nrgoncology.org"
          },
          {
            "name": "Serah Choi",
            "role": "PRINCIPAL_INVESTIGATOR"
          }
        ],
        "geoPoint": {
          "lat": 40.20148,
          "lon": -77.18887
        }
      },
      {
        "facility": "Christiana Care Health System-Concord Health Center",
        "status": "RECRUITING",
        "city": "Chadds Ford",
        "state": "Pennsylvania",
        "zip": "19317",
        "country": "United States",
        "contacts": [
          {
            "name": "Site Public Contact",
            "role": "CONTACT",
            "phone": "302-623-4450",
            "email": "lbarone@christianacare.org"
          },
          {
            "name": "Gregory A. Masters",
            "role": "PRINCIPAL_INVESTIGATOR"
          }
        ],
        "geoPoint": {
          "lat": 39.87178,
          "lon": -75.59132
        }
      },
      {
        "facility": "Chambersburg Hospital",
        "status": "RECRUITING",
        "city": "Chambersburg",
        "state": "Pennsylvania",
        "zip": "17201",
        "country": "United States",
        "contacts": [
          {
            "name": "Site Public Contact",
            "role": "CONTACT",
            "phone": "412-339-5294",
            "email": "Roster@nrgoncology.org"
          },
          {
            "name": "Amit B. Shah",
            "role": "PRINCIPAL_INVESTIGATOR"
          }
        ],
        "geoPoint": {
          "lat": 39.93759,
          "lon": -77.6611
        }
      },
      {
        "facility": "Geisinger Medical Center",
        "status": "RECRUITING",
        "city": "Danville",
        "state": "Pennsylvania",
        "zip": "17822",
        "country": "United States",
        "contacts": [
          {
            "name": "Site Public Contact",
            "role": "CONTACT",
            "phone": "570-271-5251",
            "email": "HemonCCTrials@geisinger.edu"
          },
          {
            "name": "Fiori Alite",
            "role": "PRINCIPAL_INVESTIGATOR"
          }
        ],
        "geoPoint": {
          "lat": 40.96342,
          "lon": -76.61273
        }
      },
      {
        "facility": "Saint Luke's Hospital-Anderson Campus",
        "status": "ACTIVE_NOT_RECRUITING",
        "city": "Easton",
        "state": "Pennsylvania",
        "zip": "18045",
        "country": "United States",
        "geoPoint": {
          "lat": 40.68843,
          "lon": -75.22073
        }
      },
      {
        "facility": "Ephrata Cancer Center",
        "status": "RECRUITING",
        "city": "Ephrata",
        "state": "Pennsylvania",
        "zip": "17522",
        "country": "United States",
        "contacts": [
          {
            "name": "Site Public Contact",
            "role": "CONTACT",
            "phone": "717-721-4840"
          },
          {
            "name": "Amit B. Shah",
            "role": "PRINCIPAL_INVESTIGATOR"
          }
        ],
        "geoPoint": {
          "lat": 40.17982,
          "lon": -76.17884
        }
      },
      {
        "facility": "Saint Vincent Hospital",
        "status": "ACTIVE_NOT_RECRUITING",
        "city": "Erie",
        "state": "Pennsylvania",
        "zip": "16544",
        "country": "United States",
        "geoPoint": {
          "lat": 42.12922,
          "lon": -80.08506
        }
      },
      {
        "facility": "Adams Cancer Center",
        "status": "RECRUITING",
        "city": "Gettysburg",
        "state": "Pennsylvania",
        "zip": "17325",
        "country": "United States",
        "contacts": [
          {
            "name": "Site Public Contact",
            "role": "CONTACT",
            "phone": "877-441-7957"
          },
          {
            "name": "Amit B. Shah",
            "role": "PRINCIPAL_INVESTIGATOR"
          }
        ],
        "geoPoint": {
          "lat": 39.83093,
          "lon": -77.2311
        }
      },
      {
        "facility": "UPMC Cancer Centers - Arnold Palmer Pavilion",
        "status": "RECRUITING",
        "city": "Greensburg",
        "state": "Pennsylvania",
        "zip": "15601",
        "country": "United States",
        "contacts": [
          {
            "name": "Site Public Contact",
            "role": "CONTACT",
            "phone": "724-838-1900"
          },
          {
            "name": "Serah Choi",
            "role": "PRINCIPAL_INVESTIGATOR"
          }
        ],
        "geoPoint": {
          "lat": 40.30146,
          "lon": -79.53893
        }
      },
      {
        "facility": "UPMC Pinnacle Cancer Center/Community Osteopathic Campus",
        "status": "RECRUITING",
        "city": "Harrisburg",
        "state": "Pennsylvania",
        "zip": "17109",
        "country": "United States",
        "contacts": [
          {
            "name": "Site Public Contact",
            "role": "CONTACT",
            "phone": "717-724-6765",
            "email": "klitchfield@PINNACLEHEALTH.org"
          },
          {
            "name": "Serah Choi",
            "role": "PRINCIPAL_INVESTIGATOR"
          }
        ],
        "geoPoint": {
          "lat": 40.2737,
          "lon": -76.88442
        }
      },
      {
        "facility": "Sechler Family Cancer Center",
        "status": "RECRUITING",
        "city": "Lebanon",
        "state": "Pennsylvania",
        "zip": "17042",
        "country": "United States",
        "contacts": [
          {
            "name": "Site Public Contact",
            "role": "CONTACT",
            "phone": "717-741-8303",
            "email": "doxenberg@wellspan.org"
          },
          {
            "name": "Amit B. Shah",
            "role": "PRINCIPAL_INVESTIGATOR"
          }
        ],
        "geoPoint": {
          "lat": 40.34093,
          "lon": -76.41135
        }
      },
      {
        "facility": "Geisinger Medical Oncology-Lewisburg",
        "status": "RECRUITING",
        "city": "Lewisburg",
        "state": "Pennsylvania",
        "zip": "17837",
        "country": "United States",
        "contacts": [
          {
            "name": "Site Public Contact",
            "role": "CONTACT",
            "phone": "570-374-8555",
            "email": "HemonCCTrials@geisinger.edu"
          },
          {
            "name": "Fiori Alite",
            "role": "PRINCIPAL_INVESTIGATOR"
          }
        ],
        "geoPoint": {
          "lat": 40.96453,
          "lon": -76.88441
        }
      },
      {
        "facility": "UPMC Cancer Center - Monroeville",
        "status": "RECRUITING",
        "city": "Monroeville",
        "state": "Pennsylvania",
        "zip": "15146",
        "country": "United States",
        "contacts": [
          {
            "name": "Site Public Contact",
            "role": "CONTACT",
            "phone": "412-339-5294",
            "email": "Roster@nrgoncology.org"
          },
          {
            "name": "Serah Choi",
            "role": "PRINCIPAL_INVESTIGATOR"
          }
        ],
        "geoPoint": {
          "lat": 40.42118,
          "lon": -79.7881
        }
      },
      {
        "facility": "Thomas Jefferson University Hospital",
        "status": "SUSPENDED",
        "city": "Philadelphia",
        "state": "Pennsylvania",
        "zip": "19107",
        "country": "United States",
        "geoPoint": {
          "lat": 39.95238,
          "lon": -75.16362
        }
      },
      {
        "facility": "Jefferson Torresdale Hospital",
        "status": "SUSPENDED",
        "city": "Philadelphia",
        "state": "Pennsylvania",
        "zip": "19114",
        "country": "United States",
        "geoPoint": {
          "lat": 39.95238,
          "lon": -75.16362
        }
      },
      {
        "facility": "Allegheny General Hospital",
        "status": "ACTIVE_NOT_RECRUITING",
        "city": "Pittsburgh",
        "state": "Pennsylvania",
        "zip": "15212",
        "country": "United States",
        "geoPoint": {
          "lat": 40.44062,
          "lon": -79.99589
        }
      },
      {
        "facility": "UPMC-Magee Womens Hospital",
        "status": "RECRUITING",
        "city": "Pittsburgh",
        "state": "Pennsylvania",
        "zip": "15213",
        "country": "United States",
        "contacts": [
          {
            "name": "Site Public Contact",
            "role": "CONTACT",
            "phone": "412-647-2811"
          },
          {
            "name": "Serah Choi",
            "role": "PRINCIPAL_INVESTIGATOR"
          }
        ],
        "geoPoint": {
          "lat": 40.44062,
          "lon": -79.99589
        }
      },
      {
        "facility": "UPMC-Presbyterian Hospital",
        "status": "RECRUITING",
        "city": "Pittsburgh",
        "state": "Pennsylvania",
        "zip": "15213",
        "country": "United States",
        "contacts": [
          {
            "name": "Site Public Contact",
            "role": "CONTACT",
            "phone": "412-647-2811"
          },
          {
            "name": "Serah Choi",
            "role": "PRINCIPAL_INVESTIGATOR"
          }
        ],
        "geoPoint": {
          "lat": 40.44062,
          "lon": -79.99589
        }
      },
      {
        "facility": "UPMC-Saint Margaret",
        "status": "RECRUITING",
        "city": "Pittsburgh",
        "state": "Pennsylvania",
        "zip": "15215",
        "country": "United States",
        "contacts": [
          {
            "name": "Site Public Contact",
            "role": "CONTACT",
            "phone": "412-784-4900"
          },
          {
            "name": "Serah Choi",
            "role": "PRINCIPAL_INVESTIGATOR"
          }
        ],
        "geoPoint": {
          "lat": 40.44062,
          "lon": -79.99589
        }
      },
      {
        "facility": "UPMC-Shadyside Hospital",
        "status": "RECRUITING",
        "city": "Pittsburgh",
        "state": "Pennsylvania",
        "zip": "15232",
        "country": "United States",
        "contacts": [
          {
            "name": "Site Public Contact",
            "role": "CONTACT",
            "phone": "412-621-2334"
          },
          {
            "name": "Serah Choi",
            "role": "PRINCIPAL_INVESTIGATOR"
          }
        ],
        "geoPoint": {
          "lat": 40.44062,
          "lon": -79.99589
        }
      },
      {
        "facility": "UPMC-Passavant Hospital",
        "status": "RECRUITING",
        "city": "Pittsburgh",
        "state": "Pennsylvania",
        "zip": "15237",
        "country": "United States",
        "contacts": [
          {
            "name": "Site Public Contact",
            "role": "CONTACT",
            "phone": "412-367-6454"
          },
          {
            "name": "Serah Choi",
            "role": "PRINCIPAL_INVESTIGATOR"
          }
        ],
        "geoPoint": {
          "lat": 40.44062,
          "lon": -79.99589
        }
      },
      {
        "facility": "UPMC-Saint Clair Hospital Cancer Center",
        "status": "RECRUITING",
        "city": "Pittsburgh",
        "state": "Pennsylvania",
        "zip": "15243",
        "country": "United States",
        "contacts": [
          {
            "name": "Site Public Contact",
            "role": "CONTACT",
            "phone": "412-502-3920"
          },
          {
            "name": "Serah Choi",
            "role": "PRINCIPAL_INVESTIGATOR"
          }
        ],
        "geoPoint": {
          "lat": 40.44062,
          "lon": -79.99589
        }
      },
      {
        "facility": "Saint Luke's Hospital - Upper Bucks Campus",
        "status": "ACTIVE_NOT_RECRUITING",
        "city": "Quakertown",
        "state": "Pennsylvania",
        "zip": "18951",
        "country": "United States",
        "geoPoint": {
          "lat": 40.44177,
          "lon": -75.34157
        }
      },
      {
        "facility": "Saint Luke's Hospital-Quakertown Campus",
        "status": "SUSPENDED",
        "city": "Quakertown",
        "state": "Pennsylvania",
        "zip": "18951",
        "country": "United States",
        "geoPoint": {
          "lat": 40.44177,
          "lon": -75.34157
        }
      },
      {
        "facility": "Saint Luke's Hospital - Monroe Campus",
        "status": "ACTIVE_NOT_RECRUITING",
        "city": "Stroudsburg",
        "state": "Pennsylvania",
        "zip": "18360",
        "country": "United States",
        "geoPoint": {
          "lat": 40.98676,
          "lon": -75.19462
        }
      },
      {
        "facility": "Geisinger Wyoming Valley/Henry Cancer Center",
        "status": "RECRUITING",
        "city": "Wilkes-Barre",
        "state": "Pennsylvania",
        "zip": "18711",
        "country": "United States",
        "contacts": [
          {
            "name": "Site Public Contact",
            "role": "CONTACT",
            "phone": "570-271-5251",
            "email": "HemonCCTrials@geisinger.edu"
          },
          {
            "name": "Fiori Alite",
            "role": "PRINCIPAL_INVESTIGATOR"
          }
        ],
        "geoPoint": {
          "lat": 41.24591,
          "lon": -75.88131
        }
      },
      {
        "facility": "Divine Providence Hospital",
        "status": "RECRUITING",
        "city": "Williamsport",
        "state": "Pennsylvania",
        "zip": "17754",
        "country": "United States",
        "contacts": [
          {
            "name": "Site Public Contact",
            "role": "CONTACT",
            "phone": "412-339-5294",
            "email": "Roster@nrgoncology.org"
          },
          {
            "name": "Serah Choi",
            "role": "PRINCIPAL_INVESTIGATOR"
          }
        ],
        "geoPoint": {
          "lat": 41.24119,
          "lon": -77.00108
        }
      },
      {
        "facility": "WellSpan Health-York Cancer Center",
        "status": "RECRUITING",
        "city": "York",
        "state": "Pennsylvania",
        "zip": "17403",
        "country": "United States",
        "contacts": [
          {
            "name": "Site Public Contact",
            "role": "CONTACT",
            "phone": "877-441-7957"
          },
          {
            "name": "Amit B. Shah",
            "role": "PRINCIPAL_INVESTIGATOR"
          }
        ],
        "geoPoint": {
          "lat": 39.9626,
          "lon": -76.72774
        }
      },
      {
        "facility": "WellSpan Health-York Hospital",
        "status": "RECRUITING",
        "city": "York",
        "state": "Pennsylvania",
        "zip": "17403",
        "country": "United States",
        "contacts": [
          {
            "name": "Site Public Contact",
            "role": "CONTACT",
            "phone": "877-441-7957"
          },
          {
            "name": "Amit B. Shah",
            "role": "PRINCIPAL_INVESTIGATOR"
          }
        ],
        "geoPoint": {
          "lat": 39.9626,
          "lon": -76.72774
        }
      },
      {
        "facility": "UPMC Memorial",
        "status": "RECRUITING",
        "city": "York",
        "state": "Pennsylvania",
        "zip": "17408",
        "country": "United States",
        "contacts": [
          {
            "name": "Site Public Contact",
            "role": "CONTACT",
            "phone": "717-724-6760"
          },
          {
            "name": "Serah Choi",
            "role": "PRINCIPAL_INVESTIGATOR"
          }
        ],
        "geoPoint": {
          "lat": 39.9626,
          "lon": -76.72774
        }
      },
      {
        "facility": "McLeod Regional Medical Center",
        "status": "RECRUITING",
        "city": "Florence",
        "state": "South Carolina",
        "zip": "29506",
        "country": "United States",
        "contacts": [
          {
            "name": "Site Public Contact",
            "role": "CONTACT",
            "phone": "843-777-0770",
            "email": "dorie.sturgill@mcleodhealth.org"
          },
          {
            "name": "Rajesh Bajaj",
            "role": "PRINCIPAL_INVESTIGATOR"
          }
        ],
        "geoPoint": {
          "lat": 34.19543,
          "lon": -79.76256
        }
      },
      {
        "facility": "Gibbs Cancer Center-Gaffney",
        "status": "ACTIVE_NOT_RECRUITING",
        "city": "Gaffney",
        "state": "South Carolina",
        "zip": "29341",
        "country": "United States",
        "geoPoint": {
          "lat": 35.07179,
          "lon": -81.64982
        }
      },
      {
        "facility": "Self Regional Healthcare",
        "status": "RECRUITING",
        "city": "Greenwood",
        "state": "South Carolina",
        "zip": "29646",
        "country": "United States",
        "contacts": [
          {
            "name": "Site Public Contact",
            "role": "CONTACT",
            "phone": "864-725-4771",
            "email": "nmcgaha@selfregional.org"
          },
          {
            "name": "Charlotte Rivers",
            "role": "PRINCIPAL_INVESTIGATOR"
          }
        ],
        "geoPoint": {
          "lat": 34.1954,
          "lon": -82.16179
        }
      },
      {
        "facility": "Gibbs Cancer Center-Pelham",
        "status": "ACTIVE_NOT_RECRUITING",
        "city": "Greer",
        "state": "South Carolina",
        "zip": "29651",
        "country": "United States",
        "geoPoint": {
          "lat": 34.93873,
          "lon": -82.22706
        }
      },
      {
        "facility": "Spartanburg Medical Center",
        "status": "ACTIVE_NOT_RECRUITING",
        "city": "Spartanburg",
        "state": "South Carolina",
        "zip": "29303",
        "country": "United States",
        "geoPoint": {
          "lat": 34.94957,
          "lon": -81.93205
        }
      },
      {
        "facility": "SMC Center for Hematology Oncology Union",
        "status": "ACTIVE_NOT_RECRUITING",
        "city": "Union",
        "state": "South Carolina",
        "zip": "29379",
        "country": "United States",
        "geoPoint": {
          "lat": 34.71541,
          "lon": -81.62371
        }
      },
      {
        "facility": "Sanford Cancer Center Oncology Clinic",
        "status": "RECRUITING",
        "city": "Sioux Falls",
        "state": "South Dakota",
        "zip": "57104",
        "country": "United States",
        "contacts": [
          {
            "name": "Site Public Contact",
            "role": "CONTACT",
            "phone": "605-312-3320",
            "email": "OncologyClinicalTrialsSF@sanfordhealth.org"
          },
          {
            "name": "Daniel Almquist",
            "role": "PRINCIPAL_INVESTIGATOR"
          }
        ],
        "geoPoint": {
          "lat": 43.54369,
          "lon": -96.72796
        }
      },
      {
        "facility": "Avera Cancer Institute",
        "status": "ACTIVE_NOT_RECRUITING",
        "city": "Sioux Falls",
        "state": "South Dakota",
        "zip": "57105",
        "country": "United States",
        "geoPoint": {
          "lat": 43.54369,
          "lon": -96.72796
        }
      },
      {
        "facility": "Sanford USD Medical Center - Sioux Falls",
        "status": "RECRUITING",
        "city": "Sioux Falls",
        "state": "South Dakota",
        "zip": "57117-5134",
        "country": "United States",
        "contacts": [
          {
            "name": "Site Public Contact",
            "role": "CONTACT",
            "phone": "605-312-3320",
            "email": "OncologyClinicalTrialsSF@SanfordHealth.org"
          },
          {
            "name": "Daniel Almquist",
            "role": "PRINCIPAL_INVESTIGATOR"
          }
        ],
        "geoPoint": {
          "lat": 43.54369,
          "lon": -96.72796
        }
      },
      {
        "facility": "MD Anderson in The Woodlands",
        "status": "RECRUITING",
        "city": "Conroe",
        "state": "Texas",
        "zip": "77384",
        "country": "United States",
        "contacts": [
          {
            "name": "Site Public Contact",
            "role": "CONTACT",
            "phone": "866-632-6789",
            "email": "askmdanderson@mdanderson.org"
          },
          {
            "name": "Martin C. Tom",
            "role": "PRINCIPAL_INVESTIGATOR"
          }
        ],
        "geoPoint": {
          "lat": 30.31188,
          "lon": -95.45605
        }
      },
      {
        "facility": "M D Anderson Cancer Center",
        "status": "RECRUITING",
        "city": "Houston",
        "state": "Texas",
        "zip": "77030",
        "country": "United States",
        "contacts": [
          {
            "name": "Site Public Contact",
            "role": "CONTACT",
            "phone": "877-632-6789",
            "email": "askmdanderson@mdanderson.org"
          },
          {
            "name": "Martin C. Tom",
            "role": "PRINCIPAL_INVESTIGATOR"
          }
        ],
        "geoPoint": {
          "lat": 29.76328,
          "lon": -95.36327
        }
      },
      {
        "facility": "MD Anderson West Houston",
        "status": "RECRUITING",
        "city": "Houston",
        "state": "Texas",
        "zip": "77079",
        "country": "United States",
        "contacts": [
          {
            "name": "Site Public Contact",
            "role": "CONTACT",
            "phone": "877-632-6789",
            "email": "askmdanderson@mdanderson.org"
          },
          {
            "name": "Martin C. Tom",
            "role": "PRINCIPAL_INVESTIGATOR"
          }
        ],
        "geoPoint": {
          "lat": 29.76328,
          "lon": -95.36327
        }
      },
      {
        "facility": "MD Anderson League City",
        "status": "RECRUITING",
        "city": "League City",
        "state": "Texas",
        "zip": "77573",
        "country": "United States",
        "contacts": [
          {
            "name": "Site Public Contact",
            "role": "CONTACT",
            "phone": "877-632-6789",
            "email": "askmdanderson@mdanderson.org"
          },
          {
            "name": "Martin C. Tom",
            "role": "PRINCIPAL_INVESTIGATOR"
          }
        ],
        "geoPoint": {
          "lat": 29.50745,
          "lon": -95.09493
        }
      },
      {
        "facility": "MD Anderson in Sugar Land",
        "status": "RECRUITING",
        "city": "Sugar Land",
        "state": "Texas",
        "zip": "77478",
        "country": "United States",
        "contacts": [
          {
            "name": "Site Public Contact",
            "role": "CONTACT",
            "phone": "877-632-6789",
            "email": "askmdanderson@mdanderson.org"
          },
          {
            "name": "Martin C. Tom",
            "role": "PRINCIPAL_INVESTIGATOR"
          }
        ],
        "geoPoint": {
          "lat": 29.61968,
          "lon": -95.63495
        }
      },
      {
        "facility": "VCU Massey Comprehensive Cancer Center",
        "status": "ACTIVE_NOT_RECRUITING",
        "city": "Richmond",
        "state": "Virginia",
        "zip": "23298",
        "country": "United States",
        "geoPoint": {
          "lat": 37.55376,
          "lon": -77.46026
        }
      },
      {
        "facility": "Langlade Hospital and Cancer Center",
        "status": "RECRUITING",
        "city": "Antigo",
        "state": "Wisconsin",
        "zip": "54409",
        "country": "United States",
        "contacts": [
          {
            "name": "Site Public Contact",
            "role": "CONTACT",
            "phone": "715-623-9869",
            "email": "Juli.Alford@aspirus.org"
          },
          {
            "name": "Andrew J. Huang",
            "role": "PRINCIPAL_INVESTIGATOR"
          }
        ],
        "geoPoint": {
          "lat": 45.14025,
          "lon": -89.15234
        }
      },
      {
        "facility": "ThedaCare Regional Cancer Center",
        "status": "RECRUITING",
        "city": "Appleton",
        "state": "Wisconsin",
        "zip": "54911",
        "country": "United States",
        "contacts": [
          {
            "name": "Site Public Contact",
            "role": "CONTACT",
            "phone": "920-364-3604",
            "email": "ResearchDept@thedacare.org"
          },
          {
            "name": "Joseph A. Bovi",
            "role": "PRINCIPAL_INVESTIGATOR"
          }
        ],
        "geoPoint": {
          "lat": 44.26193,
          "lon": -88.41538
        }
      },
      {
        "facility": "Gundersen Lutheran Medical Center",
        "status": "ACTIVE_NOT_RECRUITING",
        "city": "La Crosse",
        "state": "Wisconsin",
        "zip": "54601",
        "country": "United States",
        "geoPoint": {
          "lat": 43.80136,
          "lon": -91.23958
        }
      },
      {
        "facility": "University of Wisconsin Carbone Cancer Center - Eastpark Medical Center",
        "status": "RECRUITING",
        "city": "Madison",
        "state": "Wisconsin",
        "zip": "53718",
        "country": "United States",
        "contacts": [
          {
            "name": "Site Public Contact",
            "role": "CONTACT",
            "phone": "800-622-8922",
            "email": "clinicaltrials@cancer.wisc.edu"
          },
          {
            "name": "Andrew M. Baschnagel",
            "role": "PRINCIPAL_INVESTIGATOR"
          }
        ],
        "geoPoint": {
          "lat": 43.07305,
          "lon": -89.40123
        }
      },
      {
        "facility": "University of Wisconsin Carbone Cancer Center - University Hospital",
        "status": "RECRUITING",
        "city": "Madison",
        "state": "Wisconsin",
        "zip": "53792",
        "country": "United States",
        "contacts": [
          {
            "name": "Site Public Contact",
            "role": "CONTACT",
            "phone": "800-622-8922",
            "email": "clinicaltrials@cancer.wisc.edu"
          },
          {
            "name": "Andrew M. Baschnagel",
            "role": "PRINCIPAL_INVESTIGATOR"
          }
        ],
        "geoPoint": {
          "lat": 43.07305,
          "lon": -89.40123
        }
      },
      {
        "facility": "Froedtert Menomonee Falls Hospital",
        "status": "RECRUITING",
        "city": "Menomonee Falls",
        "state": "Wisconsin",
        "zip": "53051",
        "country": "United States",
        "contacts": [
          {
            "name": "Site Public Contact",
            "role": "CONTACT",
            "phone": "262-257-5100"
          },
          {
            "name": "Lindsay L. Puckett",
            "role": "PRINCIPAL_INVESTIGATOR"
          }
        ],
        "geoPoint": {
          "lat": 43.1789,
          "lon": -88.11731
        }
      },
      {
        "facility": "Medical College of Wisconsin",
        "status": "RECRUITING",
        "city": "Milwaukee",
        "state": "Wisconsin",
        "zip": "53226",
        "country": "United States",
        "contacts": [
          {
            "name": "Site Public Contact",
            "role": "CONTACT",
            "phone": "414-805-3666"
          },
          {
            "name": "Lindsay L. Puckett",
            "role": "PRINCIPAL_INVESTIGATOR"
          }
        ],
        "geoPoint": {
          "lat": 43.0389,
          "lon": -87.90647
        }
      },
      {
        "facility": "Cancer Center of Western Wisconsin",
        "status": "RECRUITING",
        "city": "New Richmond",
        "state": "Wisconsin",
        "zip": "54017",
        "country": "United States",
        "contacts": [
          {
            "name": "Site Public Contact",
            "role": "CONTACT",
            "phone": "952-993-1517",
            "email": "mmcorc@healthpartners.com"
          },
          {
            "name": "Yan Ji",
            "role": "PRINCIPAL_INVESTIGATOR"
          }
        ],
        "geoPoint": {
          "lat": 45.12302,
          "lon": -92.53659
        }
      },
      {
        "facility": "Drexel Town Square Health Center",
        "status": "RECRUITING",
        "city": "Oak Creek",
        "state": "Wisconsin",
        "zip": "53154",
        "country": "United States",
        "contacts": [
          {
            "name": "Site Public Contact",
            "role": "CONTACT",
            "phone": "414-805-0505"
          },
          {
            "name": "Lindsay L. Puckett",
            "role": "PRINCIPAL_INVESTIGATOR"
          }
        ],
        "geoPoint": {
          "lat": 42.88585,
          "lon": -87.86314
        }
      },
      {
        "facility": "Aspirus Cancer Care - James Beck Cancer Center",
        "status": "RECRUITING",
        "city": "Rhinelander",
        "state": "Wisconsin",
        "zip": "54501",
        "country": "United States",
        "contacts": [
          {
            "name": "Site Public Contact",
            "role": "CONTACT",
            "phone": "715-847-2353",
            "email": "Beth.Knetter@aspirus.org"
          },
          {
            "name": "Andrew J. Huang",
            "role": "PRINCIPAL_INVESTIGATOR"
          }
        ],
        "geoPoint": {
          "lat": 45.63662,
          "lon": -89.41208
        }
      },
      {
        "facility": "Aspirus Cancer Care - Stevens Point",
        "status": "RECRUITING",
        "city": "Stevens Point",
        "state": "Wisconsin",
        "zip": "54481",
        "country": "United States",
        "contacts": [
          {
            "name": "Site Public Contact",
            "role": "CONTACT",
            "phone": "715-847-2353",
            "email": "Beth.Knetter@aspirus.org"
          },
          {
            "name": "Andrew J. Huang",
            "role": "PRINCIPAL_INVESTIGATOR"
          }
        ],
        "geoPoint": {
          "lat": 44.52358,
          "lon": -89.57456
        }
      },
      {
        "facility": "Aspirus Regional Cancer Center",
        "status": "RECRUITING",
        "city": "Wausau",
        "state": "Wisconsin",
        "zip": "54401",
        "country": "United States",
        "contacts": [
          {
            "name": "Site Public Contact",
            "role": "CONTACT",
            "phone": "877-405-6866"
          },
          {
            "name": "Andrew J. Huang",
            "role": "PRINCIPAL_INVESTIGATOR"
          }
        ],
        "geoPoint": {
          "lat": 44.95914,
          "lon": -89.63012
        }
      },
      {
        "facility": "Froedtert West Bend Hospital/Kraemer Cancer Center",
        "status": "RECRUITING",
        "city": "West Bend",
        "state": "Wisconsin",
        "zip": "53095",
        "country": "United States",
        "contacts": [
          {
            "name": "Site Public Contact",
            "role": "CONTACT",
            "phone": "414-805-0505"
          },
          {
            "name": "Lindsay L. Puckett",
            "role": "PRINCIPAL_INVESTIGATOR"
          }
        ],
        "geoPoint": {
          "lat": 43.42528,
          "lon": -88.18343
        }
      },
      {
        "facility": "University Health Network-Princess Margaret Hospital",
        "status": "SUSPENDED",
        "city": "Toronto",
        "state": "Ontario",
        "zip": "M5G 2M9",
        "country": "Canada",
        "geoPoint": {
          "lat": 43.70643,
          "lon": -79.39864
        }
      },
      {
        "facility": "CHU de Quebec-L'Hotel-Dieu de Quebec (HDQ)",
        "status": "RECRUITING",
        "city": "Qubec",
        "state": "Quebec",
        "zip": "G1R 2J6",
        "country": "Canada",
        "contacts": [
          {
            "name": "Site Public Contact",
            "role": "CONTACT",
            "email": "rechclinique@crchuq.ulaval.ca"
          },
          {
            "name": "Isabelle Thibault",
            "role": "PRINCIPAL_INVESTIGATOR"
          }
        ],
        "geoPoint": {
          "lat": 46.81228,
          "lon": -71.21454
        }
      },
      {
        "facility": "Allan Blair Cancer Centre",
        "status": "RECRUITING",
        "city": "Regina",
        "state": "Saskatchewan",
        "zip": "S4T 7T1",
        "country": "Canada",
        "contacts": [
          {
            "name": "Site Public Contact",
            "role": "CONTACT",
            "phone": "306-766-2213"
          },
          {
            "name": "Taskia Mir",
            "role": "PRINCIPAL_INVESTIGATOR"
          }
        ],
        "geoPoint": {
          "lat": 50.45008,
          "lon": -104.6178
        }
      },
      {
        "facility": "Saskatoon Cancer Centre",
        "status": "RECRUITING",
        "city": "Saskatoon",
        "state": "Saskatchewan",
        "zip": "S7N 4H4",
        "country": "Canada",
        "contacts": [
          {
            "name": "Site Public Contact",
            "role": "CONTACT",
            "phone": "306-655-2914"
          },
          {
            "name": "Vijayananda Kundapur",
            "role": "PRINCIPAL_INVESTIGATOR"
          }
        ],
        "geoPoint": {
          "lat": 52.13238,
          "lon": -106.66892
        }
      }
    ],
    "key_inclusion_summary": [
      "Pathologically proven diagnosis of small cell lung cancer.",
      "Must have brain metastases no larger than 4 cm in diameter, and the total tumor volume must be 30 cm or less.",
      "Age 18 years or older.",
      "Karnofsky performance status of 70 or greater.",
      "Patient must be proficient in English or French Canadian to complete neurocognitive testing."
    ],
    "key_exclusion_summary": [
      "Prior radiotherapy to the brain (SRS, WBRT, or PCI).",
      "Planned infusion of cytotoxic chemotherapy on the same day as brain radiation.",
      "Definitive leptomeningeal metastases.",
      "Contraindication to MR imaging.",
      "Current use of certain NMDA antagonists like amantadine, ketamine, or dextromethorphan."
    ]
  }