{
    "nct_id": "NCT04134260",
    "official_title": "Randomized Phase III Trial Incorporating Apalutamide and Advanced Imaging Into Salvage Treatment for Patients With Node-Positive Prostate Cancer After Radical Prostatectomy (INNOVATE*) *INtensifying Treatment for NOde Positive Prostate Cancer by VArying the Hormonal ThErapy",
    "brief_title": "Testing the Addition of the Drug Apalutamide to the Usual Hormone Therapy and Radiation Therapy After Surgery for Prostate Cancer, INNOVATE Trial",
    "cancer_type_display": "A study for patients with node-positive prostate cancer who have undergone a radical prostatectomy.",
    "cancer_tags": [
      "Prostate Adenocarcinoma",
      "Stage I Prostate Cancer AJCC v8",
      "Stage II Prostate Cancer AJCC v8",
      "Stage III Prostate Cancer AJCC v8",
      "Stage IVA Prostate Cancer AJCC v8"
    ],
    "link_to_trial": "https://clinicaltrials.gov/study/NCT04134260",
    "phase": "Phase 3",
    "recruitment_status": "RECRUITING",
    "last_update_date": "2025-09-08",
    "enrollment": 586,
    "min_age": 18,
    "max_age": null,
    "sex": "MALE",
    "is_metastatic_allowed": false,
    "performance_status_scale": "ECOG",
    "performance_status_values": [
      0,
      1
    ],
    "min_prior_lines": null,
    "max_prior_lines": null,
    "prior_treatments_required": [
      "Radical prostatectomy"
    ],
    "prior_treatments_excluded": [
      "Prior systemic chemotherapy for the study cancer",
      "Prior radiotherapy to the region of the study cancer",
      "Androgen deprivation therapy (ADT) prior to radical prostatectomy",
      "Prior treatment with androgen receptor signaling inhibitor (abiraterone acetate, enzalutamide, apalutamide, darolutamide)"
    ],
    "principal_investigator": "Ronald C Chen",
    "site_name": null,
    "contact_email": null,
    "contact_phone": "715-422-7718",
    
    "locations":[{"facility":"Cancer Center at Saint Joseph's","status":"RECRUITING","city":"Phoenix","state":"Arizona","zip":"85004","country":"United States","contacts":[{"name":"Site Public Contact","role":"CONTACT","phone":"720-874-1881","email":"ResearchInstituteInquiries@CommonSpirit.org"},{"name":"Shahzad Siddique","role":"PRINCIPAL_INVESTIGATOR"}],"geoPoint":{"lat":33.44838,"lon":-112.07404}},{"facility":"University of Arkansas for Medical Sciences","status":"RECRUITING","city":"Little Rock","state":"Arkansas","zip":"72205","country":"United States","contacts":[{"name":"Site Public Contact","role":"CONTACT","phone":"501-686-8274"},{"name":"Sanjay Maraboyina","role":"PRINCIPAL_INVESTIGATOR"}],"geoPoint":{"lat":34.74648,"lon":-92.28959}},{"facility":"Kaiser Permanente-Anaheim","status":"RECRUITING","city":"Anaheim","state":"California","zip":"92806","country":"United States","contacts":[{"name":"Site Public Contact","role":"CONTACT","phone":"800-398-3996","email":"clinical.trials@kp.org"},{"name":"Helen H. Moon","role":"PRINCIPAL_INVESTIGATOR"}],"geoPoint":{"lat":33.83529,"lon":-117.9145}},{"facility":"Kaiser Permanente-Baldwin Park","status":"RECRUITING","city":"Baldwin Park","state":"California","zip":"91706","country":"United States","contacts":[{"name":"Site Public Contact","role":"CONTACT","phone":"800-398-3996","email":"clinical.trials@kp.org"},{"name":"Helen H. Moon","role":"PRINCIPAL_INVESTIGATOR"}],"geoPoint":{"lat":34.08529,"lon":-117.9609}},{"facility":"Kaiser Permanente-Bellflower","status":"RECRUITING","city":"Bellflower","state":"California","zip":"90706","country":"United States","contacts":[{"name":"Site Public Contact","role":"CONTACT","phone":"800-398-3996","email":"clinical.trials@kp.org"},{"name":"Helen H. Moon","role":"PRINCIPAL_INVESTIGATOR"}],"geoPoint":{"lat":33.88168,"lon":-118.11701}},{"facility":"Mercy Cancer Center - Carmichael","status":"RECRUITING","city":"Carmichael","state":"California","zip":"95608","country":"United States","contacts":[{"name":"Site Public Contact","role":"CONTACT","phone":"720-874-1881","email":"ResearchInstituteInquiries@CommonSpirit.org"},{"name":"Shahzad Siddique","role":"PRINCIPAL_INVESTIGATOR"}],"geoPoint":{"lat":38.61713,"lon":-121.32828}},{"facility":"Mercy San Juan Medical Center","status":"RECRUITING","city":"Carmichael","state":"California","zip":"95608","country":"United States","contacts":[{"name":"Site Public Contact","role":"CONTACT","phone":"916-556-3301","email":"OncologyResearch@DignityHealth.org"},{"name":"Shahzad Siddique","role":"PRINCIPAL_INVESTIGATOR"}],"geoPoint":{"lat":38.61713,"lon":-121.32828}},{"facility":"Mercy Cancer Center - Elk Grove","status":"RECRUITING","city":"Elk Grove","state":"California","zip":"95758","country":"United States","contacts":[{"name":"Site Public Contact","role":"CONTACT","phone":"720-874-1881","email":"ResearchInstituteInquiries@CommonSpirit.org"},{"name":"Shahzad Siddique","role":"PRINCIPAL_INVESTIGATOR"}],"geoPoint":{"lat":38.4088,"lon":-121.37162}},{"facility":"Kaiser Permanente-Fontana","status":"RECRUITING","city":"Fontana","state":"California","zip":"92335","country":"United States","contacts":[{"name":"Site Public Contact","role":"CONTACT","phone":"800-398-3996","email":"clinical.trials@kp.org"},{"name":"Helen H. Moon","role":"PRINCIPAL_INVESTIGATOR"}],"geoPoint":{"lat":34.09223,"lon":-117.43505}},{"facility":"Marin General Hospital","status":"RECRUITING","city":"Greenbrae","state":"California","zip":"94904","country":"United States","contacts":[{"name":"Site Public Contact","role":"CONTACT","phone":"415-925-7325"},{"name":"Lloyd T. Miyawaki","role":"PRINCIPAL_INVESTIGATOR"}],"geoPoint":{"lat":37.94854,"lon":-122.5247}},{"facility":"Kaiser Permanente South Bay","status":"RECRUITING","city":"Harbor City","state":"California","zip":"90710","country":"United States","contacts":[{"name":"Site Public Contact","role":"CONTACT","phone":"800-398-3996","email":"clinical.trials@kp.org"},{"name":"Helen H. Moon","role":"PRINCIPAL_INVESTIGATOR"}],"geoPoint":{"lat":33.79002,"lon":-118.29785}},{"facility":"Kaiser Permanente-Irvine","status":"RECRUITING","city":"Irvine","state":"California","zip":"92618","country":"United States","contacts":[{"name":"Site Public Contact","role":"CONTACT","phone":"800-398-3996","email":"clinical.trials@kp.org"},{"name":"Helen H. Moon","role":"PRINCIPAL_INVESTIGATOR"}],"geoPoint":{"lat":33.66946,"lon":-117.82311}},{"facility":"Tibor Rubin VA Medical Center","status":"RECRUITING","city":"Long Beach","state":"California","zip":"90822","country":"United States","contacts":[{"name":"Site Public Contact","role":"CONTACT","phone":"562-826-8000"},{"name":"Pankaj Gupta","role":"PRINCIPAL_INVESTIGATOR"}],"geoPoint":{"lat":33.76696,"lon":-118.18923}},{"facility":"Kaiser Permanente Los Angeles Medical Center","status":"RECRUITING","city":"Los Angeles","state":"California","zip":"90027","country":"United States","contacts":[{"name":"Site Public Contact","role":"CONTACT","phone":"800-398-3996","email":"clinical.trials@kp.org"},{"name":"Helen H. Moon","role":"PRINCIPAL_INVESTIGATOR"}],"geoPoint":{"lat":34.05223,"lon":-118.24368}},{"facility":"Los Angeles General Medical Center","status":"ACTIVE_NOT_RECRUITING","city":"Los Angeles","state":"California","zip":"90033","country":"United States","geoPoint":{"lat":34.05223,"lon":-118.24368}},{"facility":"USC / Norris Comprehensive Cancer Center","status":"ACTIVE_NOT_RECRUITING","city":"Los Angeles","state":"California","zip":"90033","country":"United States","geoPoint":{"lat":34.05223,"lon":-118.24368}},{"facility":"Kaiser Permanente West Los Angeles","status":"RECRUITING","city":"Los Angeles","state":"California","zip":"90034","country":"United States","contacts":[{"name":"Site Public Contact","role":"CONTACT","phone":"800-398-3996","email":"clinical.trials@kp.org"},{"name":"Helen H. Moon","role":"PRINCIPAL_INVESTIGATOR"}],"geoPoint":{"lat":34.05223,"lon":-118.24368}},{"facility":"UCLA / Jonsson Comprehensive Cancer Center","status":"RECRUITING","city":"Los Angeles","state":"California","zip":"90095","country":"United States","contacts":[{"name":"Site Public Contact","role":"CONTACT","phone":"888-798-0719"},{"name":"Amar Kishan","role":"PRINCIPAL_INVESTIGATOR"}],"geoPoint":{"lat":34.05223,"lon":-118.24368}},{"facility":"Kaiser Permanente-Ontario","status":"RECRUITING","city":"Ontario","state":"California","zip":"91761","country":"United States","contacts":[{"name":"Site Public Contact","role":"CONTACT","phone":"800-398-3996","email":"clinical.trials@kp.org"},{"name":"Helen H. Moon","role":"PRINCIPAL_INVESTIGATOR"}],"geoPoint":{"lat":34.06334,"lon":-117.65089}},{"facility":"Kaiser Permanente - Panorama City","status":"RECRUITING","city":"Panorama City","state":"California","zip":"91402","country":"United States","contacts":[{"name":"Site Public Contact","role":"CONTACT","phone":"800-398-3996","email":"clinical.trials@kp.org"},{"name":"Helen H. Moon","role":"PRINCIPAL_INVESTIGATOR"}],"geoPoint":{"lat":34.22473,"lon":-118.44981}},{"facility":"Kaiser Permanente-Riverside","status":"RECRUITING","city":"Riverside","state":"California","zip":"92505","country":"United States","contacts":[{"name":"Site Public Contact","role":"CONTACT","phone":"800-398-3996","email":"clinical.trials@kp.org"},{"name":"Helen H. Moon","role":"PRINCIPAL_INVESTIGATOR"}],"geoPoint":{"lat":33.95335,"lon":-117.39616}},{"facility":"Mercy Cancer Center - Rocklin","status":"RECRUITING","city":"Rocklin","state":"California","zip":"95765","country":"United States","contacts":[{"name":"Site Public Contact","role":"CONTACT","phone":"720-874-1881","email":"ResearchInstituteInquiries@CommonSpirit.org"},{"name":"Shahzad Siddique","role":"PRINCIPAL_INVESTIGATOR"}],"geoPoint":{"lat":38.79073,"lon":-121.23578}},{"facility":"Mercy Cancer Center - Sacramento","status":"RECRUITING","city":"Sacramento","state":"California","zip":"95816","country":"United States","contacts":[{"name":"Site Public Contact","role":"CONTACT","phone":"720-874-1881","email":"ResearchInstituteInquiries@CommonSpirit.org"},{"name":"Shahzad Siddique","role":"PRINCIPAL_INVESTIGATOR"}],"geoPoint":{"lat":38.58157,"lon":-121.4944}},{"facility":"University of California Davis Comprehensive Cancer Center","status":"RECRUITING","city":"Sacramento","state":"California","zip":"95817","country":"United States","contacts":[{"name":"Site Public Contact","role":"CONTACT","phone":"916-734-3089"},{"name":"Richard K. Valicenti","role":"PRINCIPAL_INVESTIGATOR"}],"geoPoint":{"lat":38.58157,"lon":-121.4944}},{"facility":"Kaiser Permanente-San Diego Zion","status":"RECRUITING","city":"San Diego","state":"California","zip":"92120","country":"United States","contacts":[{"name":"Site Public Contact","role":"CONTACT","phone":"800-398-3996","email":"clinical.trials@kp.org"},{"name":"Helen H. Moon","role":"PRINCIPAL_INVESTIGATOR"}],"geoPoint":{"lat":32.71571,"lon":-117.16472}},{"facility":"UCSF Medical Center-Mount Zion","status":"RECRUITING","city":"San Francisco","state":"California","zip":"94115","country":"United States","contacts":[{"name":"Site Public Contact","role":"CONTACT","phone":"877-827-3222"},{"name":"Steven N. Seyedin","role":"PRINCIPAL_INVESTIGATOR"}],"geoPoint":{"lat":37.77493,"lon":-122.41942}},{"facility":"UCSF Medical Center-Parnassus","status":"RECRUITING","city":"San Francisco","state":"California","zip":"94143","country":"United States","contacts":[{"name":"Site Public Contact","role":"CONTACT","phone":"877-827-3222"},{"name":"Steven N. Seyedin","role":"PRINCIPAL_INVESTIGATOR"}],"geoPoint":{"lat":37.77493,"lon":-122.41942}},{"facility":"UCSF Medical Center-Mission Bay","status":"RECRUITING","city":"San Francisco","state":"California","zip":"94158","country":"United States","contacts":[{"name":"Site Public Contact","role":"CONTACT","phone":"877-827-3222","email":"cancertrials@ucsf.edu"},{"name":"Steven N. Seyedin","role":"PRINCIPAL_INVESTIGATOR"}],"geoPoint":{"lat":37.77493,"lon":-122.41942}},{"facility":"Kaiser Permanente-San Marcos","status":"RECRUITING","city":"San Marcos","state":"California","zip":"92078","country":"United States","contacts":[{"name":"Site Public Contact","role":"CONTACT","phone":"800-398-3996","email":"clinical.trials@kp.org"},{"name":"Helen H. Moon","role":"PRINCIPAL_INVESTIGATOR"}],"geoPoint":{"lat":33.14337,"lon":-117.16614}},{"facility":"Ridley-Tree Cancer Center","status":"ACTIVE_NOT_RECRUITING","city":"Santa Barbara","state":"California","zip":"93105","country":"United States","geoPoint":{"lat":34.42083,"lon":-119.69819}},{"facility":"Woodland Memorial Hospital","status":"RECRUITING","city":"Woodland","state":"California","zip":"95695","country":"United States","contacts":[{"name":"Site Public Contact","role":"CONTACT","phone":"720-874-1881","email":"ResearchInstituteInquiries@CommonSpirit.org"},{"name":"Shahzad Siddique","role":"PRINCIPAL_INVESTIGATOR"}],"geoPoint":{"lat":38.67852,"lon":-121.7733}},{"facility":"Kaiser Permanente-Woodland Hills","status":"RECRUITING","city":"Woodland Hills","state":"California","zip":"91367","country":"United States","contacts":[{"name":"Site Public Contact","role":"CONTACT","phone":"800-398-3996","email":"clinical.trials@kp.org"},{"name":"Helen H. Moon","role":"PRINCIPAL_INVESTIGATOR"}],"geoPoint":{"lat":34.16834,"lon":-118.60592}},{"facility":"Beebe South Coastal Health Campus","status":"RECRUITING","city":"Millville","state":"Delaware","zip":"19967","country":"United States","contacts":[{"name":"Site Public Contact","role":"CONTACT","phone":"302-291-6730","email":"research@beebehealthcare.org"},{"name":"Gregory A. Masters","role":"PRINCIPAL_INVESTIGATOR"}],"geoPoint":{"lat":38.54956,"lon":-75.12324}},{"facility":"Helen F Graham Cancer Center","status":"RECRUITING","city":"Newark","state":"Delaware","zip":"19713","country":"United States","contacts":[{"name":"Site Public Contact","role":"CONTACT","phone":"302-623-4450","email":"lbarone@christianacare.org"},{"name":"Gregory A. Masters","role":"PRINCIPAL_INVESTIGATOR"}],"geoPoint":{"lat":39.68372,"lon":-75.74966}},{"facility":"Medical Oncology Hematology Consultants PA","status":"RECRUITING","city":"Newark","state":"Delaware","zip":"19713","country":"United States","contacts":[{"name":"Site Public Contact","role":"CONTACT","phone":"302-623-4450","email":"lbarone@christianacare.org"},{"name":"Gregory A. Masters","role":"PRINCIPAL_INVESTIGATOR"}],"geoPoint":{"lat":39.68372,"lon":-75.74966}},{"facility":"Christiana Care Health System-Christiana Hospital","status":"RECRUITING","city":"Newark","state":"Delaware","zip":"19718","country":"United States","contacts":[{"name":"Site Public Contact","role":"CONTACT","phone":"302-623-4450","email":"lbarone@christianacare.org"},{"name":"Gregory A. Masters","role":"PRINCIPAL_INVESTIGATOR"}],"geoPoint":{"lat":39.68372,"lon":-75.74966}},{"facility":"Beebe Health Campus","status":"RECRUITING","city":"Rehoboth Beach","state":"Delaware","zip":"19971","country":"United States","contacts":[{"name":"Site Public Contact","role":"CONTACT","phone":"302-291-6730","email":"research@beebehealthcare.org"},{"name":"Gregory A. Masters","role":"PRINCIPAL_INVESTIGATOR"}],"geoPoint":{"lat":38.72095,"lon":-75.07601}},{"facility":"George Washington University Medical Center","status":"RECRUITING","city":"Washington D.C.","state":"District of Columbia","zip":"20037","country":"United States","contacts":[{"name":"Site Public Contact","role":"CONTACT","phone":"202-741-2210"},{"name":"Karan Jatwani","role":"PRINCIPAL_INVESTIGATOR"}],"geoPoint":{"lat":38.89511,"lon":-77.03637}},{"facility":"UM Sylvester Comprehensive Cancer Center at Aventura","status":"RECRUITING","city":"Aventura","state":"Florida","zip":"33180","country":"United States","contacts":[{"name":"Site Public Contact","role":"CONTACT","phone":"954-461-2180"},{"name":"Alan Libardi Dal Pra","role":"PRINCIPAL_INVESTIGATOR"}],"geoPoint":{"lat":25.95648,"lon":-80.13921}},{"facility":"UM Sylvester Comprehensive Cancer Center at Coral Gables","status":"RECRUITING","city":"Coral Gables","state":"Florida","zip":"33146","country":"United States","contacts":[{"name":"Site Public Contact","role":"CONTACT","phone":"305-243-2647"},{"name":"Alan Libardi Dal Pra","role":"PRINCIPAL_INVESTIGATOR"}],"geoPoint":{"lat":25.72149,"lon":-80.26838}},{"facility":"UM Sylvester Comprehensive Cancer Center at Deerfield Beach","status":"RECRUITING","city":"Deerfield Beach","state":"Florida","zip":"33442","country":"United States","contacts":[{"name":"Site Public Contact","role":"CONTACT","phone":"305-243-2647"},{"name":"Alan Libardi Dal Pra","role":"PRINCIPAL_INVESTIGATOR"}],"geoPoint":{"lat":26.31841,"lon":-80.09977}},{"facility":"UM Sylvester Comprehensive Cancer Center at Doral","status":"RECRUITING","city":"Doral","state":"Florida","zip":"33166","country":"United States","contacts":[{"name":"Site Public Contact","role":"CONTACT","email":"kginnity@med.miami.edu"},{"name":"Alan Libardi Dal Pra","role":"PRINCIPAL_INVESTIGATOR"}],"geoPoint":{"lat":25.81954,"lon":-80.35533}},{"facility":"University of Miami Miller School of Medicine-Sylvester Cancer Center","status":"RECRUITING","city":"Miami","state":"Florida","zip":"33136","country":"United States","contacts":[{"name":"Site Public Contact","role":"CONTACT","phone":"305-243-2647"},{"name":"Alan Libardi Dal Pra","role":"PRINCIPAL_INVESTIGATOR"}],"geoPoint":{"lat":25.77427,"lon":-80.19366}},{"facility":"UM Sylvester Comprehensive Cancer Center at Kendall","status":"RECRUITING","city":"Miami","state":"Florida","zip":"33176","country":"United States","contacts":[{"name":"Site Public Contact","role":"CONTACT","phone":"305-243-2647"},{"name":"Alan Libardi Dal Pra","role":"PRINCIPAL_INVESTIGATOR"}],"geoPoint":{"lat":25.77427,"lon":-80.19366}},{"facility":"UM Sylvester Comprehensive Cancer Center at Plantation","status":"RECRUITING","city":"Plantation","state":"Florida","zip":"33324","country":"United States","contacts":[{"name":"Site Public Contact","role":"CONTACT","phone":"305-243-2647"},{"name":"Alan Libardi Dal Pra","role":"PRINCIPAL_INVESTIGATOR"}],"geoPoint":{"lat":26.13421,"lon":-80.23184}},{"facility":"Tampa General Hospital","status":"RECRUITING","city":"Tampa","state":"Florida","zip":"33606","country":"United States","contacts":[{"name":"Site Public Contact","role":"CONTACT","phone":"813-844-7829","email":"syapchanyk@tgh.org"},{"name":"Craig E. Grossman","role":"PRINCIPAL_INVESTIGATOR"}],"geoPoint":{"lat":27.94752,"lon":-82.45843}},{"facility":"Grady Health System","status":"RECRUITING","city":"Atlanta","state":"Georgia","zip":"30303","country":"United States","contacts":[{"name":"Site Public Contact","role":"CONTACT","phone":"404-778-1868"},{"name":"Ashesh B. Jani","role":"PRINCIPAL_INVESTIGATOR"}],"geoPoint":{"lat":33.749,"lon":-84.38798}},{"facility":"Emory Proton Therapy Center","status":"RECRUITING","city":"Atlanta","state":"Georgia","zip":"30308","country":"United States","contacts":[{"name":"Site Public Contact","role":"CONTACT","phone":"404-251-2854","email":"allyson.anderson@emory.edu"},{"name":"Ashesh B. Jani","role":"PRINCIPAL_INVESTIGATOR"}],"geoPoint":{"lat":33.749,"lon":-84.38798}},{"facility":"Emory University Hospital Midtown","status":"RECRUITING","city":"Atlanta","state":"Georgia","zip":"30308","country":"United States","contacts":[{"name":"Site Public Contact","role":"CONTACT","phone":"888-946-7447"},{"name":"Ashesh B. Jani","role":"PRINCIPAL_INVESTIGATOR"}],"geoPoint":{"lat":33.749,"lon":-84.38798}},{"facility":"Emory University Hospital/Winship Cancer Institute","status":"RECRUITING","city":"Atlanta","state":"Georgia","zip":"30322","country":"United States","contacts":[{"name":"Site Public Contact","role":"CONTACT","phone":"404-778-1868"},{"name":"Ashesh B. Jani","role":"PRINCIPAL_INVESTIGATOR"}],"geoPoint":{"lat":33.749,"lon":-84.38798}},{"facility":"Emory Saint Joseph's Hospital","status":"RECRUITING","city":"Atlanta","state":"Georgia","zip":"30342","country":"United States","contacts":[{"name":"Site Public Contact","role":"CONTACT","phone":"404-851-7115"},{"name":"Ashesh B. Jani","role":"PRINCIPAL_INVESTIGATOR"}],"geoPoint":{"lat":33.749,"lon":-84.38798}},{"facility":"Emory Decatur Hospital","status":"RECRUITING","city":"Decatur","state":"Georgia","zip":"30033","country":"United States","contacts":[{"name":"Site Public Contact","role":"CONTACT","phone":"440-778-1868","email":"clinicaltrialsoncology@dekalbmedical.org"},{"name":"Ashesh B. Jani","role":"PRINCIPAL_INVESTIGATOR"}],"geoPoint":{"lat":33.77483,"lon":-84.29631}},{"facility":"Emory Johns Creek Hospital","status":"RECRUITING","city":"Johns Creek","state":"Georgia","zip":"30097","country":"United States","contacts":[{"name":"Site Public Contact","role":"CONTACT","phone":"404-778-5714","email":"m.lisa.hwang@emory.edu"},{"name":"Ashesh B. Jani","role":"PRINCIPAL_INVESTIGATOR"}],"geoPoint":{"lat":34.02893,"lon":-84.19858}},{"facility":"Alton Memorial Hospital","status":"RECRUITING","city":"Alton","state":"Illinois","zip":"62002","country":"United States","contacts":[{"name":"Site Public Contact","role":"CONTACT","phone":"618-463-7323"},{"name":"Jeff M. Michalski","role":"PRINCIPAL_INVESTIGATOR"}],"geoPoint":{"lat":38.8906,"lon":-90.18428}},{"facility":"Rush-Copley Medical Center","status":"RECRUITING","city":"Aurora","state":"Illinois","zip":"60504","country":"United States","contacts":[{"name":"Site Public Contact","role":"CONTACT","phone":"630-978-6212","email":"RCMC_Cancer_Research@rush.edu"},{"name":"Sinisa Stanic","role":"PRINCIPAL_INVESTIGATOR"}],"geoPoint":{"lat":41.76058,"lon":-88.32007}},{"facility":"Advocate Outpatient Center - Aurora","status":"RECRUITING","city":"Aurora","state":"Illinois","zip":"60506","country":"United States","contacts":[{"name":"Site Public Contact","role":"CONTACT","email":"ncorp@aah.org"},{"name":"Adam P. Siegel","role":"PRINCIPAL_INVESTIGATOR"}],"geoPoint":{"lat":41.76058,"lon":-88.32007}},{"facility":"Advocate Good Shepherd Hospital","status":"RECRUITING","city":"Barrington","state":"Illinois","zip":"60010","country":"United States","contacts":[{"name":"Site Public Contact","role":"CONTACT","phone":"847-842-4847"},{"name":"Adam P. Siegel","role":"PRINCIPAL_INVESTIGATOR"}],"geoPoint":{"lat":42.15391,"lon":-88.13619}},{"facility":"Illinois CancerCare-Bloomington","status":"RECRUITING","city":"Bloomington","state":"Illinois","zip":"61704","country":"United States","contacts":[{"name":"Site Public Contact","role":"CONTACT","phone":"309-243-3605","email":"andersonj@illinoiscancercare.com"},{"name":"Bryan A. Faller","role":"PRINCIPAL_INVESTIGATOR"}],"geoPoint":{"lat":40.4842,"lon":-88.99369}},{"facility":"Illinois CancerCare-Canton","status":"RECRUITING","city":"Canton","state":"Illinois","zip":"61520","country":"United States","contacts":[{"name":"Site Public Contact","role":"CONTACT","phone":"309-243-3605","email":"andersonj@illinoiscancercare.com"},{"name":"Bryan A. Faller","role":"PRINCIPAL_INVESTIGATOR"}],"geoPoint":{"lat":40.55809,"lon":-90.03512}},{"facility":"Illinois CancerCare-Carthage","status":"RECRUITING","city":"Carthage","state":"Illinois","zip":"62321","country":"United States","contacts":[{"name":"Site Public Contact","role":"CONTACT","phone":"309-243-3605","email":"andersonj@illinoiscancercare.com"},{"name":"Bryan A. Faller","role":"PRINCIPAL_INVESTIGATOR"}],"geoPoint":{"lat":40.41643,"lon":-91.13625}},{"facility":"Northwestern University","status":"RECRUITING","city":"Chicago","state":"Illinois","zip":"60611","country":"United States","contacts":[{"name":"Site Public Contact","role":"CONTACT","phone":"312-695-1301","email":"cancer@northwestern.edu"},{"name":"Sean Sachdev","role":"PRINCIPAL_INVESTIGATOR"}],"geoPoint":{"lat":41.85003,"lon":-87.65005}},{"facility":"Rush University Medical Center","status":"ACTIVE_NOT_RECRUITING","city":"Chicago","state":"Illinois","zip":"60612","country":"United States","geoPoint":{"lat":41.85003,"lon":-87.65005}},{"facility":"University of Illinois","status":"RECRUITING","city":"Chicago","state":"Illinois","zip":"60612","country":"United States","contacts":[{"name":"Site Public Contact","role":"CONTACT","phone":"312-355-3046"},{"name":"Daniel Moreira","role":"PRINCIPAL_INVESTIGATOR"}],"geoPoint":{"lat":41.85003,"lon":-87.65005}},{"facility":"University of Chicago Comprehensive Cancer Center","status":"RECRUITING","city":"Chicago","state":"Illinois","zip":"60637","country":"United States","contacts":[{"name":"Site Public Contact","role":"CONTACT","phone":"773-702-8222","email":"cancerclinicaltrials@bsd.uchicago.edu"},{"name":"Mohammad Atiq","role":"PRINCIPAL_INVESTIGATOR"}],"geoPoint":{"lat":41.85003,"lon":-87.65005}},{"facility":"Advocate Illinois Masonic Medical Center","status":"RECRUITING","city":"Chicago","state":"Illinois","zip":"60657","country":"United States","contacts":[{"name":"Site Public Contact","role":"CONTACT","phone":"773-296-5360"},{"name":"Adam P. Siegel","role":"PRINCIPAL_INVESTIGATOR"}],"geoPoint":{"lat":41.85003,"lon":-87.65005}},{"facility":"AMG Crystal Lake - Oncology","status":"RECRUITING","city":"Crystal Lake","state":"Illinois","zip":"60014","country":"United States","contacts":[{"name":"Site Public Contact","role":"CONTACT","phone":"630-929-6129","email":"advocateresearch@advocate.com"},{"name":"Adam P. Siegel","role":"PRINCIPAL_INVESTIGATOR"}],"geoPoint":{"lat":42.24113,"lon":-88.3162}},{"facility":"Carle at The Riverfront","status":"RECRUITING","city":"Danville","state":"Illinois","zip":"61832","country":"United States","contacts":[{"name":"Site Public Contact","role":"CONTACT","phone":"800-446-5532","email":"Research@Carle.com"},{"name":"Sinisa Stanic","role":"PRINCIPAL_INVESTIGATOR"}],"geoPoint":{"lat":40.12448,"lon":-87.63002}},{"facility":"Decatur Memorial Hospital","status":"RECRUITING","city":"Decatur","state":"Illinois","zip":"62526","country":"United States","contacts":[{"name":"Site Public Contact","role":"CONTACT","phone":"217-876-4762","email":"morganthaler.jodi@mhsil.com"},{"name":"Bryan A. Faller","role":"PRINCIPAL_INVESTIGATOR"}],"geoPoint":{"lat":39.84031,"lon":-88.9548}},{"facility":"Northwestern Medicine Cancer Center Kishwaukee","status":"RECRUITING","city":"DeKalb","state":"Illinois","zip":"60115","country":"United States","contacts":[{"name":"Site Public Contact","role":"CONTACT","phone":"630-352-5360","email":"Donald.Smith3@nm.org"},{"name":"Sean Sachdev","role":"PRINCIPAL_INVESTIGATOR"}],"geoPoint":{"lat":41.92947,"lon":-88.75036}},{"facility":"Illinois CancerCare-Dixon","status":"RECRUITING","city":"Dixon","state":"Illinois","zip":"61021","country":"United States","contacts":[{"name":"Site Public Contact","role":"CONTACT","phone":"815-285-7800"},{"name":"Bryan A. Faller","role":"PRINCIPAL_INVESTIGATOR"}],"geoPoint":{"lat":41.83892,"lon":-89.47955}},{"facility":"Advocate Good Samaritan Hospital","status":"RECRUITING","city":"Downers Grove","state":"Illinois","zip":"60515","country":"United States","contacts":[{"name":"Site Public Contact","role":"CONTACT","phone":"630-275-1270","email":"Barbara.barhamand@advocatehealth.com"},{"name":"Adam P. Siegel","role":"PRINCIPAL_INVESTIGATOR"}],"geoPoint":{"lat":41.80892,"lon":-88.01117}},{"facility":"Carle Physician Group-Effingham","status":"RECRUITING","city":"Effingham","state":"Illinois","zip":"62401","country":"United States","contacts":[{"name":"Site Public Contact","role":"CONTACT","phone":"800-446-5532","email":"Research@carle.com"},{"name":"Sinisa Stanic","role":"PRINCIPAL_INVESTIGATOR"}],"geoPoint":{"lat":39.12004,"lon":-88.54338}},{"facility":"Crossroads Cancer Center","status":"RECRUITING","city":"Effingham","state":"Illinois","zip":"62401","country":"United States","contacts":[{"name":"Site Public Contact","role":"CONTACT","phone":"217-876-4762","email":"morganthaler.jodi@mhsil.com"},{"name":"Bryan A. Faller","role":"PRINCIPAL_INVESTIGATOR"}],"geoPoint":{"lat":39.12004,"lon":-88.54338}},{"facility":"Advocate Sherman Hospital","status":"RECRUITING","city":"Elgin","state":"Illinois","zip":"60123","country":"United States","contacts":[{"name":"Site Public Contact","role":"CONTACT","phone":"847-429-2907"},{"name":"Adam P. Siegel","role":"PRINCIPAL_INVESTIGATOR"}],"geoPoint":{"lat":42.03725,"lon":-88.28119}},{"facility":"Elmhurst Memorial Hospital","status":"RECRUITING","city":"Elmhurst","state":"Illinois","zip":"60126","country":"United States","contacts":[{"name":"Site Public Contact","role":"CONTACT","phone":"630-758-5460","email":"Jrohde@emhc.org"},{"name":"Matthew Siegel","role":"PRINCIPAL_INVESTIGATOR"}],"geoPoint":{"lat":41.89947,"lon":-87.94034}},{"facility":"Illinois CancerCare-Eureka","status":"RECRUITING","city":"Eureka","state":"Illinois","zip":"61530","country":"United States","contacts":[{"name":"Site Public Contact","role":"CONTACT","phone":"309-243-3605","email":"andersonj@illinoiscancercare.com"},{"name":"Bryan A. Faller","role":"PRINCIPAL_INVESTIGATOR"}],"geoPoint":{"lat":40.72143,"lon":-89.27286}},{"facility":"NorthShore University HealthSystem-Evanston Hospital","status":"RECRUITING","city":"Evanston","state":"Illinois","zip":"60201","country":"United States","contacts":[{"name":"Site Public Contact","role":"CONTACT","phone":"847-570-2109"},{"name":"Nicklas R. Pfanzelter","role":"PRINCIPAL_INVESTIGATOR"}],"geoPoint":{"lat":42.04114,"lon":-87.69006}},{"facility":"Illinois CancerCare-Galesburg","status":"RECRUITING","city":"Galesburg","state":"Illinois","zip":"61401","country":"United States","contacts":[{"name":"Site Public Contact","role":"CONTACT","phone":"309-243-3605","email":"andersonj@illinoiscancercare.com"},{"name":"Bryan A. Faller","role":"PRINCIPAL_INVESTIGATOR"}],"geoPoint":{"lat":40.94782,"lon":-90.37124}},{"facility":"Western Illinois Cancer Treatment Center","status":"SUSPENDED","city":"Galesburg","state":"Illinois","zip":"61401","country":"United States","geoPoint":{"lat":40.94782,"lon":-90.37124}},{"facility":"Northwestern Medicine Cancer Center Delnor","status":"RECRUITING","city":"Geneva","state":"Illinois","zip":"60134","country":"United States","contacts":[{"name":"Site Public Contact","role":"CONTACT","phone":"630-352-5360","email":"Donald.Smith3@nm.org"},{"name":"Sean Sachdev","role":"PRINCIPAL_INVESTIGATOR"}],"geoPoint":{"lat":41.88753,"lon":-88.30535}},{"facility":"NorthShore University HealthSystem-Glenbrook Hospital","status":"RECRUITING","city":"Glenview","state":"Illinois","zip":"60026","country":"United States","contacts":[{"name":"Site Public Contact","role":"CONTACT","phone":"847-570-2109"},{"name":"Nicklas R. Pfanzelter","role":"PRINCIPAL_INVESTIGATOR"}],"geoPoint":{"lat":42.06975,"lon":-87.78784}},{"facility":"Ingalls Memorial Hospital","status":"RECRUITING","city":"Harvey","state":"Illinois","zip":"60426","country":"United States","contacts":[{"name":"Site Public Contact","role":"CONTACT","phone":"708-915-4673","email":"clinicaltrials@ingalls.org"},{"name":"James A. Wallace","role":"PRINCIPAL_INVESTIGATOR"}],"geoPoint":{"lat":41.61003,"lon":-87.64671}},{"facility":"Advocate South Suburban Hospital","status":"RECRUITING","city":"Hazel Crest","state":"Illinois","zip":"60429","country":"United States","contacts":[{"name":"Site Public Contact","role":"CONTACT","phone":"708-799-9995"},{"name":"Adam P. Siegel","role":"PRINCIPAL_INVESTIGATOR"}],"geoPoint":{"lat":41.5717,"lon":-87.69449}},{"facility":"NorthShore University HealthSystem-Highland Park Hospital","status":"RECRUITING","city":"Highland Park","state":"Illinois","zip":"60035","country":"United States","contacts":[{"name":"Site Public Contact","role":"CONTACT","phone":"847-570-2109"},{"name":"Nicklas R. Pfanzelter","role":"PRINCIPAL_INVESTIGATOR"}],"geoPoint":{"lat":42.18169,"lon":-87.80034}},{"facility":"Illinois CancerCare-Kewanee Clinic","status":"RECRUITING","city":"Kewanee","state":"Illinois","zip":"61443","country":"United States","contacts":[{"name":"Site Public Contact","role":"CONTACT","phone":"309-243-3605","email":"andersonj@illinoiscancercare.com"},{"name":"Bryan A. Faller","role":"PRINCIPAL_INVESTIGATOR"}],"geoPoint":{"lat":41.24559,"lon":-89.92483}},{"facility":"AMG Libertyville - Oncology","status":"RECRUITING","city":"Libertyville","state":"Illinois","zip":"60048","country":"United States","contacts":[{"name":"Site Public Contact","role":"CONTACT","phone":"630-929-6129","email":"advocateresearch@advocatehealth.com"},{"name":"Adam P. Siegel","role":"PRINCIPAL_INVESTIGATOR"}],"geoPoint":{"lat":42.28308,"lon":-87.95313}},{"facility":"Condell Memorial Hospital","status":"RECRUITING","city":"Libertyville","state":"Illinois","zip":"60048","country":"United States","contacts":[{"name":"Site Public Contact","role":"CONTACT","phone":"630-929-6129","email":"advocateresearch@advocatehealth.com"},{"name":"Adam P. Siegel","role":"PRINCIPAL_INVESTIGATOR"}],"geoPoint":{"lat":42.28308,"lon":-87.95313}},{"facility":"Illinois CancerCare-Macomb","status":"RECRUITING","city":"Macomb","state":"Illinois","zip":"61455","country":"United States","contacts":[{"name":"Site Public Contact","role":"CONTACT","phone":"309-243-3605","email":"andersonj@illinoiscancercare.com"},{"name":"Bryan A. Faller","role":"PRINCIPAL_INVESTIGATOR"}],"geoPoint":{"lat":40.45921,"lon":-90.6718}},{"facility":"Carle Physician Group-Mattoon/Charleston","status":"RECRUITING","city":"Mattoon","state":"Illinois","zip":"61938","country":"United States","contacts":[{"name":"Site Public Contact","role":"CONTACT","phone":"800-446-5532","email":"Research@carle.com"},{"name":"Sinisa Stanic","role":"PRINCIPAL_INVESTIGATOR"}],"geoPoint":{"lat":39.48309,"lon":-88.37283}},{"facility":"Loyola University Medical Center","status":"RECRUITING","city":"Maywood","state":"Illinois","zip":"60153","country":"United States","contacts":[{"name":"Site Public Contact","role":"CONTACT","phone":"708-226-4357"},{"name":"Abhishek A. Solanki","role":"PRINCIPAL_INVESTIGATOR"}],"geoPoint":{"lat":41.8792,"lon":-87.84312}},{"facility":"Edward Hospital/Cancer Center","status":"RECRUITING","city":"Naperville","state":"Illinois","zip":"60540","country":"United States","contacts":[{"name":"Site Public Contact","role":"CONTACT","phone":"630-646-6075"},{"name":"Matthew Siegel","role":"PRINCIPAL_INVESTIGATOR"}],"geoPoint":{"lat":41.78586,"lon":-88.14729}},{"facility":"UC Comprehensive Cancer Center at Silver Cross","status":"RECRUITING","city":"New Lenox","state":"Illinois","zip":"60451","country":"United States","contacts":[{"name":"Site Public Contact","role":"CONTACT","phone":"773-702-8222","email":"cancerclinicaltrials@bsd.uchicago.edu"},{"name":"Mohammad Atiq","role":"PRINCIPAL_INVESTIGATOR"}],"geoPoint":{"lat":41.51198,"lon":-87.96561}},{"facility":"HSHS Saint Elizabeth's Hospital","status":"RECRUITING","city":"O'Fallon","state":"Illinois","zip":"62269","country":"United States","contacts":[{"name":"Site Public Contact","role":"CONTACT","phone":"217-876-4762","email":"morganthaler.jodi@mhsil.com"},{"name":"Bryan A. Faller","role":"PRINCIPAL_INVESTIGATOR"}],"geoPoint":{"lat":38.59227,"lon":-89.91121}},{"facility":"Northwestern Medicine Oak Brook","status":"RECRUITING","city":"Oak Brook","state":"Illinois","zip":"60523","country":"United States","contacts":[{"name":"Site Public Contact","role":"CONTACT","email":"nctnprogram_rhlccc@northwestern.edu"},{"name":"Sean Sachdev","role":"PRINCIPAL_INVESTIGATOR"}],"geoPoint":{"lat":41.83281,"lon":-87.92895}},{"facility":"Advocate Christ Medical Center","status":"RECRUITING","city":"Oak Lawn","state":"Illinois","zip":"60453-2699","country":"United States","contacts":[{"name":"Site Public Contact","role":"CONTACT","phone":"800-323-8622"},{"name":"Adam P. Siegel","role":"PRINCIPAL_INVESTIGATOR"}],"geoPoint":{"lat":41.71087,"lon":-87.75811}},{"facility":"Northwestern Medicine Orland Park","status":"RECRUITING","city":"Orland Park","state":"Illinois","zip":"60462","country":"United States","contacts":[{"name":"Site Public Contact","role":"CONTACT","email":"nctnprogram_rhlccc@northwestern.edu"},{"name":"Sean Sachdev","role":"PRINCIPAL_INVESTIGATOR"}],"geoPoint":{"lat":41.63031,"lon":-87.85394}},{"facility":"University of Chicago Medicine-Orland Park","status":"RECRUITING","city":"Orland Park","state":"Illinois","zip":"60462","country":"United States","contacts":[{"name":"Site Public Contact","role":"CONTACT","phone":"773-702-8222","email":"cancerclinicaltrials@bsd.uchicago.edu"},{"name":"Mohammad Atiq","role":"PRINCIPAL_INVESTIGATOR"}],"geoPoint":{"lat":41.63031,"lon":-87.85394}},{"facility":"Illinois CancerCare-Ottawa Clinic","status":"RECRUITING","city":"Ottawa","state":"Illinois","zip":"61350","country":"United States","contacts":[{"name":"Site Public Contact","role":"CONTACT","phone":"309-243-3605","email":"andersonj@illinoiscancercare.com"},{"name":"Bryan A. Faller","role":"PRINCIPAL_INVESTIGATOR"}],"geoPoint":{"lat":41.34559,"lon":-88.84258}},{"facility":"Advocate High Tech Medical Park","status":"RECRUITING","city":"Palos Heights","state":"Illinois","zip":"60463","country":"United States","contacts":[{"name":"Site Public Contact","role":"CONTACT","email":"ncorp@aah.org"},{"name":"Adam P. Siegel","role":"PRINCIPAL_INVESTIGATOR"}],"geoPoint":{"lat":41.66809,"lon":-87.79644}},{"facility":"Advocate Lutheran General Hospital","status":"RECRUITING","city":"Park Ridge","state":"Illinois","zip":"60068","country":"United States","contacts":[{"name":"Site Public Contact","role":"CONTACT","phone":"847-384-3621"},{"name":"Adam P. Siegel","role":"PRINCIPAL_INVESTIGATOR"}],"geoPoint":{"lat":42.01114,"lon":-87.84062}},{"facility":"Illinois CancerCare-Pekin","status":"RECRUITING","city":"Pekin","state":"Illinois","zip":"61554","country":"United States","contacts":[{"name":"Site Public Contact","role":"CONTACT","phone":"309-243-3605","email":"andersonj@illinoiscancercare.com"},{"name":"Bryan A. Faller","role":"PRINCIPAL_INVESTIGATOR"}],"geoPoint":{"lat":40.56754,"lon":-89.64066}},{"facility":"OSF Saint Francis Radiation Oncology at Pekin","status":"RECRUITING","city":"Pekin","state":"Illinois","zip":"61554","country":"United States","contacts":[{"name":"Site Public Contact","role":"CONTACT","phone":"309-243-3605","email":"andersonj@illinoiscancercare.com"},{"name":"Bryan A. Faller","role":"PRINCIPAL_INVESTIGATOR"}],"geoPoint":{"lat":40.56754,"lon":-89.64066}},{"facility":"Illinois CancerCare-Peoria","status":"RECRUITING","city":"Peoria","state":"Illinois","zip":"61615","country":"United States","contacts":[{"name":"Site Public Contact","role":"CONTACT","phone":"309-243-3605","email":"andersonj@illinoiscancercare.com"},{"name":"Bryan A. Faller","role":"PRINCIPAL_INVESTIGATOR"}],"geoPoint":{"lat":40.69365,"lon":-89.58899}},{"facility":"OSF Saint Francis Radiation Oncology at Peoria Cancer Center","status":"RECRUITING","city":"Peoria","state":"Illinois","zip":"61615","country":"United States","contacts":[{"name":"Site Public Contact","role":"CONTACT","phone":"309-243-3605","email":"andersonj@illinoiscancercare.com"},{"name":"Bryan A. Faller","role":"PRINCIPAL_INVESTIGATOR"}],"geoPoint":{"lat":40.69365,"lon":-89.58899}},{"facility":"Methodist Medical Center of Illinois","status":"RECRUITING","city":"Peoria","state":"Illinois","zip":"61636","country":"United States","contacts":[{"name":"Site Public Contact","role":"CONTACT","phone":"309-243-3605","email":"andersonj@illinoiscancercare.com"},{"name":"Bryan A. Faller","role":"PRINCIPAL_INVESTIGATOR"}],"geoPoint":{"lat":40.69365,"lon":-89.58899}},{"facility":"OSF Saint Francis Medical Center","status":"RECRUITING","city":"Peoria","state":"Illinois","zip":"61637","country":"United States","contacts":[{"name":"Site Public Contact","role":"CONTACT","phone":"309-243-3605","email":"andersonj@illinoiscancercare.com"},{"name":"Bryan A. Faller","role":"PRINCIPAL_INVESTIGATOR"}],"geoPoint":{"lat":40.69365,"lon":-89.58899}},{"facility":"Illinois CancerCare-Peru","status":"RECRUITING","city":"Peru","state":"Illinois","zip":"61354","country":"United States","contacts":[{"name":"Site Public Contact","role":"CONTACT","phone":"309-243-3605","email":"andersonj@illinoiscancercare.com"},{"name":"Bryan A. Faller","role":"PRINCIPAL_INVESTIGATOR"}],"geoPoint":{"lat":41.32753,"lon":-89.12897}},{"facility":"Valley Radiation Oncology","status":"RECRUITING","city":"Peru","state":"Illinois","zip":"61354","country":"United States","contacts":[{"name":"Site Public Contact","role":"CONTACT","phone":"815-664-4141"},{"name":"Bryan A. Faller","role":"PRINCIPAL_INVESTIGATOR"}],"geoPoint":{"lat":41.32753,"lon":-89.12897}},{"facility":"Illinois CancerCare-Princeton","status":"RECRUITING","city":"Princeton","state":"Illinois","zip":"61356","country":"United States","contacts":[{"name":"Site Public Contact","role":"CONTACT","phone":"309-243-3605","email":"andersonj@illinoiscancercare.com"},{"name":"Bryan A. Faller","role":"PRINCIPAL_INVESTIGATOR"}],"geoPoint":{"lat":41.36809,"lon":-89.46481}},{"facility":"Memorial Hospital East","status":"RECRUITING","city":"Shiloh","state":"Illinois","zip":"62269","country":"United States","contacts":[{"name":"Site Public Contact","role":"CONTACT","phone":"314-747-9912","email":"dschwab@wustl.edu"},{"name":"Jeff M. Michalski","role":"PRINCIPAL_INVESTIGATOR"}],"geoPoint":{"lat":38.56144,"lon":-89.89732}},{"facility":"Southern Illinois University School of Medicine","status":"RECRUITING","city":"Springfield","state":"Illinois","zip":"62702","country":"United States","contacts":[{"name":"Site Public Contact","role":"CONTACT","phone":"217-545-7929"},{"name":"Bryan A. Faller","role":"PRINCIPAL_INVESTIGATOR"}],"geoPoint":{"lat":39.80172,"lon":-89.64371}},{"facility":"Springfield Clinic","status":"RECRUITING","city":"Springfield","state":"Illinois","zip":"62702","country":"United States","contacts":[{"name":"Site Public Contact","role":"CONTACT","phone":"800-444-7541"},{"name":"Bryan A. Faller","role":"PRINCIPAL_INVESTIGATOR"}],"geoPoint":{"lat":39.80172,"lon":-89.64371}},{"facility":"Springfield Memorial Hospital","status":"RECRUITING","city":"Springfield","state":"Illinois","zip":"62781","country":"United States","contacts":[{"name":"Site Public Contact","role":"CONTACT","phone":"217-528-7541","email":"pallante.beth@mhsil.com"},{"name":"Bryan A. Faller","role":"PRINCIPAL_INVESTIGATOR"}],"geoPoint":{"lat":39.80172,"lon":-89.64371}},{"facility":"Carle Cancer Center","status":"RECRUITING","city":"Urbana","state":"Illinois","zip":"61801","country":"United States","contacts":[{"name":"Site Public Contact","role":"CONTACT","phone":"800-446-5532","email":"Research@carle.com"},{"name":"Sinisa Stanic","role":"PRINCIPAL_INVESTIGATOR"}],"geoPoint":{"lat":40.11059,"lon":-88.20727}},{"facility":"Northwestern Medicine Cancer Center Warrenville","status":"RECRUITING","city":"Warrenville","state":"Illinois","zip":"60555","country":"United States","contacts":[{"name":"Site Public Contact","role":"CONTACT","phone":"630-352-5360","email":"Donald.Smith3@nm.org"},{"name":"Sean Sachdev","role":"PRINCIPAL_INVESTIGATOR"}],"geoPoint":{"lat":41.81781,"lon":-88.1734}},{"facility":"Illinois CancerCare - Washington","status":"RECRUITING","city":"Washington","state":"Illinois","zip":"61571","country":"United States","contacts":[{"name":"Site Public Contact","role":"CONTACT","phone":"309-243-3605","email":"andersonj@illinoiscancercare.com"},{"name":"Bryan A. Faller","role":"PRINCIPAL_INVESTIGATOR"}],"geoPoint":{"lat":40.70365,"lon":-89.40731}},{"facility":"Reid Health","status":"RECRUITING","city":"Richmond","state":"Indiana","zip":"47374","country":"United States","contacts":[{"name":"Site Public Contact","role":"CONTACT","phone":"937-528-2900","email":"clinical.trials@daytonncorp.org"},{"name":"Howard M. Gross","role":"PRINCIPAL_INVESTIGATOR"}],"geoPoint":{"lat":39.82894,"lon":-84.89024}},{"facility":"McFarland Clinic - Ames","status":"RECRUITING","city":"Ames","state":"Iowa","zip":"50010","country":"United States","contacts":[{"name":"Site Public Contact","role":"CONTACT","phone":"515-239-4734","email":"ksoder@mcfarlandclinic.com"},{"name":"Joseph J. Merchant","role":"PRINCIPAL_INVESTIGATOR"}],"geoPoint":{"lat":42.03471,"lon":-93.61994}},{"facility":"UI Health Care Mission Cancer and Blood - Ankeny Clinic","status":"RECRUITING","city":"Ankeny","state":"Iowa","zip":"50023","country":"United States","contacts":[{"name":"Site Public Contact","role":"CONTACT","phone":"515-241-3305"},{"name":"Seema Harichand-Herdt","role":"PRINCIPAL_INVESTIGATOR"}],"geoPoint":{"lat":41.72971,"lon":-93.60577}},{"facility":"Saint Anthony Regional Hospital","status":"RECRUITING","city":"Carroll","state":"Iowa","zip":"51401","country":"United States","contacts":[{"name":"Site Public Contact","role":"CONTACT","phone":"515-689-7658","email":"sbenson@iora.org"},{"name":"Seema Harichand-Herdt","role":"PRINCIPAL_INVESTIGATOR"}],"geoPoint":{"lat":42.06582,"lon":-94.86693}},{"facility":"Saint Luke's Hospital","status":"ACTIVE_NOT_RECRUITING","city":"Cedar Rapids","state":"Iowa","zip":"52402","country":"United States","geoPoint":{"lat":42.00833,"lon":-91.64407}},{"facility":"Mercy Hospital","status":"RECRUITING","city":"Cedar Rapids","state":"Iowa","zip":"52403","country":"United States","contacts":[{"name":"Site Public Contact","role":"CONTACT","phone":"319-365-4673"},{"name":"Deborah W. Wilbur","role":"PRINCIPAL_INVESTIGATOR"}],"geoPoint":{"lat":42.00833,"lon":-91.64407}},{"facility":"Oncology Associates at Mercy Medical Center","status":"RECRUITING","city":"Cedar Rapids","state":"Iowa","zip":"52403","country":"United States","contacts":[{"name":"Site Public Contact","role":"CONTACT","phone":"319-363-2690"},{"name":"Deborah W. Wilbur","role":"PRINCIPAL_INVESTIGATOR"}],"geoPoint":{"lat":42.00833,"lon":-91.64407}},{"facility":"Iowa Methodist Medical Center","status":"RECRUITING","city":"Des Moines","state":"Iowa","zip":"50309","country":"United States","contacts":[{"name":"Site Public Contact","role":"CONTACT","phone":"515-241-6727"},{"name":"Seema Harichand-Herdt","role":"PRINCIPAL_INVESTIGATOR"}],"geoPoint":{"lat":41.60054,"lon":-93.60911}},{"facility":"UI Health Care Mission Cancer and Blood - Des Moines Clinic","status":"RECRUITING","city":"Des Moines","state":"Iowa","zip":"50309","country":"United States","contacts":[{"name":"Site Public Contact","role":"CONTACT","phone":"515-241-3305"},{"name":"Seema Harichand-Herdt","role":"PRINCIPAL_INVESTIGATOR"}],"geoPoint":{"lat":41.60054,"lon":-93.60911}},{"facility":"Broadlawns Medical Center","status":"RECRUITING","city":"Des Moines","state":"Iowa","zip":"50314","country":"United States","contacts":[{"name":"Site Public Contact","role":"CONTACT","phone":"515-282-2200"},{"name":"Seema Harichand-Herdt","role":"PRINCIPAL_INVESTIGATOR"}],"geoPoint":{"lat":41.60054,"lon":-93.60911}},{"facility":"Mercy Medical Center - Des Moines","status":"RECRUITING","city":"Des Moines","state":"Iowa","zip":"50314","country":"United States","contacts":[{"name":"Site Public Contact","role":"CONTACT","phone":"515-358-6613","email":"cancerresearch@mercydesmoines.org"},{"name":"Richard L. Deming","role":"PRINCIPAL_INVESTIGATOR"}],"geoPoint":{"lat":41.60054,"lon":-93.60911}},{"facility":"Iowa Lutheran Hospital","status":"RECRUITING","city":"Des Moines","state":"Iowa","zip":"50316","country":"United States","contacts":[{"name":"Site Public Contact","role":"CONTACT","phone":"515-241-8704"},{"name":"Seema Harichand-Herdt","role":"PRINCIPAL_INVESTIGATOR"}],"geoPoint":{"lat":41.60054,"lon":-93.60911}},{"facility":"Methodist West Hospital","status":"RECRUITING","city":"West Des Moines","state":"Iowa","zip":"50266-7700","country":"United States","contacts":[{"name":"Site Public Contact","role":"CONTACT","phone":"515-343-1000"},{"name":"Seema Harichand-Herdt","role":"PRINCIPAL_INVESTIGATOR"}],"geoPoint":{"lat":41.57721,"lon":-93.71133}},{"facility":"University of Kansas Cancer Center","status":"RECRUITING","city":"Kansas City","state":"Kansas","zip":"66160","country":"United States","contacts":[{"name":"Site Public Contact","role":"CONTACT","phone":"913-588-3671","email":"KUCC_Navigation@kumc.edu"},{"name":"Xinglei Shen","role":"PRINCIPAL_INVESTIGATOR"}],"geoPoint":{"lat":39.11417,"lon":-94.62746}},{"facility":"The University of Kansas Cancer Center - Olathe","status":"RECRUITING","city":"Olathe","state":"Kansas","zip":"66061","country":"United States","contacts":[{"name":"Site Public Contact","role":"CONTACT","phone":"913-588-1569","email":"OlatheCCResearch@kumc.edu"},{"name":"Xinglei Shen","role":"PRINCIPAL_INVESTIGATOR"}],"geoPoint":{"lat":38.8814,"lon":-94.81913}},{"facility":"University of Kansas Cancer Center-Overland Park","status":"RECRUITING","city":"Overland Park","state":"Kansas","zip":"66210","country":"United States","contacts":[{"name":"Site Public Contact","role":"CONTACT","phone":"913-588-3671","email":"KUCC_Navigation@kumc.edu"},{"name":"Xinglei Shen","role":"PRINCIPAL_INVESTIGATOR"}],"geoPoint":{"lat":38.98223,"lon":-94.67079}},{"facility":"Salina Regional Health Center","status":"RECRUITING","city":"Salina","state":"Kansas","zip":"67401","country":"United States","contacts":[{"name":"Site Public Contact","role":"CONTACT","phone":"785-452-7038","email":"mleepers@srhc.com"},{"name":"Xinglei Shen","role":"PRINCIPAL_INVESTIGATOR"}],"geoPoint":{"lat":38.84028,"lon":-97.61142}},{"facility":"University of Kansas Health System Saint Francis Campus","status":"RECRUITING","city":"Topeka","state":"Kansas","zip":"66606","country":"United States","contacts":[{"name":"Site Public Contact","role":"CONTACT","phone":"785-295-8000"},{"name":"Xinglei Shen","role":"PRINCIPAL_INVESTIGATOR"}],"geoPoint":{"lat":39.04833,"lon":-95.67804}},{"facility":"University of Kansas Hospital-Westwood Cancer Center","status":"RECRUITING","city":"Westwood","state":"Kansas","zip":"66205","country":"United States","contacts":[{"name":"Site Public Contact","role":"CONTACT","phone":"913-588-3671","email":"KUCC_Navigation@kumc.edu"},{"name":"Xinglei Shen","role":"PRINCIPAL_INVESTIGATOR"}],"geoPoint":{"lat":39.04056,"lon":-94.6169}},{"facility":"LSU Health Baton Rouge-North Clinic","status":"RECRUITING","city":"Baton Rouge","state":"Louisiana","zip":"70805","country":"United States","contacts":[{"name":"Site Public Contact","role":"CONTACT","phone":"225-765-7659","email":"research@ololrmc.com"},{"name":"Marshall P. Stagg","role":"PRINCIPAL_INVESTIGATOR"}],"geoPoint":{"lat":30.44332,"lon":-91.18747}},{"facility":"Our Lady of the Lake Physician Group","status":"RECRUITING","city":"Baton Rouge","state":"Louisiana","zip":"70808","country":"United States","contacts":[{"name":"Site Public Contact","role":"CONTACT","phone":"225-765-7659","email":"research@ololrmc.com"},{"name":"Marshall P. Stagg","role":"PRINCIPAL_INVESTIGATOR"}],"geoPoint":{"lat":30.44332,"lon":-91.18747}},{"facility":"Mary Bird Perkins Cancer Center","status":"RECRUITING","city":"Baton Rouge","state":"Louisiana","zip":"70809","country":"United States","contacts":[{"name":"Site Public Contact","role":"CONTACT","phone":"225-215-1353","email":"clinicalresearch@marybird.com"},{"name":"Victor T. Lin","role":"PRINCIPAL_INVESTIGATOR"}],"geoPoint":{"lat":30.44332,"lon":-91.18747}},{"facility":"Mary Bird Perkins Cancer Center - Metairie","status":"RECRUITING","city":"Metairie","state":"Louisiana","zip":"70002","country":"United States","contacts":[{"name":"Site Public Contact","role":"CONTACT","phone":"504-584-6990"},{"name":"Victor T. Lin","role":"PRINCIPAL_INVESTIGATOR"}],"geoPoint":{"lat":29.98409,"lon":-90.15285}},{"facility":"East Jefferson General Hospital","status":"RECRUITING","city":"Metairie","state":"Louisiana","zip":"70006","country":"United States","contacts":[{"name":"Site Public Contact","role":"CONTACT","phone":"504-210-3539","email":"emede1@lsuhsc.edu"},{"name":"Augusto C. Ochoa","role":"PRINCIPAL_INVESTIGATOR"}],"geoPoint":{"lat":29.98409,"lon":-90.15285}},{"facility":"LSU Healthcare Network / Metairie Multi-Specialty Clinic","status":"RECRUITING","city":"Metairie","state":"Louisiana","zip":"70006","country":"United States","contacts":[{"name":"Site Public Contact","role":"CONTACT","phone":"504-210-3539","email":"emede1@lsuhsc.edu"},{"name":"Augusto C. Ochoa","role":"PRINCIPAL_INVESTIGATOR"}],"geoPoint":{"lat":29.98409,"lon":-90.15285}},{"facility":"Tulane University School of Medicine","status":"RECRUITING","city":"New Orleans","state":"Louisiana","zip":"70112","country":"United States","contacts":[{"name":"Site Public Contact","role":"CONTACT","phone":"504-988-1147","email":"bweimer1@tulane.edu"},{"name":"Audrey Dang","role":"PRINCIPAL_INVESTIGATOR"}],"geoPoint":{"lat":29.95465,"lon":-90.07507}},{"facility":"Ochsner Medical Center Jefferson","status":"RECRUITING","city":"New Orleans","state":"Louisiana","zip":"70121","country":"United States","contacts":[{"name":"Site Public Contact","role":"CONTACT","phone":"504-842-8084","email":"Elisemarie.curry@ochsner.org"},{"name":"Troy G. Scroggins","role":"PRINCIPAL_INVESTIGATOR"}],"geoPoint":{"lat":29.95465,"lon":-90.07507}},{"facility":"Lafayette Family Cancer Center-EMMC","status":"RECRUITING","city":"Brewer","state":"Maine","zip":"04412","country":"United States","contacts":[{"name":"Site Public Contact","role":"CONTACT","phone":"800-987-3005"},{"name":"Sarah J. Sinclair","role":"PRINCIPAL_INVESTIGATOR"}],"geoPoint":{"lat":44.79674,"lon":-68.76142}},{"facility":"Massachusetts General Hospital Cancer Center","status":"RECRUITING","city":"Boston","state":"Massachusetts","zip":"02114","country":"United States","contacts":[{"name":"Site Public Contact","role":"CONTACT","phone":"877-726-5130"},{"name":"Jason A. Efstathiou","role":"PRINCIPAL_INVESTIGATOR"}],"geoPoint":{"lat":42.35843,"lon":-71.05977}},{"facility":"Brigham and Women's Hospital","status":"RECRUITING","city":"Boston","state":"Massachusetts","zip":"02115","country":"United States","contacts":[{"name":"Site Public Contact","role":"CONTACT","phone":"617-724-5200"},{"name":"Paul L. Nguyen","role":"PRINCIPAL_INVESTIGATOR"}],"geoPoint":{"lat":42.35843,"lon":-71.05977}},{"facility":"Dana-Farber Cancer Institute","status":"RECRUITING","city":"Boston","state":"Massachusetts","zip":"02215","country":"United States","contacts":[{"name":"Site Public Contact","role":"CONTACT","phone":"877-442-3324"},{"name":"Paul L. Nguyen","role":"PRINCIPAL_INVESTIGATOR"}],"geoPoint":{"lat":42.35843,"lon":-71.05977}},{"facility":"Trinity Health Saint Joseph Mercy Hospital Ann Arbor","status":"RECRUITING","city":"Ann Arbor","state":"Michigan","zip":"48106","country":"United States","contacts":[{"name":"Site Public Contact","role":"CONTACT","phone":"734-712-7251","email":"MCRCwebsitecontactform@stjoeshealth.org"},{"name":"Samir Narayan","role":"PRINCIPAL_INVESTIGATOR"}],"geoPoint":{"lat":42.27756,"lon":-83.74088}},{"facility":"Trinity Health Medical Center - Brighton","status":"RECRUITING","city":"Brighton","state":"Michigan","zip":"48114","country":"United States","contacts":[{"name":"Site Public Contact","role":"CONTACT","phone":"734-712-7251","email":"MCRCwebsitecontactform@stjoeshealth.org"},{"name":"Samir Narayan","role":"PRINCIPAL_INVESTIGATOR"}],"geoPoint":{"lat":42.52948,"lon":-83.78022}},{"facility":"Trinity Health Medical Center - Canton","status":"RECRUITING","city":"Canton","state":"Michigan","zip":"48188","country":"United States","contacts":[{"name":"Site Public Contact","role":"CONTACT","phone":"734-712-7251","email":"MCRCwebsitecontactform@stjoeshealth.org"},{"name":"Samir Narayan","role":"PRINCIPAL_INVESTIGATOR"}],"geoPoint":{"lat":42.30865,"lon":-83.48216}},{"facility":"Chelsea Hospital","status":"RECRUITING","city":"Chelsea","state":"Michigan","zip":"48118","country":"United States","contacts":[{"name":"Site Public Contact","role":"CONTACT","phone":"734-712-7251","email":"MCRCwebsitecontactform@stjoeshealth.org"},{"name":"Samir Narayan","role":"PRINCIPAL_INVESTIGATOR"}],"geoPoint":{"lat":42.31807,"lon":-84.02181}},{"facility":"Henry Ford Hospital","status":"RECRUITING","city":"Detroit","state":"Michigan","zip":"48202","country":"United States","contacts":[{"name":"Site Public Contact","role":"CONTACT","phone":"313-916-3721","email":"CTOResearch@hfhs.org"},{"name":"Eleanor M. Walker","role":"PRINCIPAL_INVESTIGATOR"}],"geoPoint":{"lat":42.33143,"lon":-83.04575}},{"facility":"McLaren Cancer Institute-Flint","status":"RECRUITING","city":"Flint","state":"Michigan","zip":"48532","country":"United States","contacts":[{"name":"Site Public Contact","role":"CONTACT","phone":"313-576-9790","email":"ctoadmin@karmanos.org"},{"name":"Brian K. Yeh","role":"PRINCIPAL_INVESTIGATOR"}],"geoPoint":{"lat":43.01253,"lon":-83.68746}},{"facility":"Singh and Arora Hematology Oncology PC","status":"RECRUITING","city":"Flint","state":"Michigan","zip":"48532","country":"United States","contacts":[{"name":"Site Public Contact","role":"CONTACT","phone":"313-576-9790","email":"ctoadmin@karmanos.org"},{"name":"Brian K. Yeh","role":"PRINCIPAL_INVESTIGATOR"}],"geoPoint":{"lat":43.01253,"lon":-83.68746}},{"facility":"Karmanos Cancer Institute at McLaren Greater Lansing","status":"RECRUITING","city":"Lansing","state":"Michigan","zip":"48910","country":"United States","contacts":[{"name":"Site Public Contact","role":"CONTACT","phone":"313-576-9790","email":"ctoadmin@karmanos.org"},{"name":"Brian K. Yeh","role":"PRINCIPAL_INVESTIGATOR"}],"geoPoint":{"lat":42.73253,"lon":-84.55553}},{"facility":"Mid-Michigan Physicians-Lansing","status":"RECRUITING","city":"Lansing","state":"Michigan","zip":"48912","country":"United States","contacts":[{"name":"Site Public Contact","role":"CONTACT","phone":"313-576-9790","email":"ctoadmin@karmanos.org"},{"name":"Brian K. Yeh","role":"PRINCIPAL_INVESTIGATOR"}],"geoPoint":{"lat":42.73253,"lon":-84.55553}},{"facility":"University of Michigan Health - Sparrow Lansing","status":"RECRUITING","city":"Lansing","state":"Michigan","zip":"48912","country":"United States","contacts":[{"name":"Site Public Contact","role":"CONTACT","phone":"517-364-3712","email":"harsha.trivedi@umhsparrow.org"},{"name":"Samir Narayan","role":"PRINCIPAL_INVESTIGATOR"}],"geoPoint":{"lat":42.73253,"lon":-84.55553}},{"facility":"Trinity Health Saint Mary Mercy Livonia Hospital","status":"RECRUITING","city":"Livonia","state":"Michigan","zip":"48154","country":"United States","contacts":[{"name":"Site Public Contact","role":"CONTACT","phone":"734-712-7251","email":"MCRCwebsitecontactform@stjoeshealth.org"},{"name":"Samir Narayan","role":"PRINCIPAL_INVESTIGATOR"}],"geoPoint":{"lat":42.36837,"lon":-83.35271}},{"facility":"McLaren Cancer Institute-Macomb","status":"RECRUITING","city":"Mount Clemens","state":"Michigan","zip":"48043","country":"United States","contacts":[{"name":"Site Public Contact","role":"CONTACT","phone":"313-576-9790","email":"ctoadmin@karmanos.org"},{"name":"Brian K. Yeh","role":"PRINCIPAL_INVESTIGATOR"}],"geoPoint":{"lat":42.59726,"lon":-82.87798}},{"facility":"McLaren Cancer Institute-Owosso","status":"RECRUITING","city":"Owosso","state":"Michigan","zip":"48867","country":"United States","contacts":[{"name":"Site Public Contact","role":"CONTACT","phone":"313-576-9790","email":"ctoadmin@karmanos.org"},{"name":"Brian K. Yeh","role":"PRINCIPAL_INVESTIGATOR"}],"geoPoint":{"lat":42.9978,"lon":-84.17664}},{"facility":"Minnesota Oncology - Burnsville","status":"RECRUITING","city":"Burnsville","state":"Minnesota","zip":"55337","country":"United States","contacts":[{"name":"Site Public Contact","role":"CONTACT","phone":"952-993-1517","email":"mmcorc@healthpartners.com"},{"name":"Charles Shideman","role":"PRINCIPAL_INVESTIGATOR"}],"geoPoint":{"lat":44.76774,"lon":-93.27772}},{"facility":"Mercy Hospital","status":"RECRUITING","city":"Coon Rapids","state":"Minnesota","zip":"55433","country":"United States","contacts":[{"name":"Site Public Contact","role":"CONTACT","phone":"952-993-1517","email":"mmcorc@healthpartners.com"},{"name":"Charles Shideman","role":"PRINCIPAL_INVESTIGATOR"}],"geoPoint":{"lat":45.11997,"lon":-93.28773}},{"facility":"Fairview Southdale Hospital","status":"RECRUITING","city":"Edina","state":"Minnesota","zip":"55435","country":"United States","contacts":[{"name":"Site Public Contact","role":"CONTACT","phone":"952-993-1517","email":"mmcorc@healthpartners.com"},{"name":"Charles Shideman","role":"PRINCIPAL_INVESTIGATOR"}],"geoPoint":{"lat":44.88969,"lon":-93.34995}},{"facility":"Unity Hospital","status":"ACTIVE_NOT_RECRUITING","city":"Fridley","state":"Minnesota","zip":"55432","country":"United States","geoPoint":{"lat":45.08608,"lon":-93.26328}},{"facility":"Fairview Clinics and Surgery Center Maple Grove","status":"RECRUITING","city":"Maple Grove","state":"Minnesota","zip":"55369","country":"United States","contacts":[{"name":"Site Public Contact","role":"CONTACT","phone":"952-993-1517","email":"mmcorc@healthpartners.com"},{"name":"Charles Shideman","role":"PRINCIPAL_INVESTIGATOR"}],"geoPoint":{"lat":45.07246,"lon":-93.45579}},{"facility":"Minnesota Oncology Hematology PA-Maplewood","status":"RECRUITING","city":"Maplewood","state":"Minnesota","zip":"55109","country":"United States","contacts":[{"name":"Site Public Contact","role":"CONTACT","phone":"952-993-1517","email":"mmcorc@healthpartners.com"},{"name":"Charles Shideman","role":"PRINCIPAL_INVESTIGATOR"}],"geoPoint":{"lat":44.95302,"lon":-92.99522}},{"facility":"Saint John's Hospital - Healtheast","status":"RECRUITING","city":"Maplewood","state":"Minnesota","zip":"55109","country":"United States","contacts":[{"name":"Site Public Contact","role":"CONTACT","phone":"952-993-1517","email":"mmcorc@healthpartners.com"},{"name":"Charles Shideman","role":"PRINCIPAL_INVESTIGATOR"}],"geoPoint":{"lat":44.95302,"lon":-92.99522}},{"facility":"Abbott-Northwestern Hospital","status":"RECRUITING","city":"Minneapolis","state":"Minnesota","zip":"55407","country":"United States","contacts":[{"name":"Site Public Contact","role":"CONTACT","phone":"952-993-1517","email":"mmcorc@healthpartners.com"},{"name":"Charles Shideman","role":"PRINCIPAL_INVESTIGATOR"}],"geoPoint":{"lat":44.97997,"lon":-93.26384}},{"facility":"Hennepin County Medical Center","status":"RECRUITING","city":"Minneapolis","state":"Minnesota","zip":"55415","country":"United States","contacts":[{"name":"Site Public Contact","role":"CONTACT","phone":"952-993-1517","email":"mmcorc@healthpartners.com"},{"name":"Charles Shideman","role":"PRINCIPAL_INVESTIGATOR"}],"geoPoint":{"lat":44.97997,"lon":-93.26384}},{"facility":"Monticello Cancer Center","status":"RECRUITING","city":"Monticello","state":"Minnesota","zip":"55362","country":"United States","contacts":[{"name":"Site Public Contact","role":"CONTACT","phone":"952-993-1517","email":"mmcorc@healthpartners.com"},{"name":"Charles Shideman","role":"PRINCIPAL_INVESTIGATOR"}],"geoPoint":{"lat":45.30552,"lon":-93.79414}},{"facility":"North Memorial Medical Health Center","status":"RECRUITING","city":"Robbinsdale","state":"Minnesota","zip":"55422","country":"United States","contacts":[{"name":"Site Public Contact","role":"CONTACT","phone":"952-993-1517","email":"mmcorc@healthpartners.com"},{"name":"Charles Shideman","role":"PRINCIPAL_INVESTIGATOR"}],"geoPoint":{"lat":45.03219,"lon":-93.33856}},{"facility":"Coborn Cancer Center at Saint Cloud Hospital","status":"RECRUITING","city":"Saint Cloud","state":"Minnesota","zip":"56303","country":"United States","contacts":[{"name":"Site Public Contact","role":"CONTACT","phone":"877-229-4907","email":"coborncancercenter@centracare.com"},{"name":"Donald J. Jurgens","role":"PRINCIPAL_INVESTIGATOR"}],"geoPoint":{"lat":45.5608,"lon":-94.16249}},{"facility":"Park Nicollet Clinic - Saint Louis Park","status":"RECRUITING","city":"Saint Louis Park","state":"Minnesota","zip":"55416","country":"United States","contacts":[{"name":"Site Public Contact","role":"CONTACT","phone":"952-993-1517","email":"mmcorc@healthpartners.com"},{"name":"Charles Shideman","role":"PRINCIPAL_INVESTIGATOR"}],"geoPoint":{"lat":44.9483,"lon":-93.34801}},{"facility":"Regions Hospital","status":"RECRUITING","city":"Saint Paul","state":"Minnesota","zip":"55101","country":"United States","contacts":[{"name":"Site Public Contact","role":"CONTACT","phone":"952-993-1517","email":"mmcorc@healthpartners.com"},{"name":"Charles Shideman","role":"PRINCIPAL_INVESTIGATOR"}],"geoPoint":{"lat":44.94441,"lon":-93.09327}},{"facility":"United Hospital","status":"RECRUITING","city":"Saint Paul","state":"Minnesota","zip":"55102","country":"United States","contacts":[{"name":"Site Public Contact","role":"CONTACT","phone":"952-993-1517","email":"mmcorc@healthpartners.com"},{"name":"Charles Shideman","role":"PRINCIPAL_INVESTIGATOR"}],"geoPoint":{"lat":44.94441,"lon":-93.09327}},{"facility":"Saint Francis Regional Medical Center","status":"RECRUITING","city":"Shakopee","state":"Minnesota","zip":"55379","country":"United States","contacts":[{"name":"Site Public Contact","role":"CONTACT","phone":"952-993-1517","email":"mmcorc@healthpartners.com"},{"name":"Charles Shideman","role":"PRINCIPAL_INVESTIGATOR"}],"geoPoint":{"lat":44.79802,"lon":-93.5269}},{"facility":"Lakeview Hospital","status":"RECRUITING","city":"Stillwater","state":"Minnesota","zip":"55082","country":"United States","contacts":[{"name":"Site Public Contact","role":"CONTACT","phone":"952-993-1517","email":"mmcorc@healthpartners.com"},{"name":"Charles Shideman","role":"PRINCIPAL_INVESTIGATOR"}],"geoPoint":{"lat":45.05636,"lon":-92.80604}},{"facility":"Ridgeview Medical Center","status":"RECRUITING","city":"Waconia","state":"Minnesota","zip":"55387","country":"United States","contacts":[{"name":"Site Public Contact","role":"CONTACT","phone":"952-993-1517","email":"mmcorc@healthpartners.com"},{"name":"Charles Shideman","role":"PRINCIPAL_INVESTIGATOR"}],"geoPoint":{"lat":44.8508,"lon":-93.78691}},{"facility":"Rice Memorial Hospital","status":"RECRUITING","city":"Willmar","state":"Minnesota","zip":"56201","country":"United States","contacts":[{"name":"Site Public Contact","role":"CONTACT","phone":"952-993-1517","email":"mmcorc@healthpartners.com"},{"name":"Charles Shideman","role":"PRINCIPAL_INVESTIGATOR"}],"geoPoint":{"lat":45.12191,"lon":-95.04334}},{"facility":"Minnesota Oncology Hematology PA-Woodbury","status":"RECRUITING","city":"Woodbury","state":"Minnesota","zip":"55125","country":"United States","contacts":[{"name":"Site Public Contact","role":"CONTACT","phone":"952-993-1517","email":"mmcorc@healthpartners.com"},{"name":"Charles Shideman","role":"PRINCIPAL_INVESTIGATOR"}],"geoPoint":{"lat":44.92386,"lon":-92.95938}},{"facility":"Mercy Oncology and Hematology - Clayton-Clarkson","status":"SUSPENDED","city":"Ballwin","state":"Missouri","zip":"63011","country":"United States","geoPoint":{"lat":38.59505,"lon":-90.54623}},{"facility":"Saint Francis Medical Center","status":"RECRUITING","city":"Cape Girardeau","state":"Missouri","zip":"63703","country":"United States","contacts":[{"name":"Site Public Contact","role":"CONTACT","phone":"573-334-2230","email":"sfmc@sfmc.net"},{"name":"Bryan A. Faller","role":"PRINCIPAL_INVESTIGATOR"}],"geoPoint":{"lat":37.30588,"lon":-89.51815}},{"facility":"Siteman Cancer Center at Saint Peters Hospital","status":"RECRUITING","city":"City of Saint Peters","state":"Missouri","zip":"63376","country":"United States","contacts":[{"name":"Site Public Contact","role":"CONTACT","phone":"800-600-3606","email":"info@siteman.wustl.edu"},{"name":"Jeff M. Michalski","role":"PRINCIPAL_INVESTIGATOR"}],"geoPoint":{"lat":38.80033,"lon":-90.62651}},{"facility":"MU Health - University Hospital/Ellis Fischel Cancer Center","status":"RECRUITING","city":"Columbia","state":"Missouri","zip":"65212","country":"United States","contacts":[{"name":"Site Public Contact","role":"CONTACT","phone":"573-882-7440"},{"name":"Gregory B. Biedermann","role":"PRINCIPAL_INVESTIGATOR"}],"geoPoint":{"lat":38.95171,"lon":-92.33407}},{"facility":"Siteman Cancer Center at West County Hospital","status":"RECRUITING","city":"Creve Coeur","state":"Missouri","zip":"63141","country":"United States","contacts":[{"name":"Site Public Contact","role":"CONTACT","phone":"800-600-3606","email":"info@siteman.wustl.edu"},{"name":"Jeff M. Michalski","role":"PRINCIPAL_INVESTIGATOR"}],"geoPoint":{"lat":38.66089,"lon":-90.42262}},{"facility":"University of Kansas Cancer Center - North","status":"RECRUITING","city":"Kansas City","state":"Missouri","zip":"64154","country":"United States","contacts":[{"name":"Site Public Contact","role":"CONTACT","phone":"913-588-3671","email":"KUCC_Navigation@kumc.edu"},{"name":"Xinglei Shen","role":"PRINCIPAL_INVESTIGATOR"}],"geoPoint":{"lat":39.09973,"lon":-94.57857}},{"facility":"University of Kansas Cancer Center - Lee's Summit","status":"RECRUITING","city":"Lee's Summit","state":"Missouri","zip":"64064","country":"United States","contacts":[{"name":"Site Public Contact","role":"CONTACT","phone":"913-588-3671","email":"KUCC_Navigation@kumc.edu"},{"name":"Xinglei Shen","role":"PRINCIPAL_INVESTIGATOR"}],"geoPoint":{"lat":38.91084,"lon":-94.38217}},{"facility":"University of Kansas Cancer Center at North Kansas City Hospital","status":"RECRUITING","city":"North Kansas City","state":"Missouri","zip":"64116","country":"United States","contacts":[{"name":"Site Public Contact","role":"CONTACT","phone":"913-588-3671","email":"KUCC_Navigation@kumc.edu"},{"name":"Xinglei Shen","role":"PRINCIPAL_INVESTIGATOR"}],"geoPoint":{"lat":39.13,"lon":-94.56218}},{"facility":"Washington University School of Medicine","status":"RECRUITING","city":"St Louis","state":"Missouri","zip":"63110","country":"United States","contacts":[{"name":"Site Public Contact","role":"CONTACT","phone":"800-600-3606","email":"info@siteman.wustl.edu"},{"name":"Jeff M. Michalski","role":"PRINCIPAL_INVESTIGATOR"}],"geoPoint":{"lat":38.62727,"lon":-90.19789}},{"facility":"Siteman Cancer Center-South County","status":"RECRUITING","city":"St Louis","state":"Missouri","zip":"63129","country":"United States","contacts":[{"name":"Site Public Contact","role":"CONTACT","phone":"800-600-3606","email":"info@siteman.wustl.edu"},{"name":"Jeff M. Michalski","role":"PRINCIPAL_INVESTIGATOR"}],"geoPoint":{"lat":38.62727,"lon":-90.19789}},{"facility":"Siteman Cancer Center at Christian Hospital","status":"RECRUITING","city":"St Louis","state":"Missouri","zip":"63136","country":"United States","contacts":[{"name":"Site Public Contact","role":"CONTACT","phone":"800-600-3606","email":"info@siteman.wustl.edu"},{"name":"Jeff M. Michalski","role":"PRINCIPAL_INVESTIGATOR"}],"geoPoint":{"lat":38.62727,"lon":-90.19789}},{"facility":"Mercy Hospital Saint Louis","status":"RECRUITING","city":"St Louis","state":"Missouri","zip":"63141","country":"United States","contacts":[{"name":"Site Public Contact","role":"CONTACT","phone":"314-251-7066"},{"name":"Jay W. Carlson","role":"PRINCIPAL_INVESTIGATOR"}],"geoPoint":{"lat":38.62727,"lon":-90.19789}},{"facility":"Billings Clinic Cancer Center","status":"RECRUITING","city":"Billings","state":"Montana","zip":"59101","country":"United States","contacts":[{"name":"Site Public Contact","role":"CONTACT","phone":"800-996-2663","email":"research@billingsclinic.org"},{"name":"John M. Schallenkamp","role":"PRINCIPAL_INVESTIGATOR"}],"geoPoint":{"lat":45.78329,"lon":-108.50069}},{"facility":"Benefis Sletten Cancer Institute","status":"RECRUITING","city":"Great Falls","state":"Montana","zip":"59405","country":"United States","contacts":[{"name":"Site Public Contact","role":"CONTACT","phone":"406-969-6060","email":"mccinfo@mtcancer.org"},{"name":"John M. Schallenkamp","role":"PRINCIPAL_INVESTIGATOR"}],"geoPoint":{"lat":47.50024,"lon":-111.30081}},{"facility":"Cancer Partners of Nebraska","status":"RECRUITING","city":"Lincoln","state":"Nebraska","zip":"68516","country":"United States","contacts":[{"name":"Site Public Contact","role":"CONTACT","phone":"402-327-7363","email":"research@cancerpartners.com"},{"name":"Mark J. Stavas","role":"PRINCIPAL_INVESTIGATOR"}],"geoPoint":{"lat":40.8,"lon":-96.66696}},{"facility":"Comprehensive Cancer Centers of Nevada - Henderson","status":"RECRUITING","city":"Henderson","state":"Nevada","zip":"89052","country":"United States","contacts":[{"name":"Site Public Contact","role":"CONTACT","phone":"702-384-0013","email":"research@sncrf.org"},{"name":"John A. Ellerton","role":"PRINCIPAL_INVESTIGATOR"}],"geoPoint":{"lat":36.0397,"lon":-114.98194}},{"facility":"OptumCare Cancer Care at Seven Hills","status":"RECRUITING","city":"Henderson","state":"Nevada","zip":"89052","country":"United States","contacts":[{"name":"Site Public Contact","role":"CONTACT","phone":"702-384-0013","email":"research@sncrf.org"},{"name":"John A. Ellerton","role":"PRINCIPAL_INVESTIGATOR"}],"geoPoint":{"lat":36.0397,"lon":-114.98194}},{"facility":"OptumCare Cancer Care at Charleston","status":"RECRUITING","city":"Las Vegas","state":"Nevada","zip":"89102","country":"United States","contacts":[{"name":"Site Public Contact","role":"CONTACT","phone":"702-384-0013","email":"research@sncrf.org"},{"name":"John A. Ellerton","role":"PRINCIPAL_INVESTIGATOR"}],"geoPoint":{"lat":36.17497,"lon":-115.13722}},{"facility":"Radiation Oncology Centers of Nevada Central","status":"RECRUITING","city":"Las Vegas","state":"Nevada","zip":"89106","country":"United States","contacts":[{"name":"Site Public Contact","role":"CONTACT","phone":"702-384-0013","email":"research@sncrf.org"},{"name":"John A. Ellerton","role":"PRINCIPAL_INVESTIGATOR"}],"geoPoint":{"lat":36.17497,"lon":-115.13722}},{"facility":"GenesisCare USA - Las Vegas","status":"SUSPENDED","city":"Las Vegas","state":"Nevada","zip":"89109","country":"United States","geoPoint":{"lat":36.17497,"lon":-115.13722}},{"facility":"Radiation Oncology Centers of Nevada Southeast","status":"RECRUITING","city":"Las Vegas","state":"Nevada","zip":"89119","country":"United States","contacts":[{"name":"Site Public Contact","role":"CONTACT","phone":"702-384-0013","email":"research@sncrf.org"},{"name":"John A. Ellerton","role":"PRINCIPAL_INVESTIGATOR"}],"geoPoint":{"lat":36.17497,"lon":-115.13722}},{"facility":"Comprehensive Cancer Centers of Nevada - Northwest","status":"RECRUITING","city":"Las Vegas","state":"Nevada","zip":"89128","country":"United States","contacts":[{"name":"Site Public Contact","role":"CONTACT","phone":"702-384-0013","email":"research@sncrf.org"},{"name":"John A. Ellerton","role":"PRINCIPAL_INVESTIGATOR"}],"geoPoint":{"lat":36.17497,"lon":-115.13722}},{"facility":"OptumCare Cancer Care at MountainView","status":"RECRUITING","city":"Las Vegas","state":"Nevada","zip":"89128","country":"United States","contacts":[{"name":"Site Public Contact","role":"CONTACT","phone":"702-384-0013","email":"research@sncrf.org"},{"name":"John A. Ellerton","role":"PRINCIPAL_INVESTIGATOR"}],"geoPoint":{"lat":36.17497,"lon":-115.13722}},{"facility":"Comprehensive Cancer Centers of Nevada - Town Center","status":"RECRUITING","city":"Las Vegas","state":"Nevada","zip":"89144","country":"United States","contacts":[{"name":"Site Public Contact","role":"CONTACT","phone":"702-384-0013","email":"research@sncrf.org"},{"name":"John A. Ellerton","role":"PRINCIPAL_INVESTIGATOR"}],"geoPoint":{"lat":36.17497,"lon":-115.13722}},{"facility":"Comprehensive Cancer Centers of Nevada-Summerlin","status":"RECRUITING","city":"Las Vegas","state":"Nevada","zip":"89144","country":"United States","contacts":[{"name":"Site Public Contact","role":"CONTACT","phone":"702-384-0013","email":"research@sncrf.org"},{"name":"John A. Ellerton","role":"PRINCIPAL_INVESTIGATOR"}],"geoPoint":{"lat":36.17497,"lon":-115.13722}},{"facility":"Summerlin Hospital Medical Center","status":"RECRUITING","city":"Las Vegas","state":"Nevada","zip":"89144","country":"United States","contacts":[{"name":"Site Public Contact","role":"CONTACT","phone":"702-384-0013","email":"research@sncrf.org"},{"name":"John A. Ellerton","role":"PRINCIPAL_INVESTIGATOR"}],"geoPoint":{"lat":36.17497,"lon":-115.13722}},{"facility":"Comprehensive Cancer Centers of Nevada","status":"RECRUITING","city":"Las Vegas","state":"Nevada","zip":"89148","country":"United States","contacts":[{"name":"Site Public Contact","role":"CONTACT","phone":"702-384-0013","email":"research@sncrf.org"},{"name":"John A. Ellerton","role":"PRINCIPAL_INVESTIGATOR"}],"geoPoint":{"lat":36.17497,"lon":-115.13722}},{"facility":"GenesisCare USA - Fort Apache","status":"RECRUITING","city":"Las Vegas","state":"Nevada","zip":"89148","country":"United States","contacts":[{"name":"Site Public Contact","role":"CONTACT","phone":"702-384-0013","email":"research@sncrf.org"},{"name":"John A. Ellerton","role":"PRINCIPAL_INVESTIGATOR"}],"geoPoint":{"lat":36.17497,"lon":-115.13722}},{"facility":"OptumCare Cancer Care at Fort Apache","status":"RECRUITING","city":"Las Vegas","state":"Nevada","zip":"89148","country":"United States","contacts":[{"name":"Site Public Contact","role":"CONTACT","phone":"702-384-0013","email":"research@sncrf.org"},{"name":"John A. Ellerton","role":"PRINCIPAL_INVESTIGATOR"}],"geoPoint":{"lat":36.17497,"lon":-115.13722}},{"facility":"Comprehensive Cancer Centers of Nevada - Central Valley","status":"RECRUITING","city":"Las Vegas","state":"Nevada","zip":"89169","country":"United States","contacts":[{"name":"Site Public Contact","role":"CONTACT","phone":"702-384-0013","email":"research@sncrf.org"},{"name":"John A. Ellerton","role":"PRINCIPAL_INVESTIGATOR"}],"geoPoint":{"lat":36.17497,"lon":-115.13722}},{"facility":"Renown Regional Medical Center","status":"RECRUITING","city":"Reno","state":"Nevada","zip":"89502","country":"United States","contacts":[{"name":"Site Public Contact","role":"CONTACT","phone":"702-384-0013","email":"research@sncrf.org"},{"name":"John A. Ellerton","role":"PRINCIPAL_INVESTIGATOR"}],"geoPoint":{"lat":39.52963,"lon":-119.8138}},{"facility":"New Hampshire Oncology Hematology PA-Concord","status":"RECRUITING","city":"Concord","state":"New Hampshire","zip":"03301","country":"United States","contacts":[{"name":"Site Public Contact","role":"CONTACT","phone":"603-224-2556"},{"name":"Josy Mathew","role":"PRINCIPAL_INVESTIGATOR"}],"geoPoint":{"lat":43.20814,"lon":-71.53757}},{"facility":"Solinsky Center for Cancer Care","status":"RECRUITING","city":"Manchester","state":"New Hampshire","zip":"03103","country":"United States","contacts":[{"name":"Site Public Contact","role":"CONTACT","phone":"800-339-6484"},{"name":"Josy Mathew","role":"PRINCIPAL_INVESTIGATOR"}],"geoPoint":{"lat":42.99564,"lon":-71.45479}},{"facility":"Memorial Sloan Kettering Basking Ridge","status":"RECRUITING","city":"Basking Ridge","state":"New Jersey","zip":"07920","country":"United States","contacts":[{"name":"Site Public Contact","role":"CONTACT","phone":"212-639-7592"},{"name":"Justin M. Haseltine","role":"PRINCIPAL_INVESTIGATOR"}],"geoPoint":{"lat":40.70621,"lon":-74.54932}},{"facility":"Cooper Hospital University Medical Center","status":"RECRUITING","city":"Camden","state":"New Jersey","zip":"08103","country":"United States","contacts":[{"name":"Site Public Contact","role":"CONTACT","phone":"856-325-6757"},{"name":"Gary Eastwick","role":"PRINCIPAL_INVESTIGATOR"}],"geoPoint":{"lat":39.92595,"lon":-75.11962}},{"facility":"Saint Barnabas Medical Center","status":"RECRUITING","city":"Livingston","state":"New Jersey","zip":"07039","country":"United States","contacts":[{"name":"Site Public Contact","role":"CONTACT","phone":"973-322-2934","email":"joanne.loeb@rwjbh.org"},{"name":"Lara Hathout","role":"PRINCIPAL_INVESTIGATOR"}],"geoPoint":{"lat":40.79593,"lon":-74.31487}},{"facility":"Memorial Sloan Kettering Monmouth","status":"RECRUITING","city":"Middletown","state":"New Jersey","zip":"07748","country":"United States","contacts":[{"name":"Site Public Contact","role":"CONTACT","phone":"212-639-7592"},{"name":"Justin M. Haseltine","role":"PRINCIPAL_INVESTIGATOR"}],"geoPoint":{"lat":40.39428,"lon":-74.11709}},{"facility":"Memorial Sloan Kettering Bergen","status":"RECRUITING","city":"Montvale","state":"New Jersey","zip":"07645","country":"United States","contacts":[{"name":"Site Public Contact","role":"CONTACT","phone":"212-639-7592"},{"name":"Justin M. Haseltine","role":"PRINCIPAL_INVESTIGATOR"}],"geoPoint":{"lat":41.04676,"lon":-74.02292}},{"facility":"Rutgers Cancer Institute of New Jersey","status":"RECRUITING","city":"New Brunswick","state":"New Jersey","zip":"08903","country":"United States","contacts":[{"name":"Site Public Contact","role":"CONTACT","phone":"732-235-7356"},{"name":"Lara Hathout","role":"PRINCIPAL_INVESTIGATOR"}],"geoPoint":{"lat":40.48622,"lon":-74.45182}},{"facility":"Rutgers New Jersey Medical School","status":"RECRUITING","city":"Newark","state":"New Jersey","zip":"07101","country":"United States","contacts":[{"name":"Site Public Contact","role":"CONTACT","phone":"732-235-7356"},{"name":"Lara Hathout","role":"PRINCIPAL_INVESTIGATOR"}],"geoPoint":{"lat":40.73566,"lon":-74.17237}},{"facility":"Robert Wood Johnson University Hospital Somerset","status":"RECRUITING","city":"Somerville","state":"New Jersey","zip":"08876","country":"United States","contacts":[{"name":"Site Public Contact","role":"CONTACT","phone":"908-685-2481","email":"Siby.Varughese@rwjbh.org"},{"name":"Lara Hathout","role":"PRINCIPAL_INVESTIGATOR"}],"geoPoint":{"lat":40.57427,"lon":-74.60988}},{"facility":"MD Anderson Cancer Center at Cooper-Voorhees","status":"RECRUITING","city":"Voorhees Township","state":"New Jersey","zip":"08043","country":"United States","contacts":[{"name":"Site Public Contact","role":"CONTACT","phone":"856-325-6757"},{"name":"Gary Eastwick","role":"PRINCIPAL_INVESTIGATOR"}],"geoPoint":{"lat":40.4795,"lon":-74.49062}},{"facility":"Sands Cancer Center","status":"RECRUITING","city":"Canandaigua","state":"New York","zip":"14424","country":"United States","contacts":[{"name":"Site Public Contact","role":"CONTACT","phone":"585-396-6161"},{"name":"Yuhchyau Chen","role":"PRINCIPAL_INVESTIGATOR"}],"geoPoint":{"lat":42.87423,"lon":-77.28804}},{"facility":"Memorial Sloan Kettering Commack","status":"RECRUITING","city":"Commack","state":"New York","zip":"11725","country":"United States","contacts":[{"name":"Site Public Contact","role":"CONTACT","phone":"212-639-7592"},{"name":"Justin M. Haseltine","role":"PRINCIPAL_INVESTIGATOR"}],"geoPoint":{"lat":40.84288,"lon":-73.29289}},{"facility":"Northwell Health Physicians Partners Radiation Medicine at Queens","status":"RECRUITING","city":"Forest Hills","state":"New York","zip":"11375","country":"United States","contacts":[{"name":"Site Public Contact","role":"CONTACT","phone":"718-520-6620"},{"name":"Bhupesh Parashar","role":"PRINCIPAL_INVESTIGATOR"}],"geoPoint":{"lat":40.71621,"lon":-73.85014}},{"facility":"Memorial Sloan Kettering Westchester","status":"RECRUITING","city":"Harrison","state":"New York","zip":"10604","country":"United States","contacts":[{"name":"Site Public Contact","role":"CONTACT","phone":"212-639-7592"},{"name":"Justin M. Haseltine","role":"PRINCIPAL_INVESTIGATOR"}],"geoPoint":{"lat":40.96899,"lon":-73.71263}},{"facility":"Northwell Health/Center for Advanced Medicine","status":"RECRUITING","city":"Lake Success","state":"New York","zip":"11042","country":"United States","contacts":[{"name":"Site Public Contact","role":"CONTACT","phone":"516-734-8896"},{"name":"Bhupesh Parashar","role":"PRINCIPAL_INVESTIGATOR"}],"geoPoint":{"lat":40.77066,"lon":-73.71763}},{"facility":"Garnet Health Medical Center","status":"RECRUITING","city":"Middletown","state":"New York","zip":"10940","country":"United States","contacts":[{"name":"Site Public Contact","role":"CONTACT","phone":"845-333-1133","email":"jgerlach@garnethealth.org"},{"name":"Jeffrey M. Stewart","role":"PRINCIPAL_INVESTIGATOR"}],"geoPoint":{"lat":41.44593,"lon":-74.42293}},{"facility":"Memorial Sloan Kettering Cancer Center","status":"RECRUITING","city":"New York","state":"New York","zip":"10065","country":"United States","contacts":[{"name":"Site Public Contact","role":"CONTACT","phone":"212-639-7592"},{"name":"Justin M. Haseltine","role":"PRINCIPAL_INVESTIGATOR"}],"geoPoint":{"lat":40.71427,"lon":-74.00597}},{"facility":"Queens Cancer Center","status":"RECRUITING","city":"Rego Park","state":"New York","zip":"11374","country":"United States","contacts":[{"name":"Site Public Contact","role":"CONTACT","phone":"718-312-3446"},{"name":"Bhupesh Parashar","role":"PRINCIPAL_INVESTIGATOR"}],"geoPoint":{"lat":40.72649,"lon":-73.85264}},{"facility":"Wilmot Cancer Institute Radiation Oncology at Greece","status":"RECRUITING","city":"Rochester","state":"New York","zip":"14606","country":"United States","contacts":[{"name":"Site Public Contact","role":"CONTACT","phone":"585-758-7877"},{"name":"Yuhchyau Chen","role":"PRINCIPAL_INVESTIGATOR"}],"geoPoint":{"lat":43.15478,"lon":-77.61556}},{"facility":"Highland Hospital","status":"RECRUITING","city":"Rochester","state":"New York","zip":"14620","country":"United States","contacts":[{"name":"Site Public Contact","role":"CONTACT","phone":"585-341-8113"},{"name":"Yuhchyau Chen","role":"PRINCIPAL_INVESTIGATOR"}],"geoPoint":{"lat":43.15478,"lon":-77.61556}},{"facility":"University of Rochester","status":"RECRUITING","city":"Rochester","state":"New York","zip":"14642","country":"United States","contacts":[{"name":"Site Public Contact","role":"CONTACT","phone":"585-275-5830"},{"name":"Yuhchyau Chen","role":"PRINCIPAL_INVESTIGATOR"}],"geoPoint":{"lat":43.15478,"lon":-77.61556}},{"facility":"Memorial Sloan Kettering Nassau","status":"RECRUITING","city":"Uniondale","state":"New York","zip":"11553","country":"United States","contacts":[{"name":"Site Public Contact","role":"CONTACT","phone":"212-639-7592"},{"name":"Justin M. Haseltine","role":"PRINCIPAL_INVESTIGATOR"}],"geoPoint":{"lat":40.70038,"lon":-73.59291}},{"facility":"Wilmot Cancer Institute at Webster","status":"RECRUITING","city":"Webster","state":"New York","zip":"14580","country":"United States","contacts":[{"name":"Site Public Contact","role":"CONTACT","email":"WCICTOresearch@urmc.rochester.edu"},{"name":"Yuhchyau Chen","role":"PRINCIPAL_INVESTIGATOR"}],"geoPoint":{"lat":43.21229,"lon":-77.42999}},{"facility":"Duke Cancer Center Cary","status":"RECRUITING","city":"Cary","state":"North Carolina","zip":"27518","country":"United States","contacts":[{"name":"Site Public Contact","role":"CONTACT","email":"NCTNStudyTeam@dm.duke.edu"},{"name":"Ryan E. Fecteau","role":"PRINCIPAL_INVESTIGATOR"}],"geoPoint":{"lat":35.79154,"lon":-78.78112}},{"facility":"Duke University Medical Center","status":"RECRUITING","city":"Durham","state":"North Carolina","zip":"27710","country":"United States","contacts":[{"name":"Site Public Contact","role":"CONTACT","phone":"888-275-3853"},{"name":"Ryan E. Fecteau","role":"PRINCIPAL_INVESTIGATOR"}],"geoPoint":{"lat":35.99403,"lon":-78.89862}},{"facility":"Duke Cancer Center Raleigh","status":"RECRUITING","city":"Raleigh","state":"North Carolina","zip":"27609","country":"United States","contacts":[{"name":"Site Public Contact","role":"CONTACT","email":"NCTNStudyTeam@dm.duke.edu"},{"name":"Ryan E. Fecteau","role":"PRINCIPAL_INVESTIGATOR"}],"geoPoint":{"lat":35.7721,"lon":-78.63861}},{"facility":"Wake Forest University Health Sciences","status":"RECRUITING","city":"Winston-Salem","state":"North Carolina","zip":"27157","country":"United States","contacts":[{"name":"Site Public Contact","role":"CONTACT","phone":"336-713-6771"},{"name":"Michael McCormack","role":"PRINCIPAL_INVESTIGATOR"}],"geoPoint":{"lat":36.09986,"lon":-80.24422}},{"facility":"Cleveland Clinic Akron General","status":"RECRUITING","city":"Akron","state":"Ohio","zip":"44307","country":"United States","contacts":[{"name":"Site Public Contact","role":"CONTACT","phone":"866-223-8100","email":"CancerAnswer@ccf.org"},{"name":"Salem A. Alfaifi","role":"PRINCIPAL_INVESTIGATOR"}],"geoPoint":{"lat":41.08144,"lon":-81.51901}},{"facility":"Miami Valley Hospital South","status":"RECRUITING","city":"Centerville","state":"Ohio","zip":"45459","country":"United States","contacts":[{"name":"Site Public Contact","role":"CONTACT","phone":"937-528-2900","email":"clinical.trials@daytonncorp.org"},{"name":"Tarek M. Sabagh","role":"PRINCIPAL_INVESTIGATOR"}],"geoPoint":{"lat":39.62839,"lon":-84.15938}},{"facility":"University of Cincinnati Cancer Center-UC Medical Center","status":"RECRUITING","city":"Cincinnati","state":"Ohio","zip":"45219","country":"United States","contacts":[{"name":"Site Public Contact","role":"CONTACT","phone":"513-584-7698","email":"cancer@uchealth.com"},{"name":"Timothy D. Struve","role":"PRINCIPAL_INVESTIGATOR"}],"geoPoint":{"lat":39.12711,"lon":-84.51439}},{"facility":"Cleveland Clinic Cancer Center/Fairview Hospital","status":"RECRUITING","city":"Cleveland","state":"Ohio","zip":"44111","country":"United States","contacts":[{"name":"Site Public Contact","role":"CONTACT","phone":"866-223-8100","email":"TaussigResearch@ccf.org"},{"name":"Andrew D. Vassil","role":"PRINCIPAL_INVESTIGATOR"}],"geoPoint":{"lat":41.4995,"lon":-81.69541}},{"facility":"Cleveland Clinic Foundation","status":"RECRUITING","city":"Cleveland","state":"Ohio","zip":"44195","country":"United States","contacts":[{"name":"Site Public Contact","role":"CONTACT","phone":"866-223-8100","email":"TaussigResearch@ccf.org"},{"name":"Andrew D. Vassil","role":"PRINCIPAL_INVESTIGATOR"}],"geoPoint":{"lat":41.4995,"lon":-81.69541}},{"facility":"Ohio State University Comprehensive Cancer Center","status":"RECRUITING","city":"Columbus","state":"Ohio","zip":"43210","country":"United States","contacts":[{"name":"Site Public Contact","role":"CONTACT","phone":"800-293-5066","email":"Jamesline@osumc.edu"},{"name":"Shang-Jui Wang","role":"PRINCIPAL_INVESTIGATOR"}],"geoPoint":{"lat":39.96118,"lon":-82.99879}},{"facility":"Miami Valley Hospital","status":"RECRUITING","city":"Dayton","state":"Ohio","zip":"45409","country":"United States","contacts":[{"name":"Site Public Contact","role":"CONTACT","phone":"937-528-2900","email":"clinical.trials@daytonncorp.org"},{"name":"Tarek M. Sabagh","role":"PRINCIPAL_INVESTIGATOR"}],"geoPoint":{"lat":39.75895,"lon":-84.19161}},{"facility":"Premier Blood and Cancer Center","status":"RECRUITING","city":"Dayton","state":"Ohio","zip":"45409","country":"United States","contacts":[{"name":"Site Public Contact","role":"CONTACT","phone":"937-276-8320"},{"name":"Tarek M. Sabagh","role":"PRINCIPAL_INVESTIGATOR"}],"geoPoint":{"lat":39.75895,"lon":-84.19161}},{"facility":"Miami Valley Hospital North","status":"RECRUITING","city":"Dayton","state":"Ohio","zip":"45415","country":"United States","contacts":[{"name":"Site Public Contact","role":"CONTACT","phone":"937-528-2900","email":"clinical.trials@daytonncorp.org"},{"name":"Tarek M. Sabagh","role":"PRINCIPAL_INVESTIGATOR"}],"geoPoint":{"lat":39.75895,"lon":-84.19161}},{"facility":"Armes Family Cancer Center","status":"RECRUITING","city":"Findlay","state":"Ohio","zip":"45840","country":"United States","contacts":[{"name":"Site Public Contact","role":"CONTACT","phone":"937-528-2900","email":"clinical.trials@daytonncorp.org"},{"name":"Howard M. Gross","role":"PRINCIPAL_INVESTIGATOR"}],"geoPoint":{"lat":41.04422,"lon":-83.64993}},{"facility":"Atrium Medical Center-Middletown Regional Hospital","status":"RECRUITING","city":"Franklin","state":"Ohio","zip":"45005-1066","country":"United States","contacts":[{"name":"Site Public Contact","role":"CONTACT","phone":"937-528-2900","email":"clinical.trials@daytonncorp.org"},{"name":"Tarek M. Sabagh","role":"PRINCIPAL_INVESTIGATOR"}],"geoPoint":{"lat":39.55895,"lon":-84.30411}},{"facility":"Cleveland Clinic Cancer Center Mansfield","status":"RECRUITING","city":"Mansfield","state":"Ohio","zip":"44906","country":"United States","contacts":[{"name":"Site Public Contact","role":"CONTACT","phone":"866-223-8100","email":"TaussigResearch@ccf.org"},{"name":"Andrew D. Vassil","role":"PRINCIPAL_INVESTIGATOR"}],"geoPoint":{"lat":40.75839,"lon":-82.51545}},{"facility":"Hillcrest Hospital Cancer Center","status":"RECRUITING","city":"Mayfield Heights","state":"Ohio","zip":"44124","country":"United States","contacts":[{"name":"Site Public Contact","role":"CONTACT","phone":"866-223-8100","email":"TaussigResearch@ccf.org"},{"name":"Andrew D. Vassil","role":"PRINCIPAL_INVESTIGATOR"}],"geoPoint":{"lat":41.51922,"lon":-81.4579}},{"facility":"North Coast Cancer Care","status":"RECRUITING","city":"Sandusky","state":"Ohio","zip":"44870","country":"United States","contacts":[{"name":"Site Public Contact","role":"CONTACT","phone":"866-223-8100","email":"TaussigResearch@ccf.org"},{"name":"Andrew D. Vassil","role":"PRINCIPAL_INVESTIGATOR"}],"geoPoint":{"lat":41.44894,"lon":-82.70796}},{"facility":"Cleveland Clinic Cancer Center Strongsville","status":"RECRUITING","city":"Strongsville","state":"Ohio","zip":"44136","country":"United States","contacts":[{"name":"Site Public Contact","role":"CONTACT","phone":"866-223-8100","email":"TaussigResearch@ccf.org"},{"name":"Andrew D. Vassil","role":"PRINCIPAL_INVESTIGATOR"}],"geoPoint":{"lat":41.3145,"lon":-81.83569}},{"facility":"Upper Valley Medical Center","status":"RECRUITING","city":"Troy","state":"Ohio","zip":"45373","country":"United States","contacts":[{"name":"Site Public Contact","role":"CONTACT","phone":"937-528-2900","email":"clinical.trials@daytonncorp.org"},{"name":"Tarek M. Sabagh","role":"PRINCIPAL_INVESTIGATOR"}],"geoPoint":{"lat":40.0395,"lon":-84.20328}},{"facility":"University of Cincinnati Cancer Center-West Chester","status":"RECRUITING","city":"West Chester","state":"Ohio","zip":"45069","country":"United States","contacts":[{"name":"Site Public Contact","role":"CONTACT","phone":"513-584-7698","email":"cancer@uchealth.com"},{"name":"Timothy D. Struve","role":"PRINCIPAL_INVESTIGATOR"}],"geoPoint":{"lat":39.33172,"lon":-84.40716}},{"facility":"Cleveland Clinic Wooster Family Health and Surgery Center","status":"RECRUITING","city":"Wooster","state":"Ohio","zip":"44691","country":"United States","contacts":[{"name":"Site Public Contact","role":"CONTACT","phone":"866-223-8100","email":"TaussigResearch@ccf.org"},{"name":"Andrew D. Vassil","role":"PRINCIPAL_INVESTIGATOR"}],"geoPoint":{"lat":40.80517,"lon":-81.93646}},{"facility":"University of Oklahoma Health Sciences Center","status":"RECRUITING","city":"Oklahoma City","state":"Oklahoma","zip":"73104","country":"United States","contacts":[{"name":"Site Public Contact","role":"CONTACT","phone":"405-271-8777","email":"ou-clinical-trials@ouhsc.edu"},{"name":"Tyler Gunter","role":"PRINCIPAL_INVESTIGATOR"}],"geoPoint":{"lat":35.46756,"lon":-97.51643}},{"facility":"Legacy Mount Hood Medical Center","status":"ACTIVE_NOT_RECRUITING","city":"Gresham","state":"Oregon","zip":"97030","country":"United States","geoPoint":{"lat":45.49818,"lon":-122.43148}},{"facility":"Legacy Good Samaritan Hospital and Medical Center","status":"ACTIVE_NOT_RECRUITING","city":"Portland","state":"Oregon","zip":"97210","country":"United States","geoPoint":{"lat":45.52345,"lon":-122.67621}},{"facility":"UPMC Altoona","status":"RECRUITING","city":"Altoona","state":"Pennsylvania","zip":"16601","country":"United States","contacts":[{"name":"Site Public Contact","role":"CONTACT","phone":"412-339-5294","email":"Roster@nrgoncology.org"},{"name":"Adam Olson","role":"PRINCIPAL_INVESTIGATOR"}],"geoPoint":{"lat":40.51868,"lon":-78.39474}},{"facility":"UPMC-Heritage Valley Health System Beaver","status":"RECRUITING","city":"Beaver","state":"Pennsylvania","zip":"15009","country":"United States","contacts":[{"name":"Site Public Contact","role":"CONTACT","phone":"412-389-5208","email":"haneydl@upmc.edu"},{"name":"Adam Olson","role":"PRINCIPAL_INVESTIGATOR"}],"geoPoint":{"lat":40.69534,"lon":-80.30478}},{"facility":"Crozer-Keystone Regional Cancer Center at Broomall","status":"SUSPENDED","city":"Broomall","state":"Pennsylvania","zip":"19008","country":"United States","geoPoint":{"lat":39.9815,"lon":-75.35658}},{"facility":"Carlisle Regional Cancer Center","status":"RECRUITING","city":"Carlisle","state":"Pennsylvania","zip":"17015","country":"United States","contacts":[{"name":"Site Public Contact","role":"CONTACT","phone":"412-339-5294","email":"Roster@nrgoncology.org"},{"name":"Adam Olson","role":"PRINCIPAL_INVESTIGATOR"}],"geoPoint":{"lat":40.20148,"lon":-77.18887}},{"facility":"Christiana Care Health System-Concord Health Center","status":"RECRUITING","city":"Chadds Ford","state":"Pennsylvania","zip":"19317","country":"United States","contacts":[{"name":"Site Public Contact","role":"CONTACT","phone":"302-623-4450","email":"lbarone@christianacare.org"},{"name":"Gregory A. Masters","role":"PRINCIPAL_INVESTIGATOR"}],"geoPoint":{"lat":39.87178,"lon":-75.59132}},{"facility":"Delaware County Memorial Hospital","status":"SUSPENDED","city":"Drexel Hill","state":"Pennsylvania","zip":"19026","country":"United States","geoPoint":{"lat":39.94706,"lon":-75.29213}},{"facility":"UPMC Hillman Cancer Center Erie","status":"RECRUITING","city":"Erie","state":"Pennsylvania","zip":"16505","country":"United States","contacts":[{"name":"Site Public Contact","role":"CONTACT","phone":"412-389-5208","email":"haneydl@upmc.edu"},{"name":"Adam Olson","role":"PRINCIPAL_INVESTIGATOR"}],"geoPoint":{"lat":42.12922,"lon":-80.08506}},{"facility":"UPMC Cancer Center at UPMC Horizon","status":"RECRUITING","city":"Farrell","state":"Pennsylvania","zip":"16121","country":"United States","contacts":[{"name":"Site Public Contact","role":"CONTACT","phone":"412-339-5294","email":"Roster@nrgoncology.org"},{"name":"Adam Olson","role":"PRINCIPAL_INVESTIGATOR"}],"geoPoint":{"lat":41.21228,"lon":-80.49674}},{"facility":"Crozer Regional Cancer Center at Brinton Lake","status":"SUSPENDED","city":"Glen Mills","state":"Pennsylvania","zip":"19342","country":"United States","geoPoint":{"lat":39.91928,"lon":-75.49159}},{"facility":"UPMC Cancer Centers - Arnold Palmer Pavilion","status":"RECRUITING","city":"Greensburg","state":"Pennsylvania","zip":"15601","country":"United States","contacts":[{"name":"Site Public Contact","role":"CONTACT","phone":"724-838-1900"},{"name":"Adam Olson","role":"PRINCIPAL_INVESTIGATOR"}],"geoPoint":{"lat":40.30146,"lon":-79.53893}},{"facility":"UPMC Pinnacle Cancer Center/Community Osteopathic Campus","status":"RECRUITING","city":"Harrisburg","state":"Pennsylvania","zip":"17109","country":"United States","contacts":[{"name":"Site Public Contact","role":"CONTACT","phone":"717-724-6765","email":"klitchfield@PINNACLEHEALTH.org"},{"name":"Adam Olson","role":"PRINCIPAL_INVESTIGATOR"}],"geoPoint":{"lat":40.2737,"lon":-76.88442}},{"facility":"Penn State Milton S Hershey Medical Center","status":"RECRUITING","city":"Hershey","state":"Pennsylvania","zip":"17033-0850","country":"United States","contacts":[{"name":"Site Public Contact","role":"CONTACT","phone":"717-531-3779","email":"CTO@hmc.psu.edu"},{"name":"Joseph A. Miccio","role":"PRINCIPAL_INVESTIGATOR"}],"geoPoint":{"lat":40.28592,"lon":-76.65025}},{"facility":"IRMC Cancer Center","status":"RECRUITING","city":"Indiana","state":"Pennsylvania","zip":"15701","country":"United States","contacts":[{"name":"Site Public Contact","role":"CONTACT","phone":"412-389-5208","email":"haneydl@upmc.edu"},{"name":"Adam Olson","role":"PRINCIPAL_INVESTIGATOR"}],"geoPoint":{"lat":40.62146,"lon":-79.15253}},{"facility":"UPMC-Johnstown/John P. Murtha Regional Cancer Center","status":"RECRUITING","city":"Johnstown","state":"Pennsylvania","zip":"15901","country":"United States","contacts":[{"name":"Site Public Contact","role":"CONTACT","phone":"814-534-4724"},{"name":"Adam Olson","role":"PRINCIPAL_INVESTIGATOR"}],"geoPoint":{"lat":40.32674,"lon":-78.92197}},{"facility":"UPMC Cancer Center at UPMC McKeesport","status":"RECRUITING","city":"McKeesport","state":"Pennsylvania","zip":"15132","country":"United States","contacts":[{"name":"Site Public Contact","role":"CONTACT","phone":"412-647-8073"},{"name":"Adam Olson","role":"PRINCIPAL_INVESTIGATOR"}],"geoPoint":{"lat":40.34785,"lon":-79.86422}},{"facility":"UPMC Hillman Cancer Center at Rocco And Nancy Ortenzio Cancer Pavilion","status":"RECRUITING","city":"Mechanicsburg","state":"Pennsylvania","zip":"17050","country":"United States","contacts":[{"name":"Site Public Contact","role":"CONTACT","phone":"412-389-5208","email":"haneydl@upmc.edu"},{"name":"Adam Olson","role":"PRINCIPAL_INVESTIGATOR"}],"geoPoint":{"lat":40.21426,"lon":-77.00859}},{"facility":"UPMC Cancer Center - Monroeville","status":"RECRUITING","city":"Monroeville","state":"Pennsylvania","zip":"15146","country":"United States","contacts":[{"name":"Site Public Contact","role":"CONTACT","phone":"412-339-5294","email":"Roster@nrgoncology.org"},{"name":"Adam Olson","role":"PRINCIPAL_INVESTIGATOR"}],"geoPoint":{"lat":40.42118,"lon":-79.7881}},{"facility":"UPMC Hillman Cancer Center in Coraopolis","status":"RECRUITING","city":"Moon Township","state":"Pennsylvania","zip":"15108","country":"United States","contacts":[{"name":"Site Public Contact","role":"CONTACT","phone":"412-389-5208","email":"haneydl@upmc.edu"},{"name":"Adam Olson","role":"PRINCIPAL_INVESTIGATOR"}],"geoPoint":{"lat":40.50896,"lon":-80.23923}},{"facility":"UPMC-Magee Womens Hospital","status":"RECRUITING","city":"Pittsburgh","state":"Pennsylvania","zip":"15213","country":"United States","contacts":[{"name":"Site Public Contact","role":"CONTACT","phone":"412-647-2811"},{"name":"Adam Olson","role":"PRINCIPAL_INVESTIGATOR"}],"geoPoint":{"lat":40.44062,"lon":-79.99589}},{"facility":"UPMC-Saint Margaret","status":"RECRUITING","city":"Pittsburgh","state":"Pennsylvania","zip":"15215","country":"United States","contacts":[{"name":"Site Public Contact","role":"CONTACT","phone":"412-784-4900"},{"name":"Adam Olson","role":"PRINCIPAL_INVESTIGATOR"}],"geoPoint":{"lat":40.44062,"lon":-79.99589}},{"facility":"UPMC-Shadyside Hospital","status":"RECRUITING","city":"Pittsburgh","state":"Pennsylvania","zip":"15232","country":"United States","contacts":[{"name":"Site Public Contact","role":"CONTACT","phone":"412-621-2334"},{"name":"Adam Olson","role":"PRINCIPAL_INVESTIGATOR"}],"geoPoint":{"lat":40.44062,"lon":-79.99589}},{"facility":"UPMC-Passavant Hospital","status":"RECRUITING","city":"Pittsburgh","state":"Pennsylvania","zip":"15237","country":"United States","contacts":[{"name":"Site Public Contact","role":"CONTACT","phone":"412-367-6454"},{"name":"Adam Olson","role":"PRINCIPAL_INVESTIGATOR"}],"geoPoint":{"lat":40.44062,"lon":-79.99589}},{"facility":"UPMC-Saint Clair Hospital Cancer Center","status":"RECRUITING","city":"Pittsburgh","state":"Pennsylvania","zip":"15243","country":"United States","contacts":[{"name":"Site Public Contact","role":"CONTACT","phone":"412-502-3920"},{"name":"Adam Olson","role":"PRINCIPAL_INVESTIGATOR"}],"geoPoint":{"lat":40.44062,"lon":-79.99589}},{"facility":"UPMC Cancer Center at UPMC Northwest","status":"RECRUITING","city":"Seneca","state":"Pennsylvania","zip":"16346","country":"United States","contacts":[{"name":"Site Public Contact","role":"CONTACT","phone":"814-676-7900"},{"name":"Adam Olson","role":"PRINCIPAL_INVESTIGATOR"}],"geoPoint":{"lat":41.37867,"lon":-79.70394}},{"facility":"UPMC Uniontown Hospital Radiation Oncology","status":"RECRUITING","city":"Uniontown","state":"Pennsylvania","zip":"15401","country":"United States","contacts":[{"name":"Site Public Contact","role":"CONTACT","phone":"724-437-2503"},{"name":"Adam Olson","role":"PRINCIPAL_INVESTIGATOR"}],"geoPoint":{"lat":39.90008,"lon":-79.71643}},{"facility":"Crozer-Chester Medical Center","status":"SUSPENDED","city":"Upland","state":"Pennsylvania","zip":"19013","country":"United States","geoPoint":{"lat":39.85261,"lon":-75.38269}},{"facility":"UPMC Washington Hospital Radiation Oncology","status":"RECRUITING","city":"Washington","state":"Pennsylvania","zip":"15301","country":"United States","contacts":[{"name":"Site Public Contact","role":"CONTACT","phone":"724-223-3788","email":"cancer@washingtonhospital.org"},{"name":"Adam Olson","role":"PRINCIPAL_INVESTIGATOR"}],"geoPoint":{"lat":40.17396,"lon":-80.24617}},{"facility":"Chester County Hospital","status":"RECRUITING","city":"West Chester","state":"Pennsylvania","zip":"19380","country":"United States","contacts":[{"name":"Site Public Contact","role":"CONTACT","phone":"610-431-5044","email":"carolann.hoppes@pennmedicine.upenn.edu"},{"name":"Andre A. Konski","role":"PRINCIPAL_INVESTIGATOR"}],"geoPoint":{"lat":39.96097,"lon":-75.60804}},{"facility":"Reading Hospital","status":"RECRUITING","city":"West Reading","state":"Pennsylvania","zip":"19611","country":"United States","contacts":[{"name":"Site Public Contact","role":"CONTACT","phone":"610-988-9323"},{"name":"Terrence P. Cescon","role":"PRINCIPAL_INVESTIGATOR"}],"geoPoint":{"lat":40.3337,"lon":-75.94743}},{"facility":"UPMC Memorial","status":"RECRUITING","city":"York","state":"Pennsylvania","zip":"17408","country":"United States","contacts":[{"name":"Site Public Contact","role":"CONTACT","phone":"717-724-6760"},{"name":"Adam Olson","role":"PRINCIPAL_INVESTIGATOR"}],"geoPoint":{"lat":39.9626,"lon":-76.72774}},{"facility":"Avera Cancer Institute - Mitchell","status":"RECRUITING","city":"Mitchell","state":"South Dakota","zip":"57301","country":"United States","contacts":[{"name":"Site Public Contact","role":"CONTACT","phone":"605-322-3096","email":"OncRegulatory@avera.org"},{"name":"Ryan A. Vaca","role":"PRINCIPAL_INVESTIGATOR"}],"geoPoint":{"lat":43.70943,"lon":-98.0298}},{"facility":"Avera Cancer Institute","status":"RECRUITING","city":"Sioux Falls","state":"South Dakota","zip":"57105","country":"United States","contacts":[{"name":"Site Public Contact","role":"CONTACT","phone":"605-322-3095","email":"OncRegulatory@avera.org"},{"name":"Ryan A. Vaca","role":"PRINCIPAL_INVESTIGATOR"}],"geoPoint":{"lat":43.54369,"lon":-96.72796}},{"facility":"Parkland Memorial Hospital","status":"RECRUITING","city":"Dallas","state":"Texas","zip":"75235","country":"United States","contacts":[{"name":"Site Public Contact","role":"CONTACT","phone":"214-590-5582","email":"canceranswerline@UTSouthwestern.edu"},{"name":"Aurelie Garant","role":"PRINCIPAL_INVESTIGATOR"}],"geoPoint":{"lat":32.78306,"lon":-96.80667}},{"facility":"UT Southwestern/Simmons Cancer Center-Dallas","status":"RECRUITING","city":"Dallas","state":"Texas","zip":"75390","country":"United States","contacts":[{"name":"Site Public Contact","role":"CONTACT","phone":"214-648-7097","email":"canceranswerline@UTSouthwestern.edu"},{"name":"Aurelie Garant","role":"PRINCIPAL_INVESTIGATOR"}],"geoPoint":{"lat":32.78306,"lon":-96.80667}},{"facility":"Tarrant County Hospital District/JPS Health Network","status":"RECRUITING","city":"Fort Worth","state":"Texas","zip":"76104","country":"United States","contacts":[{"name":"Site Public Contact","role":"CONTACT","phone":"817-702-5913","email":"macosta02@jpshealth.org"},{"name":"Solomon L. Woldu","role":"PRINCIPAL_INVESTIGATOR"}],"geoPoint":{"lat":32.72541,"lon":-97.32085}},{"facility":"UT Southwestern/Simmons Cancer Center-Fort Worth","status":"RECRUITING","city":"Fort Worth","state":"Texas","zip":"76104","country":"United States","contacts":[{"name":"Site Public Contact","role":"CONTACT","phone":"214-648-7097","email":"canceranswerline@UTSouthwestern.edu"},{"name":"Aurelie Garant","role":"PRINCIPAL_INVESTIGATOR"}],"geoPoint":{"lat":32.72541,"lon":-97.32085}},{"facility":"UT Southwestern Clinical Center at Richardson/Plano","status":"RECRUITING","city":"Richardson","state":"Texas","zip":"75080","country":"United States","contacts":[{"name":"Site Public Contact","role":"CONTACT","phone":"972-669-7044","email":"Suzanne.cole@utsouthwestern.edu"},{"name":"Aurelie Garant","role":"PRINCIPAL_INVESTIGATOR"}],"geoPoint":{"lat":32.94818,"lon":-96.72972}},{"facility":"Audie L Murphy VA Hospital","status":"ACTIVE_NOT_RECRUITING","city":"San Antonio","state":"Texas","zip":"78229","country":"United States","geoPoint":{"lat":29.42412,"lon":-98.49363}},{"facility":"VCU Massey Cancer Center at Hanover Medical Park","status":"RECRUITING","city":"Mechanicsville","state":"Virginia","zip":"23116","country":"United States","contacts":[{"name":"Site Public Contact","role":"CONTACT","email":"CTOclinops@vcu.edu"},{"name":"Alfredo I. Urdaneta","role":"PRINCIPAL_INVESTIGATOR"}],"geoPoint":{"lat":37.60876,"lon":-77.37331}},{"facility":"Bon Secours Saint Francis Medical Center","status":"RECRUITING","city":"Midlothian","state":"Virginia","zip":"23114","country":"United States","contacts":[{"name":"Site Public Contact","role":"CONTACT","phone":"804-893-8978","email":"anne_carmellat@bshsi.org"},{"name":"Joseph D. Pennington","role":"PRINCIPAL_INVESTIGATOR"}],"geoPoint":{"lat":37.50598,"lon":-77.64916}},{"facility":"Bon Secours Cancer Institute at Reynolds Crossing","status":"RECRUITING","city":"Richmond","state":"Virginia","zip":"23230","country":"United States","contacts":[{"name":"Site Public Contact","role":"CONTACT","phone":"804-893-8978","email":"Anne_caramella@bshsi.org"},{"name":"Joseph D. Pennington","role":"PRINCIPAL_INVESTIGATOR"}],"geoPoint":{"lat":37.55376,"lon":-77.46026}},{"facility":"VCU Massey Cancer Center at Stony Point","status":"RECRUITING","city":"Richmond","state":"Virginia","zip":"23235","country":"United States","contacts":[{"name":"Site Public Contact","role":"CONTACT","email":"ctoclinops@vcu.edu"},{"name":"Alfredo I. Urdaneta","role":"PRINCIPAL_INVESTIGATOR"}],"geoPoint":{"lat":37.55376,"lon":-77.46026}},{"facility":"VCU Massey Comprehensive Cancer Center","status":"RECRUITING","city":"Richmond","state":"Virginia","zip":"23298","country":"United States","contacts":[{"name":"Site Public Contact","role":"CONTACT","phone":"804-628-6430","email":"CTOclinops@vcu.edu"},{"name":"Alfredo I. Urdaneta","role":"PRINCIPAL_INVESTIGATOR"}],"geoPoint":{"lat":37.55376,"lon":-77.46026}},{"facility":"Legacy Salmon Creek Hospital","status":"ACTIVE_NOT_RECRUITING","city":"Vancouver","state":"Washington","zip":"98686","country":"United States","geoPoint":{"lat":45.63873,"lon":-122.66149}},{"facility":"West Virginia University Charleston Division","status":"RECRUITING","city":"Charleston","state":"West Virginia","zip":"25304","country":"United States","contacts":[{"name":"Site Public Contact","role":"CONTACT","phone":"304-388-9944"},{"name":"Ahmed A. Khalid","role":"PRINCIPAL_INVESTIGATOR"}],"geoPoint":{"lat":38.34982,"lon":-81.63262}},{"facility":"Langlade Hospital and Cancer Center","status":"RECRUITING","city":"Antigo","state":"Wisconsin","zip":"54409","country":"United States","contacts":[{"name":"Site Public Contact","role":"CONTACT","phone":"715-623-9869","email":"Juli.Alford@aspirus.org"},{"name":"Andrew J. Huang","role":"PRINCIPAL_INVESTIGATOR"}],"geoPoint":{"lat":45.14025,"lon":-89.15234}},{"facility":"ThedaCare Regional Cancer Center","status":"RECRUITING","city":"Appleton","state":"Wisconsin","zip":"54911","country":"United States","contacts":[{"name":"Site Public Contact","role":"CONTACT","phone":"920-364-3604","email":"ResearchDept@thedacare.org"},{"name":"Michael E. Ray","role":"PRINCIPAL_INVESTIGATOR"}],"geoPoint":{"lat":44.26193,"lon":-88.41538}},{"facility":"Aurora Cancer Care-Southern Lakes VLCC","status":"RECRUITING","city":"Burlington","state":"Wisconsin","zip":"53105","country":"United States","contacts":[{"name":"Site Public Contact","role":"CONTACT","phone":"414-302-2304","email":"ncorp@aurora.org"},{"name":"Adam P. Siegel","role":"PRINCIPAL_INVESTIGATOR"}],"geoPoint":{"lat":42.67807,"lon":-88.2762}},{"facility":"Marshfield Medical Center-EC Cancer Center","status":"RECRUITING","city":"Eau Claire","state":"Wisconsin","zip":"54701","country":"United States","contacts":[{"name":"Site Public Contact","role":"CONTACT","phone":"800-782-8581","email":"oncology.clinical.trials@marshfieldresearch.org"},{"name":"Seth O. Fagbemi","role":"PRINCIPAL_INVESTIGATOR"}],"geoPoint":{"lat":44.81135,"lon":-91.49849}},{"facility":"Aurora Health Care Germantown Health Center","status":"RECRUITING","city":"Germantown","state":"Wisconsin","zip":"53022","country":"United States","contacts":[{"name":"Site Public Contact","role":"CONTACT","phone":"414-302-2304","email":"ncorp@aurora.org"},{"name":"Adam P. Siegel","role":"PRINCIPAL_INVESTIGATOR"}],"geoPoint":{"lat":43.22862,"lon":-88.11037}},{"facility":"Aurora Cancer Care-Grafton","status":"RECRUITING","city":"Grafton","state":"Wisconsin","zip":"53024","country":"United States","contacts":[{"name":"Site Public Contact","role":"CONTACT","phone":"414-302-2304","email":"ncorp@aurora.org"},{"name":"Adam P. Siegel","role":"PRINCIPAL_INVESTIGATOR"}],"geoPoint":{"lat":43.31973,"lon":-87.95342}},{"facility":"Bellin Memorial Hospital","status":"RECRUITING","city":"Green Bay","state":"Wisconsin","zip":"54301","country":"United States","contacts":[{"name":"Site Public Contact","role":"CONTACT","phone":"920-435-8326"},{"name":"Adam L. Liss","role":"PRINCIPAL_INVESTIGATOR"}],"geoPoint":{"lat":44.51916,"lon":-88.01983}},{"facility":"Aurora BayCare Medical Center","status":"RECRUITING","city":"Green Bay","state":"Wisconsin","zip":"54311","country":"United States","contacts":[{"name":"Site Public Contact","role":"CONTACT","phone":"414-302-2304","email":"ncorp@aurora.org"},{"name":"Adam P. Siegel","role":"PRINCIPAL_INVESTIGATOR"}],"geoPoint":{"lat":44.51916,"lon":-88.01983}},{"facility":"Aurora Cancer Care-Kenosha South","status":"RECRUITING","city":"Kenosha","state":"Wisconsin","zip":"53142","country":"United States","contacts":[{"name":"Site Public Contact","role":"CONTACT","phone":"414-302-2304","email":"ncorp@aurora.org"},{"name":"Adam P. Siegel","role":"PRINCIPAL_INVESTIGATOR"}],"geoPoint":{"lat":42.58474,"lon":-87.82119}},{"facility":"Aurora Bay Area Medical Group-Marinette","status":"RECRUITING","city":"Marinette","state":"Wisconsin","zip":"54143","country":"United States","contacts":[{"name":"Site Public Contact","role":"CONTACT","phone":"414-302-2304","email":"ncorp@aurora.org"},{"name":"Adam P. Siegel","role":"PRINCIPAL_INVESTIGATOR"}],"geoPoint":{"lat":45.09998,"lon":-87.63066}},{"facility":"Marshfield Medical Center-Marshfield","status":"RECRUITING","city":"Marshfield","state":"Wisconsin","zip":"54449","country":"United States","contacts":[{"name":"Site Public Contact","role":"CONTACT","phone":"800-782-8581","email":"oncology.clinical.trials@marshfieldresearch.org"},{"name":"Seth O. Fagbemi","role":"PRINCIPAL_INVESTIGATOR"}],"geoPoint":{"lat":44.66885,"lon":-90.1718}},{"facility":"Froedtert Menomonee Falls Hospital","status":"RECRUITING","city":"Menomonee Falls","state":"Wisconsin","zip":"53051","country":"United States","contacts":[{"name":"Site Public Contact","role":"CONTACT","phone":"262-257-5100"},{"name":"William A. Hall","role":"PRINCIPAL_INVESTIGATOR"}],"geoPoint":{"lat":43.1789,"lon":-88.11731}},{"facility":"Aurora Cancer Care-Milwaukee","status":"RECRUITING","city":"Milwaukee","state":"Wisconsin","zip":"53209","country":"United States","contacts":[{"name":"Site Public Contact","role":"CONTACT","phone":"414-302-2304","email":"ncorp@aurora.org"},{"name":"Adam P. Siegel","role":"PRINCIPAL_INVESTIGATOR"}],"geoPoint":{"lat":43.0389,"lon":-87.90647}},{"facility":"Aurora Saint Luke's Medical Center","status":"RECRUITING","city":"Milwaukee","state":"Wisconsin","zip":"53215","country":"United States","contacts":[{"name":"Site Public Contact","role":"CONTACT","phone":"414-302-2304","email":"ncorp@aurora.org"},{"name":"Adam P. Siegel","role":"PRINCIPAL_INVESTIGATOR"}],"geoPoint":{"lat":43.0389,"lon":-87.90647}},{"facility":"Medical College of Wisconsin","status":"RECRUITING","city":"Milwaukee","state":"Wisconsin","zip":"53226","country":"United States","contacts":[{"name":"Site Public Contact","role":"CONTACT","phone":"414-805-3666"},{"name":"William A. Hall","role":"PRINCIPAL_INVESTIGATOR"}],"geoPoint":{"lat":43.0389,"lon":-87.90647}},{"facility":"Aurora Sinai Medical Center","status":"RECRUITING","city":"Milwaukee","state":"Wisconsin","zip":"53233","country":"United States","contacts":[{"name":"Site Public Contact","role":"CONTACT","phone":"414-302-2304","email":"ncorp@aurora.org"},{"name":"Adam P. Siegel","role":"PRINCIPAL_INVESTIGATOR"}],"geoPoint":{"lat":43.0389,"lon":-87.90647}},{"facility":"Marshfield Medical Center - Minocqua","status":"RECRUITING","city":"Minocqua","state":"Wisconsin","zip":"54548","country":"United States","contacts":[{"name":"Site Public Contact","role":"CONTACT","phone":"800-782-8581","email":"oncology.clinical.trials@marshfieldresearch.org"},{"name":"Seth O. Fagbemi","role":"PRINCIPAL_INVESTIGATOR"}],"geoPoint":{"lat":45.87134,"lon":-89.71098}},{"facility":"Cancer Center of Western Wisconsin","status":"RECRUITING","city":"New Richmond","state":"Wisconsin","zip":"54017","country":"United States","contacts":[{"name":"Site Public Contact","role":"CONTACT","phone":"952-993-1517","email":"mmcorc@healthpartners.com"},{"name":"Charles Shideman","role":"PRINCIPAL_INVESTIGATOR"}],"geoPoint":{"lat":45.12302,"lon":-92.53659}},{"facility":"Drexel Town Square Health Center","status":"RECRUITING","city":"Oak Creek","state":"Wisconsin","zip":"53154","country":"United States","contacts":[{"name":"Site Public Contact","role":"CONTACT","phone":"414-805-0505"},{"name":"William A. Hall","role":"PRINCIPAL_INVESTIGATOR"}],"geoPoint":{"lat":42.88585,"lon":-87.86314}},{"facility":"Vince Lombardi Cancer Clinic - Oshkosh","status":"RECRUITING","city":"Oshkosh","state":"Wisconsin","zip":"54904","country":"United States","contacts":[{"name":"Site Public Contact","role":"CONTACT","phone":"414-302-2304","email":"ncorp@aurora.org"},{"name":"Adam P. Siegel","role":"PRINCIPAL_INVESTIGATOR"}],"geoPoint":{"lat":44.02471,"lon":-88.54261}},{"facility":"Aurora Cancer Care-Racine","status":"RECRUITING","city":"Racine","state":"Wisconsin","zip":"53406","country":"United States","contacts":[{"name":"Site Public Contact","role":"CONTACT","phone":"414-302-2304","email":"ncorp@aurora.org"},{"name":"Adam P. Siegel","role":"PRINCIPAL_INVESTIGATOR"}],"geoPoint":{"lat":42.72613,"lon":-87.78285}},{"facility":"Aspirus Cancer Care - James Beck Cancer Center","status":"RECRUITING","city":"Rhinelander","state":"Wisconsin","zip":"54501","country":"United States","contacts":[{"name":"Site Public Contact","role":"CONTACT","phone":"715-847-2353","email":"Beth.Knetter@aspirus.org"},{"name":"Andrew J. Huang","role":"PRINCIPAL_INVESTIGATOR"}],"geoPoint":{"lat":45.63662,"lon":-89.41208}},{"facility":"Marshfield Medical Center-Rice Lake","status":"RECRUITING","city":"Rice Lake","state":"Wisconsin","zip":"54868","country":"United States","contacts":[{"name":"Site Public Contact","role":"CONTACT","phone":"800-782-8581","email":"oncology.clinical.trials@marshfieldresearch.org"},{"name":"Seth O. Fagbemi","role":"PRINCIPAL_INVESTIGATOR"}],"geoPoint":{"lat":45.50607,"lon":-91.73823}},{"facility":"Vince Lombardi Cancer Clinic-Sheboygan","status":"RECRUITING","city":"Sheboygan","state":"Wisconsin","zip":"53081","country":"United States","contacts":[{"name":"Site Public Contact","role":"CONTACT","phone":"414-302-2304","email":"ncorp@aurora.org"},{"name":"Adam P. Siegel","role":"PRINCIPAL_INVESTIGATOR"}],"geoPoint":{"lat":43.75083,"lon":-87.71453}},{"facility":"Aspirus Cancer Care - Stevens Point","status":"RECRUITING","city":"Stevens Point","state":"Wisconsin","zip":"54481","country":"United States","contacts":[{"name":"Site Public Contact","role":"CONTACT","phone":"715-847-2353","email":"Beth.Knetter@aspirus.org"},{"name":"Andrew J. Huang","role":"PRINCIPAL_INVESTIGATOR"}],"geoPoint":{"lat":44.52358,"lon":-89.57456}},{"facility":"Marshfield Medical Center-River Region at Stevens Point","status":"RECRUITING","city":"Stevens Point","state":"Wisconsin","zip":"54482","country":"United States","contacts":[{"name":"Site Public Contact","role":"CONTACT","phone":"800-782-8581","email":"oncology.clinical.trials@marshfieldresearch.org"},{"name":"Seth O. Fagbemi","role":"PRINCIPAL_INVESTIGATOR"}],"geoPoint":{"lat":44.52358,"lon":-89.57456}},{"facility":"Aurora Medical Center in Summit","status":"RECRUITING","city":"Summit","state":"Wisconsin","zip":"53066","country":"United States","contacts":[{"name":"Site Public Contact","role":"CONTACT","phone":"414-302-2304","email":"ncorp@aurora.org"},{"name":"Adam P. Siegel","role":"PRINCIPAL_INVESTIGATOR"}]},{"facility":"Aspirus Regional Cancer Center","status":"RECRUITING","city":"Wausau","state":"Wisconsin","zip":"54401","country":"United States","contacts":[{"name":"Site Public Contact","role":"CONTACT","phone":"877-405-6866"},{"name":"Andrew J. Huang","role":"PRINCIPAL_INVESTIGATOR"}],"geoPoint":{"lat":44.95914,"lon":-89.63012}},{"facility":"Aurora Cancer Care-Milwaukee West","status":"RECRUITING","city":"Wauwatosa","state":"Wisconsin","zip":"53226","country":"United States","contacts":[{"name":"Site Public Contact","role":"CONTACT","phone":"414-302-2304","email":"ncorp@aurora.org"},{"name":"Adam P. Siegel","role":"PRINCIPAL_INVESTIGATOR"}],"geoPoint":{"lat":43.04946,"lon":-88.00759}},{"facility":"Aurora West Allis Medical Center","status":"RECRUITING","city":"West Allis","state":"Wisconsin","zip":"53227","country":"United States","contacts":[{"name":"Site Public Contact","role":"CONTACT","phone":"414-302-2304","email":"ncorp@aurora.org"},{"name":"Adam P. Siegel","role":"PRINCIPAL_INVESTIGATOR"}],"geoPoint":{"lat":43.01668,"lon":-88.00703}},{"facility":"Froedtert West Bend Hospital/Kraemer Cancer Center","status":"RECRUITING","city":"West Bend","state":"Wisconsin","zip":"53095","country":"United States","contacts":[{"name":"Site Public Contact","role":"CONTACT","phone":"414-805-0505"},{"name":"William A. Hall","role":"PRINCIPAL_INVESTIGATOR"}],"geoPoint":{"lat":43.42528,"lon":-88.18343}},{"facility":"Marshfield Medical Center - Weston","status":"RECRUITING","city":"Weston","state":"Wisconsin","zip":"54476","country":"United States","contacts":[{"name":"Site Public Contact","role":"CONTACT","phone":"800-782-8581","email":"oncology.clinical.trials@marshfieldresearch.org"},{"name":"Seth O. Fagbemi","role":"PRINCIPAL_INVESTIGATOR"}],"geoPoint":{"lat":44.8908,"lon":-89.54762}},{"facility":"Aspirus Cancer Care - Wisconsin Rapids","status":"RECRUITING","city":"Wisconsin Rapids","state":"Wisconsin","zip":"54494","country":"United States","contacts":[{"name":"Site Public Contact","role":"CONTACT","phone":"715-422-7718"},{"name":"Andrew J. Huang","role":"PRINCIPAL_INVESTIGATOR"}],"geoPoint":{"lat":44.38358,"lon":-89.81735}}],
    "key_inclusion_summary": [
      "Pathologically proven diagnosis of prostate adenocarcinoma.",
      "Must have undergone a radical prostatectomy.",
      "Pathologically confirmed node-positive disease confined to the pelvis.",
      "Must have a detectable PSA after radical prostatectomy.",
      "Eastern Cooperative Oncology Group (ECOG) performance status of 0-1."
    ],
    "key_exclusion_summary": [
      "Definitive radiologic evidence of metastatic disease (M1a, M1b or M1c).",
      "Prior systemic chemotherapy for prostate cancer.",
      "Prior radiotherapy to the region of the study cancer that would result in overlap of radiation therapy fields.",
      "History of seizure or a known condition that may pre-dispose to seizure.",
      "Severe or unstable angina, myocardial infarction, or other significant cardiovascular events within 12 months prior to registration."
    ]
  }